[{"name": "Richmond Chiropractic and Wellness Centre", "address": "129 Stewart Green SW, Calgary, AB T3H 3C8", "city": "Calgary", "phone": "+1 403-246-6770", "website": "http://www.richmondchiropractic.ca/", "rating": 4.8, "reviews": 21, "place_id": "ChIJ9ak8TvlxcVMRnTes07ZJbuM", "latitude": 51.016808, "longitude": -114.1690436, "care_type": "Chiropractor"}, {"name": "Lloydminster Chiropractic Centre Midwest Physiotherapy", "address": "5013 48 St, Lloydminster, AB T9V 0H7", "city": "Lloydminster", "phone": "+1 780-875-3389", "website": "http://www.lloydminsterchiropracticcentre.com/", "rating": 4.7, "reviews": 150, "place_id": "ChIJz_uR1JCyCVMRUQdrXUARrtk", "latitude": 53.2815105, "longitude": -110.0068971, "care_type": "Chiropractor"}, {"name": "Transition Health & Wellness", "address": "5008 40 St, Lloydminster, AB T9V 1B2", "city": "Lloydminster", "phone": "+1 780-872-5200", "website": "http://www.transitionhealthandwellness.com/", "rating": 4.8, "reviews": 87, "place_id": "ChIJEeDvZ5uyCVMRQR4dpsFXMOU", "latitude": 53.2744916, "longitude": -110.00686, "care_type": "Chiropractor"}, {"name": "Holistic Pain Solutions", "address": "5629 44 St #3A, Lloydminster, AB T9V 0B2", "city": "Lloydminster", "phone": "+1 306-830-0903", "website": "http://www.holisticpainsolutions.ca/", "rating": 5.0, "reviews": 277, "place_id": "ChIJgXAepG-yCVMR5NgoSo54p_I", "latitude": 53.2778433, "longitude": -110.0234787, "care_type": "Chiropractor"}, {"name": "Dr Ty Wilson", "address": "3911 51 Ave, Lloydminster, AB T9V 2Z2", "city": "Lloydminster", "phone": "+1 780-232-4025", "website": "", "rating": 5.0, "reviews": 7, "place_id": "ChIJUwVYd1-zCVMRE8oXuPVb6Nk", "latitude": 53.27393439999999, "longitude": -110.0079196, "care_type": "Chiropractor"}, {"name": "Dr. Ansel Chiropractic", "address": "5629A 44 St #3A, Lloydminster, AB T9V 0B2", "city": "Lloydminster", "phone": "", "website": "", "rating": 5.0, "reviews": 2, "place_id": "ChIJAxIHbhyzCVMRxDuQthKQdGI", "latitude": 53.2775287, "longitude": -110.0233931, "care_type": "Chiropractor"}, {"name": "Hnatko Thomas J Dr", "address": "4402 52 Ave #106, Lloydminster, AB T9V 0Y9", "city": "Lloydminster", "phone": "+1 780-875-7707", "website": "", "rating": 3.7, "reviews": 9, "place_id": "ChIJNfcUoJqyCVMRkXZYgNzcXTo", "latitude": 53.2786157, "longitude": -110.0110952, "care_type": "Chiropractor"}, {"name": "C L Body Therapy", "address": "4161 70 Ave, Lloydminster, AB T9V 3L9", "city": "Lloydminster", "phone": "+1 780-875-5372", "website": "https://cltherapy.com/", "rating": 4.4, "reviews": 21, "place_id": "ChIJVfygoG-yCVMRBFnIBLFERug", "latitude": 53.27483609999999, "longitude": -110.0467008, "care_type": "Chiropractor"}, {"name": "Life Chiropractic Wellness Centre - Red Deer", "address": "6 Clearview Market Way #120, Red Deer, AB T4P 0M9", "city": "Red Deer", "phone": "+1 403-346-5433", "website": "https://www.lifechiro.ca/", "rating": 4.8, "reviews": 149, "place_id": "ChIJq5CZ5SZUdFMRxFYJNSlhgbk", "latitude": 52.2858441, "longitude": -113.7704685, "care_type": "Chiropractor"}, {"name": "Elite Chiropractic and Sports Medicine", "address": "2085 Gaetz Ave #110, Red Deer, AB T4R 1Z4", "city": "Red Deer", "phone": "+1 403-986-1269", "website": "http://www.elitechiropractic.ca/", "rating": 5.0, "reviews": 167, "place_id": "ChIJobW3TsdWdFMRGuDbtnAij7A", "latitude": 52.23662909999999, "longitude": -113.8122645, "care_type": "Chiropractor"}, {"name": "Red Deer Chiropractic & Laser Centre", "address": "4419 50 Ave Unit 101, Red Deer, AB T4N 3Z5", "city": "Red Deer", "phone": "+1 403-340-1228", "website": "http://reddeerchiropractic.com/", "rating": 4.5, "reviews": 33, "place_id": "ChIJk20niiZUdFMRQZxw4Nryplo", "latitude": 52.2639249, "longitude": -113.8131547, "care_type": "Chiropractor"}, {"name": "Heritage Chiropractic Clinic", "address": "5116 52 St, Red Deer, AB T4N 6Y4", "city": "Red Deer", "phone": "+1 403-341-3888", "website": "http://heritagechiro.ca/", "rating": 5.0, "reviews": 22, "place_id": "ChIJG453jxFVdFMRlUOPOE0wg5c", "latitude": 52.2713847, "longitude": -113.8158254, "care_type": "Chiropractor"}, {"name": "Family First Chiropractic & Wellness", "address": "142 Erickson Dr, Red Deer, AB T4R 2C3", "city": "Red Deer", "phone": "+1 403-347-3261", "website": "http://www.family1stchiro.ca/", "rating": 4.6, "reviews": 277, "place_id": "ChIJHTeWhXdWdFMRvtDbu_vdHIA", "latitude": 52.266234, "longitude": -113.7738246, "care_type": "Chiropractor"}, {"name": "Dennis Chiropractic + Massage, Acupuncture | Dr. Brendan Dennis DC | Cynthia Patterson, RMT", "address": "4929 50 St #9, Red Deer, AB T4N 1X9", "city": "Red Deer", "phone": "+1 403-346-4700", "website": "http://www.dennischiropractic.ca/", "rating": 4.8, "reviews": 84, "place_id": "ChIJleighy9UdFMRiva9UscDYgg", "latitude": 52.2688784, "longitude": -113.8130986, "care_type": "Chiropractor"}, {"name": "Divine Spine", "address": "499 Timberlands Dr Unit 11101, Red Deer, AB T4P 0Z3", "city": "Red Deer", "phone": "+1 403-342-7670", "website": "https://divinespine.com/alberta/red-deer/", "rating": 4.9, "reviews": 252, "place_id": "ChIJ7RKzxiVVdFMRjoAKFdXG7T4", "latitude": 52.2844377, "longitude": -113.7647947, "care_type": "Chiropractor"}, {"name": "Village Chiropractic Clinic", "address": "5212 48 St A103, Red Deer, AB T4N 7C3", "city": "Red Deer", "phone": "+1 403-340-1770", "website": "http://thevillagechiropractic.ca/", "rating": 4.7, "reviews": 40, "place_id": "ChIJizB7Z0pUdFMRQonZ2Od7wUU", "latitude": 52.2680917, "longitude": -113.8202096, "care_type": "Chiropractor"}, {"name": "Pure Red Deer", "address": "4807 50 Ave # 207, Red Deer, AB T4N 4A5", "city": "Red Deer", "phone": "+1 403-348-8222", "website": "http://www.purereddeer.com/", "rating": 4.8, "reviews": 154, "place_id": "ChIJyyaqliVUdFMR0MAAqPnPTNY", "latitude": 52.2675154, "longitude": -113.8138604, "care_type": "Chiropractor"}, {"name": "Hoffman Chiropractic & Wellness", "address": "179C Leva Ave #103, Red Deer, AB T4E 0A5", "city": "Red Deer", "phone": "+1 403-346-2297", "website": "https://www.hoffmanwellness.com/%3FUTM_source%3DGBL", "rating": 4.8, "reviews": 132, "place_id": "ChIJWVAq8bhWdFMRHt617xjatXU", "latitude": 52.21710059999999, "longitude": -113.8149877, "care_type": "Chiropractor"}, {"name": "Pines Chiropractic & Laser Center", "address": "6791 50 Ave #10A, Red Deer, AB T4N 4C9", "city": "Red Deer", "phone": "+1 403-343-0909", "website": "http://www.pineschiropracticcenter.com/", "rating": 4.7, "reviews": 13, "place_id": "ChIJ____IrNVdFMRLi08OdKg38E", "latitude": 52.2914131, "longitude": -113.8124743, "care_type": "Chiropractor"}, {"name": "Trinity Chiropractic Wellness Centre", "address": "5301 43 St 5301 119, Red Deer, AB T4N 1C8", "city": "Red Deer", "phone": "+1 403-346-4336", "website": "", "rating": 4.9, "reviews": 33, "place_id": "ChIJJ_R9oiFUdFMRhNZ7gSe4qa0", "latitude": 52.262355, "longitude": -113.822346, "care_type": "Chiropractor"}, {"name": "Dr. Chelsie Goulet", "address": "20 Sharpe Ave #3109, Red Deer, AB T4R 0V2", "city": "Red Deer", "phone": "+1 403-755-1977", "website": "http://drchelsiechiro.com/", "rating": 4.6, "reviews": 10, "place_id": "ChIJ5zpFqtRXdFMREqo0hsdna3U", "latitude": 52.2308838, "longitude": -113.8010357, "care_type": "Chiropractor"}, {"name": "Baker Family Chiropractic & Wellness Centre", "address": "4702 50 Ave, Red Deer, AB T4N 4A1", "city": "Red Deer", "phone": "+1 403-347-0477", "website": "http://www.bakerchiropractic.ca/", "rating": 4.8, "reviews": 57, "place_id": "ChIJ1c9NxCVUdFMRXOLAT-8zyhU", "latitude": 52.2662717, "longitude": -113.814236, "care_type": "Chiropractor"}, {"name": "South Gaetz Chiropractic", "address": "3450 50 Ave Unit B, Red Deer, AB T4N 3Y4", "city": "Red Deer", "phone": "+1 403-986-6260", "website": "http://www.southgaetzchiropractic.com/", "rating": 5.0, "reviews": 29, "place_id": "ChIJgQ4ub55WdFMRvCRA-pYMcNg", "latitude": 52.2555215, "longitude": -113.8147116, "care_type": "Chiropractor"}, {"name": "Anders Victoria Family Chiropractic", "address": "420 Allan St #1, Red Deer, AB T4R 2K7", "city": "Red Deer", "phone": "+1 403-340-1133", "website": "http://andersvictoriachiro.com/", "rating": 4.8, "reviews": 29, "place_id": "ChIJa__A2o1WdFMRGrVOPLa07Ug", "latitude": 52.25157, "longitude": -113.77343, "care_type": "Chiropractor"}, {"name": "Aligned Together", "address": "20 Sharpe Ave #3109, Red Deer, AB T4R 0V2", "city": "Red Deer", "phone": "+1 403-755-1977", "website": "http://www.alignedtogether.ca/", "rating": 5.0, "reviews": 100, "place_id": "ChIJO7Ir5cJWdFMRNHWd64NYFuI", "latitude": 52.23091549999999, "longitude": -113.8009433, "care_type": "Chiropractor"}, {"name": "Life Force Chiropractic", "address": "4315 55 Ave #101, Red Deer, AB T4N 4N7", "city": "Red Deer", "phone": "+1 403-340-0278", "website": "http://www.lifeforcechiro.ca/", "rating": 5.0, "reviews": 7, "place_id": "ChIJ4526BY1IZUERmFVU9jRRVjU", "latitude": 52.2635626, "longitude": -113.8246098, "care_type": "Chiropractor"}, {"name": "Capstone Chiropractic Dr. Brian Snider", "address": "5550 45 St #10, Red Deer, AB T4N 1L1", "city": "Red Deer", "phone": "+1 825-221-6542", "website": "http://capstonechiropractic.ca/", "rating": 5.0, "reviews": 18, "place_id": "ChIJ_-2KiBFVdFMRmH2hwxzdTfI", "latitude": 52.2653401, "longitude": -113.8263927, "care_type": "Chiropractor"}, {"name": "Optimum Performance Centre", "address": "69 Dunlop St #10, Red Deer, AB T4R 2H6", "city": "Red Deer", "phone": "+1 403-314-4456", "website": "http://www.optimumperformancecentre.com/", "rating": 5.0, "reviews": 31, "place_id": "ChIJU66RbmdWdFMRXxLSgI5XvG4", "latitude": 52.2550187, "longitude": -113.7640412, "care_type": "Chiropractor"}, {"name": "Peak Chiropractic Centre", "address": "5212 48 St #103, Red Deer, AB T4N 7C3", "city": "Red Deer", "phone": "+1 403-343-7325", "website": "http://www.peakchiropracticcentre.com/", "rating": 4.8, "reviews": 19, "place_id": "ChIJVdtu9SRUdFMRkNQ3GOOsl24", "latitude": 52.267365, "longitude": -113.8189411, "care_type": "Chiropractor"}, {"name": "Care Chiropractic Health & Rehab", "address": "4910 45 St, Red Deer, AB T4N 1K6", "city": "Red Deer", "phone": "+1 403-309-2292", "website": "https://carechiropractic.ca/", "rating": 4.6, "reviews": 16, "place_id": "ChIJo-BgoZJIZUERMl3gkWaAvxA", "latitude": 52.2646739, "longitude": -113.812308, "care_type": "Chiropractor"}, {"name": "A-Associated Chiropractic & Acupuncture", "address": "5415 49 Ave, Red Deer, AB T4N 3X5", "city": "Red Deer", "phone": "+1 403-342-2273", "website": "http://www.reddeerbackandneck.com/", "rating": 4.7, "reviews": 11, "place_id": "ChIJwcQPozFUdFMRs5_wjI8tnTI", "latitude": 52.2736471, "longitude": -113.8112416, "care_type": "Chiropractor"}, {"name": "Dr. Rachel Hum", "address": "550 Laura Ave suite 104, Red Deer County, AB T4E 0A5", "city": "Red Deer County", "phone": "+1 587-200-1255", "website": "https://www.drrachelhum.ca/", "rating": 5.0, "reviews": 16, "place_id": "ChIJX_tN2i9XdFMRePEXWAtdVKI", "latitude": 52.20830729999999, "longitude": -113.8264833, "care_type": "Chiropractor"}, {"name": "Horizon Joint and Wellness", "address": "6845 66 St #240, Red Deer, AB T4P 3T5", "city": "Red Deer", "phone": "+1 403-887-0551", "website": "http://www.horizonjointandwellness.com/", "rating": 5.0, "reviews": 68, "place_id": "ChIJkeoEG7qydVMRiWgKYmJuwmY", "latitude": 52.28758999999999, "longitude": -113.85252, "care_type": "Chiropractor"}, {"name": "Dr. Joelle Johnson, D.C.", "address": "142 Erickson Dr, Red Deer, AB T4R 2C3", "city": "Red Deer", "phone": "+1 403-347-3261", "website": "http://www.family1stchiro.ca/", "rating": 5.0, "reviews": 1, "place_id": "ChIJ8Qz0hndWdFMRzJ0jDnNRyqk", "latitude": 52.26606899999999, "longitude": -113.773813, "care_type": "Chiropractor"}, {"name": "Todd Liebig DC", "address": "3450 50 Ave Unit B, Red Deer, AB T4N 3Y4", "city": "Red Deer", "phone": "+1 403-986-6260", "website": "", "rating": 5.0, "reviews": 6, "place_id": "ChIJgQ4ub55WdFMRvy1vdgMCp7M", "latitude": 52.2554753, "longitude": -113.8147009, "care_type": "Chiropractor"}, {"name": "Chiropratic at the Crossing in Red Deer", "address": "5250 22 St, Red Deer, AB T4R 3L1", "city": "Red Deer", "phone": "+1 403-342-7670", "website": "", "rating": null, "reviews": 0, "place_id": "ChIJ6QIe4fZWdFMRBJL-xAwxLuM", "latitude": 52.2377476, "longitude": -113.7733377, "care_type": "Chiropractor"}, {"name": "Dr. Todd Newfield", "address": "107 Woodland Hills, 27475 Township Road 380, Red Deer, AB T4S 2B7", "city": "Red Deer", "phone": "+1 403-340-3337", "website": "", "rating": 5.0, "reviews": 2, "place_id": "ChIJ1fYmxTRRdFMRujI-3N0foEg", "latitude": 52.2855174, "longitude": -113.8162803, "care_type": "Chiropractor"}, {"name": "Sports Therapy Centre", "address": "5440 45 St, Red Deer, AB T4N 1L1", "city": "Red Deer", "phone": "+1 403-348-2991", "website": "", "rating": 5.0, "reviews": 1, "place_id": "ChIJpRYjRiJUdFMRm6dfxUlIifc", "latitude": 52.2655876, "longitude": -113.8256131, "care_type": "Chiropractor"}, {"name": "Dr. Elton Clemence", "address": "142 Erickson Dr, Red Deer, AB T4R 2C3", "city": "Red Deer", "phone": "+1 403-347-3261", "website": "http://family1stchiro.ca/index.php%3Fp%3D409525", "rating": null, "reviews": 0, "place_id": "ChIJfeTkj3dWdFMRdOf5ncuuoSM", "latitude": 52.2662814, "longitude": -113.7739473, "care_type": "Chiropractor"}, {"name": "Massage Addict Red Deer Bower", "address": "4925 30 St Unit 150, Red Deer, AB T4N 5G7", "city": "Red Deer", "phone": "+1 403-346-6131", "website": "https://www.massageaddict.ca/reddeer-bower%3Futm_source%3Dgoogle_business_profile%26utm_medium%3Dorganic", "rating": 4.8, "reviews": 29, "place_id": "ChIJvXedUP5XdFMRFN7IRIUOUj0", "latitude": 52.2483181, "longitude": -113.8104011, "care_type": "Chiropractor"}, {"name": "Elaine Kure, Doctor of Chiropractic", "address": "36124 Range Rd 22, Red Deer County, AB T4G 0M8", "city": "Red Deer County", "phone": "+1 403-358-8514", "website": "http://kurechiropractic.janeapp.com/", "rating": 5.0, "reviews": 8, "place_id": "ChIJn12Yqpo5dFMRRNNu6fv51No", "latitude": 52.0748176, "longitude": -114.1930898, "care_type": "Chiropractor"}, {"name": "Blackfalds Chiropractic Centre", "address": "5007 Broadway Ave, Blackfalds, AB T0M 0J0", "city": "Blackfalds", "phone": "+1 403-885-5808", "website": "http://blackfaldschiro.com/", "rating": 5.0, "reviews": 22, "place_id": "ChIJhRLxfmwAdVMRBanazIWmlgo", "latitude": 52.3794804, "longitude": -113.7952562, "care_type": "Chiropractor"}, {"name": "City Centre Chiropractic", "address": "4942 50 St, Red Deer, AB T4N 1X7", "city": "Red Deer", "phone": "+1 403-309-8816", "website": "", "rating": null, "reviews": 0, "place_id": "ChIJj4ABPStUdFMRRMfB9ivvwr8", "latitude": 52.269271, "longitude": -113.8136185, "care_type": "Chiropractor"}, {"name": "Pohl Darren Dr", "address": "5116 52 St, Red Deer, AB T4N 6Y4", "city": "Red Deer", "phone": "+1 403-341-3888", "website": "", "rating": null, "reviews": 0, "place_id": "ChIJc4tiADBUdFMR78PtAJmy4kU", "latitude": 52.2712768, "longitude": -113.8161205, "care_type": "Chiropractor"}, {"name": "Peak Chiropractic Centre: Duane Smethurst, DC", "address": "5212 48 St #103, Red Deer, AB T4N 7C3", "city": "Red Deer", "phone": "+1 403-343-7325", "website": "http://peakchiropracticcentre.com/", "rating": null, "reviews": 0, "place_id": "ChIJVdtu9SRUdFMRWWMcD4fogTM", "latitude": 52.2672991, "longitude": -113.8186997, "care_type": "Chiropractor"}, {"name": "67th Street Chiropractic Centre", "address": "6730 Taylor Dr., Red Deer, AB T4P 1K4", "city": "Red Deer", "phone": "+1 403-314-2199", "website": "", "rating": 4.3, "reviews": 3, "place_id": "ChIJK44f8j5UdFMRnFA2tVu-yGs", "latitude": 52.2899397, "longitude": -113.8387888, "care_type": "Chiropractor"}, {"name": "Bridge Chiropractic", "address": "704 5 Ave S, Lethbridge, AB T1J 2G8", "city": "Lethbridge", "phone": "+1 403-329-8266", "website": "https://www.bridgechiropractic.ca/", "rating": 5.0, "reviews": 108, "place_id": "ChIJv7ksUcyHblMR3Sxhuxhmvwk", "latitude": 49.6927708, "longitude": -112.8363414, "care_type": "Chiropractor"}, {"name": "Chiropractic Central", "address": "210 12C St N, Lethbridge, AB T1H 2M7", "city": "Lethbridge", "phone": "+1 403-329-0922", "website": "http://www.lethbridgechiropractor.com/", "rating": 4.7, "reviews": 42, "place_id": "ChIJs5b0QbeHblMRVAmKNWEVzL8", "latitude": 49.70192429999999, "longitude": -112.8258919, "care_type": "Chiropractor"}, {"name": "Adapt Chiropractic", "address": "8 Aquitania Blvd W #20, Lethbridge, AB T1J 5L4", "city": "Lethbridge", "phone": "+1 403-327-0227", "website": "https://goadaptchiro.com/", "rating": 4.9, "reviews": 59, "place_id": "ChIJp4GF9f6IblMRWyUkdLApQ74", "latitude": 49.67239, "longitude": -112.9027107, "care_type": "Chiropractor"}, {"name": "Power Health", "address": "503 5 St S, Lethbridge, AB T1J 2B9", "city": "Lethbridge", "phone": "+1 403-320-7073", "website": "http://powerhealthchiro.com/", "rating": 5.0, "reviews": 396, "place_id": "ChIJgdUwks2HblMRIq23ydsrbgg", "latitude": 49.692509, "longitude": -112.83961, "care_type": "Chiropractor"}, {"name": "Body & Soul Chiropractic and Massage Therapy | Lethbridge Chiropractors and Massage Therapists", "address": "111 7 St S, Lethbridge, AB T1J 2G1", "city": "Lethbridge", "phone": "+1 403-320-8080", "website": "http://www.bodyandsoulchiro.net/", "rating": 4.8, "reviews": 161, "place_id": "ChIJLZga1c6HblMR_ii26a0Fv0Q", "latitude": 49.6975469, "longitude": -112.8369332, "care_type": "Chiropractor"}, {"name": "West Lethbridge Family Chiropractic", "address": "888 Heritage Blvd W, Lethbridge, AB T1K 7V5", "city": "Lethbridge", "phone": "+1 403-327-0070", "website": "http://www.westlethbridgechiropractic.ca/", "rating": 5.0, "reviews": 16, "place_id": "ChIJMQyu9WqIblMRuG0OoCYHvjQ", "latitude": 49.697904, "longitude": -112.892831, "care_type": "Chiropractor"}, {"name": "Fresh Life Chiropractic - Lethbridge", "address": "525 Highlands Blvd W #20, Lethbridge, AB T1J 5G3", "city": "Lethbridge", "phone": "+1 403-331-3301", "website": "https://www.freshlifechiropractic.ca/", "rating": 4.9, "reviews": 386, "place_id": "ChIJtfPyXUKIblMRxFOdF86zags", "latitude": 49.693034, "longitude": -112.895414, "care_type": "Chiropractor"}, {"name": "McLeod Family Chiropractic", "address": "408 6 St S, Lethbridge, AB T1J 2C9", "city": "Lethbridge", "phone": "+1 403-394-1177", "website": "http://www.mcleodfamilychiro.ca/", "rating": 5.0, "reviews": 13, "place_id": "ChIJwUUkzs2HblMRxiRJiRCxS-E", "latitude": 49.694013, "longitude": -112.838524, "care_type": "Chiropractor"}, {"name": "Able Body Health Clinic", "address": "1212 3 Ave S, Lethbridge, AB T1J 0J9", "city": "Lethbridge", "phone": "+1 403-329-1300", "website": "https://ablebody.ca/", "rating": 4.8, "reviews": 133, "place_id": "ChIJzSjLL8mHblMRCpb41S7i9-c", "latitude": 49.6960405, "longitude": -112.8284253, "care_type": "Chiropractor"}, {"name": "Tri Chiropractic", "address": "240, 876 Heritage Blvd W, Lethbridge, AB T1K 8G1", "city": "Lethbridge", "phone": "+1 403-329-0997", "website": "https://drhelen.ca/", "rating": 5.0, "reviews": 24, "place_id": "ChIJxzx5-M2HblMREJF-4MCXM_k", "latitude": 49.6981463, "longitude": -112.8929192, "care_type": "Chiropractor"}, {"name": "Back In Balance Wellness Centre", "address": "303 3 Ave S, Lethbridge, AB T1J 4J8", "city": "Lethbridge", "phone": "+1 403-331-3331", "website": "https://www.backinbalancelethbridge.com/", "rating": 4.9, "reviews": 51, "place_id": "ChIJr9vzNbSHblMRCJotOwySqSw", "latitude": 49.6958314, "longitude": -112.8430359, "care_type": "Chiropractor"}, {"name": "takahashi chiropractic", "address": "464 5 Ave S, Lethbridge, AB T1J 0T5", "city": "Lethbridge", "phone": "+1 403-328-0412", "website": "https://www.facebook.com/Chiropracticandmassagetherapy/", "rating": 5.0, "reviews": 10, "place_id": "ChIJm9s6Ns6HblMRzTZ5LWXLBL8", "latitude": 49.6925786, "longitude": -112.8403291, "care_type": "Chiropractor"}, {"name": "Southern Chiropractic Family Wellness", "address": "1013 2 Ave S, Lethbridge, AB T1J 0C8", "city": "Lethbridge", "phone": "+1 403-327-3130", "website": "https://www.southernchiropractic.ca/", "rating": 4.6, "reviews": 14, "place_id": "ChIJmcGdfwmyDEER46DHk6wLyKI", "latitude": 49.6974637, "longitude": -112.8314888, "care_type": "Chiropractor"}, {"name": "Achieve Health and Wellness", "address": "20 Mt Burke Blvd W, Lethbridge, AB T1K 7X9", "city": "Lethbridge", "phone": "+1 403-942-4357", "website": "https://www.achievehealthandwellness.ca/%3Futm_source%3Dgmb%26utm_medium%3Dorganic", "rating": 4.9, "reviews": 57, "place_id": "ChIJhTkIsumIblMRfHOFBSht5Pw", "latitude": 49.6620576, "longitude": -112.8775999, "care_type": "Chiropractor"}, {"name": "Parascak Family Chiropractic", "address": "550 Wt Hill Blvd S #30, Lethbridge, AB T1J 4Z9", "city": "Lethbridge", "phone": "+1 403-394-9276", "website": "https://parascakchiropractic.com/", "rating": 5.0, "reviews": 191, "place_id": "ChIJP5iKU8yHblMRcG8Hey4K0Y4", "latitude": 49.6921, "longitude": -112.785902, "care_type": "Chiropractor"}, {"name": "Southview Chiropractic", "address": "1614 Mayor Magrath Dr S, Lethbridge, AB T1K 2R5", "city": "Lethbridge", "phone": "+1 403-320-1015", "website": "http://lethbridgechiro.com/", "rating": 4.8, "reviews": 92, "place_id": "ChIJR8jTB2qGblMRyWdq0KlJE2U", "latitude": 49.675208, "longitude": -112.802209, "care_type": "Chiropractor"}, {"name": "Dr. Aaron Puhl | Chiropractor", "address": "1212 3 Ave S, Lethbridge, AB T1J 0J9", "city": "Lethbridge", "phone": "+1 403-329-1300", "website": "https://ablebody.ca/chiropractic/", "rating": 4.0, "reviews": 4, "place_id": "ChIJ3xayL8mHblMRyL1oypmsMp8", "latitude": 49.6960405, "longitude": -112.8284253, "care_type": "Chiropractor"}, {"name": "Functional Health & Chiropractic Center", "address": "1406 3 Ave S, Lethbridge, AB T1J 2X5", "city": "Lethbridge", "phone": "+1 403-380-4233", "website": "http://functionalhealthcenter.ca/", "rating": 5.0, "reviews": 23, "place_id": "ChIJpR1gRrSHblMR8-U80dBXxL8", "latitude": 49.6961277, "longitude": -112.8222249, "care_type": "Chiropractor"}, {"name": "Dr. Benoit Laforge", "address": "420 13 St N, Lethbridge, AB T1H 2S2", "city": "Lethbridge", "phone": "+1 403-388-1452", "website": "https://www.thrivehealthcollective.ca/", "rating": 5.0, "reviews": 9, "place_id": "ChIJhQ-oUGuHblMRLLqDdNfhKAQ", "latitude": 49.7051533, "longitude": -112.8244945, "care_type": "Chiropractor"}, {"name": "Barclay Chiropractic", "address": "424'A 7 St S, Lethbridge, AB T1J 2G6", "city": "Lethbridge", "phone": "+1 403-329-6005", "website": "http://barclaychiropractic.com/", "rating": 5.0, "reviews": 5, "place_id": "ChIJO1rt5noKb1MRXx7EDbgWTBo", "latitude": 49.6935098, "longitude": -112.837213, "care_type": "Chiropractor"}, {"name": "Dr. Jeff Hedrich", "address": "740 4 Ave S #204, Lethbridge, AB T1J 0N9", "city": "Lethbridge", "phone": "+1 403-381-2132", "website": "http://www.drhedrich.ca/", "rating": 4.8, "reviews": 46, "place_id": "ChIJwZmQFsyHblMRgQcKK8kOU_E", "latitude": 49.6942969, "longitude": -112.8358816, "care_type": "Chiropractor"}, {"name": "Amplify Chiropractic -- Dr. Darren Sillito", "address": "545 Wt Hill Blvd S #20, Lethbridge, AB T1J 1Y6", "city": "Lethbridge", "phone": "+1 403-942-0880", "website": "http://www.amplifychiropractic.ca/", "rating": 5.0, "reviews": 14, "place_id": "ChIJLd-xGsyHblMRq1Zo6lScbMk", "latitude": 49.6933093, "longitude": -112.7854275, "care_type": "Chiropractor"}, {"name": "Chinook Chiropractic Centre", "address": "406 8 St S, Lethbridge, AB T1J 0N9", "city": "Lethbridge", "phone": "+1 403-380-6200", "website": "http://www.chinookchiropractic.ca/", "rating": 5.0, "reviews": 3, "place_id": "ChIJt25hHMqHblMR9bFPCRNYezU", "latitude": 49.6939958, "longitude": -112.835581, "care_type": "Chiropractor"}, {"name": "Health First Soft Tissue & Joint Clinic", "address": "1075 Mayor Magrath Dr S, Lethbridge, AB T1K 2P9", "city": "Lethbridge", "phone": "+1 403-380-3744", "website": "http://www.healthfirstclinic.ca/", "rating": 5.0, "reviews": 25, "place_id": "ChIJh2Dyb02GblMROcjIuhg-D54", "latitude": 49.6818502, "longitude": -112.8036279, "care_type": "Chiropractor"}, {"name": "Noji Chiropractic & Wellness Centre", "address": "518 5 St S, Lethbridge, AB T1J 2B8", "city": "Lethbridge", "phone": "+1 403-381-7766", "website": "https://www.nojichiropractic.com/", "rating": 5.0, "reviews": 7, "place_id": "ChIJgadOiMuHblMR0U3hl29aYsI", "latitude": 49.6919358, "longitude": -112.8403368, "care_type": "Chiropractor"}, {"name": "Dr. Kyle Vandervalk", "address": "420 13 St N, Lethbridge, AB T1H 2S2", "city": "Lethbridge", "phone": "+1 403-388-1452", "website": "http://www.thrivehealthcollective.ca/", "rating": 5.0, "reviews": 15, "place_id": "ChIJucJBF8yHblMRKxW5NhdqchM", "latitude": 49.7051533, "longitude": -112.8244945, "care_type": "Chiropractor"}, {"name": "Dr. C\u00e9lia Michaud | Chiropractor", "address": "1212 3 Ave S, Lethbridge, AB T1J 0J9", "city": "Lethbridge", "phone": "+1 403-329-1300", "website": "https://ablebody.ca/our-team/celia-michaud/", "rating": 5.0, "reviews": 2, "place_id": "ChIJUXhKJwuHblMR12UhWqq9q1I", "latitude": 49.6960405, "longitude": -112.8284253, "care_type": "Chiropractor"}, {"name": "Dr. George Tran Chiropractic", "address": "1249 2A Avenue North, Lethbridge, AB T1H 0E9", "city": "Lethbridge", "phone": "+1 825-594-8726", "website": "http://drgeorgetran.janeapp.com/", "rating": 5.0, "reviews": 16, "place_id": "ChIJNQIf5qGHblMRBluB9DCMgck", "latitude": 49.70180329999999, "longitude": -112.8268271, "care_type": "Chiropractor"}, {"name": "Stroud Chiropractic", "address": "529 6 St S, Lethbridge, AB T1J 2E1", "city": "Lethbridge", "phone": "+1 403-381-6700", "website": "https://www.stroudchiropractic.ca/", "rating": 5.0, "reviews": 11, "place_id": "ChIJwQCVbc2HblMRryzerXz-M7w", "latitude": 49.6915743, "longitude": -112.8380605, "care_type": "Chiropractor"}, {"name": "Dr Tedd Walcott Chiropractor", "address": "201 12C St N, Lethbridge, AB T1J 5C8", "city": "Lethbridge", "phone": "+1 403-327-0345", "website": "https://www.lethbridgechiropractor.com/", "rating": 5.0, "reviews": 1, "place_id": "ChIJm47fb_6GblMRvzzF2nrVQHc", "latitude": 49.7020832, "longitude": -112.82527, "care_type": "Chiropractor"}, {"name": "Dr. Dustin Smith Chiropractic", "address": "1075 Mayor Magrath Dr S, Lethbridge, AB T1K 2P9", "city": "Lethbridge", "phone": "+1 403-380-3744", "website": "", "rating": 5.0, "reviews": 3, "place_id": "ChIJ__8_33KGblMRfLFIyHK9B1Q", "latitude": 49.6817895, "longitude": -112.80362, "care_type": "Chiropractor"}, {"name": "Dr. Donald L. Sheppard Chiropractor in Lethbridge", "address": "1212 3 Ave S, Lethbridge, AB T1J 0J9", "city": "Lethbridge", "phone": "+1 403-320-8511", "website": "https://ablebody.ca/", "rating": 5.0, "reviews": 6, "place_id": "ChIJW77dBMqHblMRkJmswji9aM8", "latitude": 49.6959566, "longitude": -112.8282655, "care_type": "Chiropractor"}, {"name": "Dr. Cameron Middleton | Chiropractor", "address": "1212 3 Ave S, Lethbridge, AB T1J 0J9", "city": "Lethbridge", "phone": "+1 403-329-1300", "website": "https://ablebody.ca/chiropractic/", "rating": null, "reviews": 0, "place_id": "ChIJscJ0DsqHblMRtoo_UHdfBr8", "latitude": 49.6960405, "longitude": -112.8284253, "care_type": "Chiropractor"}, {"name": "BackHealth.ca Chiropractic", "address": "201 12C St N, Lethbridge, AB T1H 2M7", "city": "Lethbridge", "phone": "+1 403-329-0922", "website": "http://backhealth.ca/", "rating": null, "reviews": 0, "place_id": "ChIJobRUOvmGblMRD6_q37qEV6g", "latitude": 49.7020832, "longitude": -112.82527, "care_type": "Chiropractor"}, {"name": "Noji Janice Dr", "address": "518 5 St S, Lethbridge, AB T1J 2B8", "city": "Lethbridge", "phone": "+1 403-381-7766", "website": "https://www.nojichiropractic.com/", "rating": null, "reviews": 0, "place_id": "ChIJo1g3isuHblMR7WQ3AMNlws0", "latitude": 49.6919358, "longitude": -112.8403368, "care_type": "Chiropractor"}, {"name": "Thrive Health Collective", "address": "420 13 St N, Lethbridge, AB T1H 2S2", "city": "Lethbridge", "phone": "+1 403-388-1452", "website": "https://www.thrivehealthcollective.ca/", "rating": 5.0, "reviews": 3, "place_id": "ChIJzWYfd7yHblMRTiN6cGXT4_U", "latitude": 49.7051533, "longitude": -112.8244945, "care_type": "Chiropractor"}, {"name": "Nemeth Beth", "address": "1406 3 Ave S #1, Lethbridge, AB T1J 2X5", "city": "Lethbridge", "phone": "+1 403-320-5019", "website": "", "rating": 5.0, "reviews": 3, "place_id": "ChIJcZ6DpruHblMR5mtdaNcmG2w", "latitude": 49.6961689, "longitude": -112.822238, "care_type": "Chiropractor"}, {"name": "Massage Addict Lethbridge", "address": "3751 Mayor Magrath Dr S #20, Lethbridge, AB T1K 8A8", "city": "Lethbridge", "phone": "+1 587-486-0502", "website": "https://www.massageaddict.ca/lethbridge%3Futm_source%3Dgoogle_business_profile%26utm_medium%3Dorganic", "rating": 4.0, "reviews": 35, "place_id": "ChIJkaz-gM-HblMR3MriHJU9tdQ", "latitude": 49.6569918, "longitude": -112.7917258, "care_type": "Chiropractor"}, {"name": "Takahashi Chiriopractic Clinic", "address": "454 5 St S, Lethbridge, AB T1J 0T5", "city": "Lethbridge", "phone": "+1 403-328-0412", "website": "", "rating": null, "reviews": 0, "place_id": "ChIJb4mqSc6HblMRwObEarLJPq8", "latitude": 49.6866115, "longitude": -112.8390823, "care_type": "Chiropractor"}, {"name": "Dyck Jason H Dr Professional Corporation", "address": "406 8 St S, Lethbridge, AB T1K 5E5", "city": "Lethbridge", "phone": "+1 403-380-6200", "website": "", "rating": null, "reviews": 0, "place_id": "ChIJt25hHMqHblMRqNayOs4iozk", "latitude": 49.6940025, "longitude": -112.8355969, "care_type": "Chiropractor"}, {"name": "Posture Centre", "address": "1212 3 Ave S, Lethbridge, AB T1J 0J9", "city": "Lethbridge", "phone": "+1 403-329-1777", "website": "", "rating": null, "reviews": 0, "place_id": "ChIJFS_LL8mHblMR-kSkn-5IPGQ", "latitude": 49.6960405, "longitude": -112.8284253, "care_type": "Chiropractor"}, {"name": "Lethbridge Shockwave Therapy", "address": "740 4 Ave S #204, Lethbridge, AB T1J 0N9", "city": "Lethbridge", "phone": "+1 403-381-2132", "website": "http://www.lethbridgeshockwave.ca/", "rating": null, "reviews": 0, "place_id": "ChIJGeJLFMyHblMRYwXRJQwD78U", "latitude": 49.6941583, "longitude": -112.8358293, "care_type": "Chiropractor"}, {"name": "Chestermere Family Chiropractic", "address": "124 E Chestermere Dr, Chestermere, AB T1X 1M1", "city": "Chestermere", "phone": "+1 403-235-3717", "website": "https://www.chestermerefamilychiro.com/", "rating": 4.8, "reviews": 88, "place_id": "ChIJg1pD6aB9cVMR0iT0rRWHDWk", "latitude": 51.0516815, "longitude": -113.8151168, "care_type": "Chiropractor"}, {"name": "Lifepath Chiropractic", "address": "175 Chestermere Station Way #101, Chestermere, AB T1X 0A4", "city": "Chestermere", "phone": "+1 403-235-6208", "website": "https://chiropractor.lifepathwellness.com/", "rating": null, "reviews": 0, "place_id": "ChIJwcxTIZF9cVMRzkr0-DRXGRg", "latitude": 51.0503835, "longitude": -113.8270578, "care_type": "Chiropractor"}, {"name": "Vantage Integrative Health + Wellness", "address": "106, 288 Kinniburgh Blvd, Chestermere, AB T1X 0V8", "city": "Chestermere", "phone": "+1 403-569-1141", "website": "http://vantageintegrativehealth.com/", "rating": 4.8, "reviews": 166, "place_id": "ChIJS3c14819cVMREMcMvMuzD2g", "latitude": 51.0224505, "longitude": -113.8100804, "care_type": "Chiropractor"}, {"name": "MvmtEvolution Health & Wellness", "address": "140 Willowmere Way, Chestermere, AB T1X 0E2", "city": "Chestermere", "phone": "+1 403-909-1622", "website": "https://mvmtevolution.ca/", "rating": 5.0, "reviews": 19, "place_id": "ChIJZ6mG2mN9cVMRTMnNJOsNqNk", "latitude": 51.0476949, "longitude": -113.8397265, "care_type": "Chiropractor"}, {"name": "Camrose Chiropractic Clinic", "address": "4920 52 St, Camrose, AB T4V 1V5", "city": "Camrose", "phone": "+1 780-679-2500", "website": "https://www.camrose.spine.ca/", "rating": 4.8, "reviews": 21, "place_id": "ChIJJ_qORcS7ClMRWw8Y50WnSXA", "latitude": 53.0223823, "longitude": -112.8283292, "care_type": "Chiropractor"}, {"name": "Camrose Chiropractic on Main", "address": "4935 50 St, Camrose, AB T4V 1P9", "city": "Camrose", "phone": "+1 780-672-4578", "website": "", "rating": 4.0, "reviews": 4, "place_id": "ChIJ53kljsS7ClMRYaOOzzUQ6mY", "latitude": 53.0213396, "longitude": -112.8248296, "care_type": "Chiropractor"}, {"name": "Camrose Chiropractic on Main, Dr. Richard Sawyer", "address": "4935 50 St, Camrose, AB T4V 1P9", "city": "Camrose", "phone": "+1 780-672-4578", "website": "", "rating": 5.0, "reviews": 10, "place_id": "ChIJq3kljsS7ClMRVspln1Nc9Rc", "latitude": 53.02132109999999, "longitude": -112.8247599, "care_type": "Chiropractor"}, {"name": "Martinson Health", "address": "4850 50 St, Camrose, AB T4V 1P7", "city": "Camrose", "phone": "+1 780-672-8559", "website": "http://martinsonhealth.com/", "rating": 5.0, "reviews": 198, "place_id": "ChIJjS9TZ8S7ClMRT97uyeU750U", "latitude": 53.0201059, "longitude": -112.8258446, "care_type": "Chiropractor"}, {"name": "Smith Chiropractic Clinic", "address": "4868 51 St, Camrose, AB T4V 1S1", "city": "Camrose", "phone": "+1 780-672-6222", "website": "http://smithchiropractic.com/", "rating": 4.6, "reviews": 11, "place_id": "ChIJF2Yn4MS7ClMR2XQ8u3WHQSw", "latitude": 53.02055, "longitude": -112.826994, "care_type": "Chiropractor"}, {"name": "Lynes Chiropractic Centre", "address": "5714 48 Ave, Camrose, AB T4V 0K1", "city": "Camrose", "phone": "+1 780-679-0961", "website": "https://facebook.com/lyneschiropractic/", "rating": 5.0, "reviews": 9, "place_id": "ChIJo0-kAs27ClMRgD6eoj9V6_Y", "latitude": 53.0183769, "longitude": -112.8390105, "care_type": "Chiropractor"}, {"name": "Parsons Family Chiropractic and Wellness", "address": "4918 51 St, Camrose, AB T4V 1S3", "city": "Camrose", "phone": "+1 780-672-4408", "website": "", "rating": 4.8, "reviews": 21, "place_id": "ChIJzyONpMS7ClMRToworEUytjI", "latitude": 53.0215817, "longitude": -112.8270004, "care_type": "Chiropractor"}, {"name": "Optimum Wellness Centres - Strathmore", "address": "55 Wheatland Trail Unit 9, Strathmore, AB T1P 1R7", "city": "Strathmore", "phone": "+1 403-934-5633", "website": "https://optimumwellnesscentres.com/", "rating": 4.9, "reviews": 283, "place_id": "ChIJH7p9o17Mc1MROEOaPryqe0Y", "latitude": 51.059241, "longitude": -113.3989337, "care_type": "Chiropractor"}, {"name": "Back To Health Chiropractic & Wellness Clinic", "address": "240 3 Ave, Strathmore, AB T1P 1M4", "city": "Strathmore", "phone": "+1 403-901-0664", "website": "http://backtohealthstrathmore.com/", "rating": 4.9, "reviews": 71, "place_id": "ChIJ-zGWEOXMc1MRf3KZFuOBPDY", "latitude": 51.0417943, "longitude": -113.3973049, "care_type": "Chiropractor"}, {"name": "Centerpoint Chiropractic & Natural Health", "address": "304 3 Ave Unit 108, Strathmore, AB T1P 1Z1", "city": "Strathmore", "phone": "+1 403-901-6088", "website": "http://www.centerpointstrathmore.com/", "rating": 5.0, "reviews": 11, "place_id": "ChIJR2QZG-XMc1MRMdN7kHhJD24", "latitude": 51.04182309999999, "longitude": -113.3979248, "care_type": "Chiropractor"}, {"name": "Highwood Chiropractic", "address": "335 Macleod Trail SW, High River, AB T1V 1M3", "city": "High River", "phone": "+1 403-652-3803", "website": "https://www.highwoodchiro.ca/", "rating": 5.0, "reviews": 10, "place_id": "ChIJAxRG_z-VcVMRP_cjhfOJwiw", "latitude": 50.5787817, "longitude": -113.8749859, "care_type": "Chiropractor"}, {"name": "Foothills Family Chiropractic", "address": "938 Centre St SE #5, High River, AB T1V 1Y1", "city": "High River", "phone": "+1 403-652-4636", "website": "http://foothillsfamilychiropractic.com/", "rating": 4.9, "reviews": 14, "place_id": "ChIJ47lnyj-VcVMR0Dm1aGYU_P4", "latitude": 50.5739988, "longitude": -113.8715165, "care_type": "Chiropractor"}, {"name": "Chiropractic Health Centre", "address": "2713 Centre St NW, Calgary, AB T2E 2V5", "city": "Calgary", "phone": "+1 403-456-7533", "website": "https://chiro-doctor.com/", "rating": 4.9, "reviews": 140, "place_id": "ChIJKfTM9m9lcVMR3ei6ihumlJM", "latitude": 51.0765992, "longitude": -114.0628707, "care_type": "Chiropractor"}, {"name": "Chiropractic Center For Health", "address": "768-500 Country Hills Blvd NE, Calgary, AB T3K 5H2", "city": "Calgary", "phone": "+1 403-226-4433", "website": "https://www.myspinedocs.com/", "rating": 4.8, "reviews": 688, "place_id": "ChIJvXk1cZNmcVMRXNmzX39HHYo", "latitude": 51.1551645, "longitude": -114.0531572, "care_type": "Chiropractor"}, {"name": "Adjusted For Life Chiropractic Health Centre", "address": "2004 14 St NW #100, Calgary, AB T2M 3N3", "city": "Calgary", "phone": "+1 403-284-4743", "website": "https://www.adjustedforlife.com/%3FUTM_source%3DGBL", "rating": 5.0, "reviews": 173, "place_id": "ChIJ5SNlEJBvcVMRvlozbkfVh1g", "latitude": 51.0698179, "longitude": -114.0942541, "care_type": "Chiropractor"}, {"name": "Active Back to Health", "address": "6455 Macleod Trl SW #302, Calgary, AB T2H 0K9", "city": "Calgary", "phone": "+1 403-252-3316", "website": "https://www.activebacktohealth.com/%3Futm_source%3DGBP%26utm_medium%3Dorganic", "rating": 5.0, "reviews": 467, "place_id": "ChIJsXQOEv9wcVMRWAs7F8jodAc", "latitude": 50.9978823, "longitude": -114.0740044, "care_type": "Chiropractor"}, {"name": "Mission Chiropractic Clinic", "address": "2303 4 St SW #110, Calgary, AB T2S 2S7", "city": "Calgary", "phone": "+1 403-229-4040", "website": "http://missionhealth.ca/", "rating": 5.0, "reviews": 182, "place_id": "ChIJF7FVyxlwcVMR6nVySv0nY-Y", "latitude": 51.0322705, "longitude": -114.0717728, "care_type": "Chiropractor"}, {"name": "Pure Health Chiropractic", "address": "1711 4 St SW #105, Calgary, AB T2S 1V8", "city": "Calgary", "phone": "+1 403-273-7573", "website": "https://purehealthchiro.com/", "rating": 4.9, "reviews": 129, "place_id": "ChIJrzpiiOd6cVMRJYgtUF06fDE", "latitude": 51.0370729, "longitude": -114.0718812, "care_type": "Chiropractor"}, {"name": "Axiom Chiropractic", "address": "113 19 St NW, Calgary, AB T2N 2H8", "city": "Calgary", "phone": "+1 403-474-1119", "website": "https://www.axiomchiro.ca/", "rating": 5.0, "reviews": 155, "place_id": "ChIJe-hOvyNvcVMRihmEvfx1oyI", "latitude": 51.0528931, "longitude": -114.1057585, "care_type": "Chiropractor"}, {"name": "Life 'n Balance Wellness Centre | Chiropractic", "address": "3403 26 Ave SW, Calgary, AB T3E 0N3", "city": "Calgary", "phone": "+1 403-686-7676", "website": "http://www.lifenbalancewellness.com/", "rating": 4.9, "reviews": 691, "place_id": "ChIJWdv8NSducVMRci0usspZv4s", "latitude": 51.029736, "longitude": -114.1357635, "care_type": "Chiropractor"}, {"name": "Natural Way Chiropractic", "address": "3527 18 Street SW Suite 201, Calgary, AB T2T 4T9", "city": "Calgary", "phone": "+1 403-246-0334", "website": "http://www.naturalwaychiro.ca/", "rating": 4.9, "reviews": 701, "place_id": "ChIJLfFuFs1xcVMRwKQARwbdF1k", "latitude": 51.0221484, "longitude": -114.1050277, "care_type": "Chiropractor"}, {"name": "Mount Royal Village Family Chiropractic, Acupuncture, Physiotherapy & Massage", "address": "1550 8 St SW Unit 505, Calgary, AB T2R 1K1", "city": "Calgary", "phone": "+1 403-475-6210", "website": "https://www.mountroyalchiropractor.ca/%3Futm_source%3Dgmb_listing%26utm_medium%3Dorganic%26utm_campaign%3Dgmb_website_mount_royal_chiro", "rating": 4.9, "reviews": 264, "place_id": "ChIJBxrHjx9wcVMRNRwBWW-2g-8", "latitude": 51.0384237, "longitude": -114.0812688, "care_type": "Chiropractor"}, {"name": "The Calgary Centre for Health", "address": "1000 5 Ave SW #200, Calgary, AB T2P 4V1", "city": "Calgary", "phone": "+1 403-270-7001", "website": "https://www.calgary.spine.ca/", "rating": 4.9, "reviews": 192, "place_id": "ChIJqVMDcuZvcVMRmCQjr6rut8w", "latitude": 51.04914489999999, "longitude": -114.0838121, "care_type": "Chiropractor"}, {"name": "Full Potential Chiropractic", "address": "40 Christie Park View SW #3165, Calgary, AB T3H 6E7", "city": "Calgary", "phone": "+1 403-204-0084", "website": "https://www.fullpotentialchiro.com/", "rating": 4.9, "reviews": 468, "place_id": "ChIJnwI4thZucVMR1HWSSKH0ro4", "latitude": 51.0375747, "longitude": -114.1772574, "care_type": "Chiropractor"}, {"name": "Chiropractical", "address": "10233 Elbow Dr SW Unit 161, Calgary, AB T2W 0S1", "city": "Calgary", "phone": "+1 403-258-4422", "website": "https://www.chiropractical.ca/%3Futm_source%3Dgmb_listing%26utm_medium%3Dorganic%26utm_campaign%3Dwebsite_url", "rating": 5.0, "reviews": 248, "place_id": "ChIJ3d2M7kdxcVMRV5LY7EhqdQU", "latitude": 50.9625749, "longitude": -114.0871833, "care_type": "Chiropractor"}, {"name": "The Clinic YYC (formerly Centennial Wellness)", "address": "611 2 Ave SW, Calgary, AB T2P 1N9", "city": "Calgary", "phone": "+1 587-353-5933", "website": "https://theclinicyyc.ca/", "rating": 5.0, "reviews": 388, "place_id": "ChIJ9YJf3fpvcVMRZWh9Y9w5Z9Y", "latitude": 51.05134349999999, "longitude": -114.0738929, "care_type": "Chiropractor"}, {"name": "Century Wellness", "address": "4624 16 Ave NW Unit 1, Calgary, AB T3B 0M8", "city": "Calgary", "phone": "+1 403-289-8285", "website": "http://centurywellness.ca/", "rating": 4.9, "reviews": 307, "place_id": "ChIJ9WLJVg1vcVMR51bz4RzD2yE", "latitude": 51.0710786, "longitude": -114.1616986, "care_type": "Chiropractor"}, {"name": "Elevate Chiro", "address": "3412 114 Ave SE, Calgary, AB T2Z 3X1", "city": "Calgary", "phone": "+1 403-701-1488", "website": "https://www.elevatechiro.ca/%3Futm_source%3Dgmb_listing%26utm_medium%3Dorganic%26utm_campaign%3Dwebsite_url", "rating": 4.9, "reviews": 513, "place_id": "ChIJo-tP5DpxcVMRyZIBSWpM1uM", "latitude": 50.95002359999999, "longitude": -113.9878769, "care_type": "Chiropractor"}, {"name": "Spineguys Chiropractic, Massage & Laser", "address": "232 McKnight Blvd NE, Calgary, AB T2K 6A5", "city": "Calgary", "phone": "+1 403-275-3800", "website": "http://www.spineguys.com/", "rating": 4.9, "reviews": 157, "place_id": "ChIJJ5hoyqNlcVMRBztPxdLnhDQ", "latitude": 51.0963082, "longitude": -114.0584486, "care_type": "Chiropractor"}, {"name": "Vibe Health & Spine - NUCCA Calgary", "address": "1918 Kensington Rd NW Unit #310, Calgary, AB T2N 3R5", "city": "Calgary", "phone": "+1 403-266-2283", "website": "http://www.vibehealthcalgary.com/", "rating": 4.9, "reviews": 197, "place_id": "ChIJawndHgdvcVMRGhDyimnuUms", "latitude": 51.05278389999999, "longitude": -114.1044463, "care_type": "Chiropractor"}, {"name": "Evolve Chiropractic & Wellness Centre 8th Avenue", "address": "530 8th Avenue SW Suite 110 Main Floor Watermark Tower, Calgary, AB T2P 2S8", "city": "Calgary", "phone": "+1 403-474-7792", "website": "https://www.evolvechiro.ca/%3Futm_source%3Dgmb_listing%26utm_medium%3Dorganic%26utm_campaign%3Dgmb_website_link_evolve_8th", "rating": 4.8, "reviews": 330, "place_id": "ChIJ7WpPPuNvcVMRctto5qVcAtk", "latitude": 51.045984, "longitude": -114.0729999, "care_type": "Chiropractor"}, {"name": "North Hill Chiropractic Clinic", "address": "1640 16 Ave NW #103, Calgary, AB T2M 0L6", "city": "Calgary", "phone": "+1 403-282-3766", "website": "http://www.northhillchiropractic.com/", "rating": 4.8, "reviews": 77, "place_id": "ChIJ3xYBLJdvcVMRJ_Ihkk1Q0Vo", "latitude": 51.0672214, "longitude": -114.0993328, "care_type": "Chiropractor"}, {"name": "Fifth Avenue Place Chiropractic & Massage", "address": "420 2 St SW #105, Calgary, AB T2P 3K4", "city": "Calgary", "phone": "+1 403-261-1801", "website": "https://www.calgary-chiropractor.ca/%3FUTM_source%3DGBL", "rating": 4.9, "reviews": 57, "place_id": "ChIJgRCS8_tvcVMRg8jKHo7tnFY", "latitude": 51.04918439999999, "longitude": -114.0667595, "care_type": "Chiropractor"}, {"name": "Connected Chiropractic", "address": "580 Acadia Dr SE Unit 208, Calgary, AB T2J 6A7", "city": "Calgary", "phone": "+1 587-507-4628", "website": "http://www.connectedchiro.ca/", "rating": 5.0, "reviews": 504, "place_id": "ChIJXfNIYNJxcVMRrZirbIZSpkY", "latitude": 50.964468, "longitude": -114.04787, "care_type": "Chiropractor"}, {"name": "Core Health Centre", "address": "700 2 St SW #330, Calgary, AB T2P 2W2", "city": "Calgary", "phone": "+1 403-237-6000", "website": "https://www.mycorehealth.com/%3Futm_source%3DGBP%26utm_medium%3Dorganic", "rating": 4.9, "reviews": 136, "place_id": "ChIJpbPMHP1vcVMRu_7lF7BOJfQ", "latitude": 51.046316, "longitude": -114.0673937, "care_type": "Chiropractor"}, {"name": "Shephard Health Chiropractic Clinic | Dr. Jay Shephard", "address": "1228 Kensington Rd NW suite 200, Calgary, AB T2N 3P7", "city": "Calgary", "phone": "+1 403-543-7499", "website": "https://www.shephardhealth.com/%3Futm%3DGMB", "rating": 4.9, "reviews": 521, "place_id": "ChIJLSSuqelvcVMR5_jruAzO2cE", "latitude": 51.0527756, "longitude": -114.0906012, "care_type": "Chiropractor"}, {"name": "Beacon Hill Chiropractic and Massage", "address": "11636 Sarcee Trail NW, Calgary, AB T3R 0A1", "city": "Calgary", "phone": "+1 825-425-2095", "website": "https://www.getbetterfaster.ca/%3Futm_source%3DGBP%26utm_medium%3Dorganic", "rating": 4.8, "reviews": 318, "place_id": "ChIJpTV8W35ocVMRZshGkS8iTrQ", "latitude": 51.15667029999999, "longitude": -114.1604153, "care_type": "Chiropractor"}, {"name": "Calgary Spine & Sport Chiropractic Clinic SW Calgary", "address": "6707 Elbow Dr SW, Calgary, AB T2V 0E5", "city": "Calgary", "phone": "+1 403-252-5553", "website": "https://www.calgaryspineandsport.com/%3Futm_source%3DGMB_Listing%26utm_medium%3Dorganic%26utm_campaign%3DWebsite_URL", "rating": 4.8, "reviews": 54, "place_id": "ChIJ6f7cwgBxcVMRxWH0Hv1DH-w", "latitude": 50.9932302, "longitude": -114.08424, "care_type": "Chiropractor"}, {"name": "Associate Chiropractic Clinic", "address": "1110 Centre St N #221, Calgary, AB T2E 2R2", "city": "Calgary", "phone": "+1 403-230-9003", "website": "http://www.associatechiro.ca/", "rating": 4.9, "reviews": 50, "place_id": "ChIJVwFenzllcVMRGI0T6QfVPZs", "latitude": 51.06171029999999, "longitude": -114.0619813, "care_type": "Chiropractor"}, {"name": "Elevate Life", "address": "1804 1 St NW, Calgary, AB T2M 2T2", "city": "Calgary", "phone": "+1 403-280-0945", "website": "https://www.calgaryfamilychiro.com/%3Futm_source%3Dgoogle%26utm_medium%3Dorganic%26utm_campaign%3Dgbp_listing", "rating": 4.9, "reviews": 111, "place_id": "ChIJmaDPNFR7cVMRzk5FKBGh56M", "latitude": 51.0681602, "longitude": -114.064827, "care_type": "Chiropractor"}, {"name": "Dalhousie Family Chiropractic & Massage", "address": "5005 Dalhousie Dr NW #291, Calgary, AB T3A 1B2", "city": "Calgary", "phone": "+1 403-286-2245", "website": "http://www.dalhousiefamilychiro.ca/%3FUTM_source%3DGBL", "rating": 5.0, "reviews": 329, "place_id": "ChIJTTBsBS5vcVMRsB2Qr8wKq1M", "latitude": 51.1052824, "longitude": -114.1602765, "care_type": "Chiropractor"}, {"name": "Bow Valley Chiropractic", "address": "250 6 Ave SW #258, Calgary, AB T2P 3H7", "city": "Calgary", "phone": "+1 403-262-2211", "website": "https://bowvalleychiro.com/", "rating": 4.9, "reviews": 145, "place_id": "ChIJdRShYfxvcVMRCgfIur5dug4", "latitude": 51.047795, "longitude": -114.067203, "care_type": "Chiropractor"}, {"name": "Willow Park Village Chiropractic & Wellness", "address": "10816 Macleod Trl #108, Calgary, AB T2J 1N2", "city": "Calgary", "phone": "+1 403-278-5350", "website": "http://www.chiropracticwellnessyyc.ca/", "rating": 4.9, "reviews": 321, "place_id": "ChIJ07sLhDNxcVMRxjvh2yHFBdY", "latitude": 50.9574508, "longitude": -114.0695708, "care_type": "Chiropractor"}, {"name": "Blackfoot Chiropractic Spine and Shoulder Clinic - Dr. J. A. Cameron, B.S.c, D.C.", "address": "2808 Ogden Rd SE, Calgary, AB T2G 4R7", "city": "Calgary", "phone": "+1 403-249-6670", "website": "https://cameronwhiplash.weebly.com/", "rating": 4.7, "reviews": 14, "place_id": "ChIJyyX_-C5ucVMRVG-7xZcTSTE", "latitude": 51.0297811, "longitude": -114.0302358, "care_type": "Chiropractor"}, {"name": "Chiropractic In Calgary", "address": "2000 Veterans Pl NW #310, Calgary, AB T3B 4N2", "city": "Calgary", "phone": "+1 587-225-5642", "website": "http://nwcalgarychiro.ca/", "rating": 5.0, "reviews": 2, "place_id": "ChIJzcXpgFNucVMRxv4RbxMSEkM", "latitude": 51.06523139999999, "longitude": -114.1453244, "care_type": "Chiropractor"}, {"name": "NW Chiropractic and Massage", "address": "3604 52 Ave NW #138, Calgary, AB T2L 1V9", "city": "Calgary", "phone": "+1 403-282-4004", "website": "https://nwcalgarychiro.ca/", "rating": 5.0, "reviews": 427, "place_id": "ChIJxSkCnf1vcVMRsivOJpO5vKI", "latitude": 51.1016878, "longitude": -114.1390774, "care_type": "Chiropractor"}, {"name": "Uthrive", "address": "101-602 11 Ave SW, Calgary, AB T2R 1J8", "city": "Calgary", "phone": "+1 403-530-0000", "website": "http://www.uthrive.ca/", "rating": 4.9, "reviews": 276, "place_id": "ChIJD6g9bOJvcVMRdmk6HyBg1fc", "latitude": 51.04286219999999, "longitude": -114.0744386, "care_type": "Chiropractor"}, {"name": "Northern Hills Chiro & Physio", "address": "32 Panatella Blvd NW, Calgary, AB T3K 6K7", "city": "Calgary", "phone": "+1 403-567-0400", "website": "https://www.northernhillschiro.ca/%3Futm_source%3Dgmb_listing%26utm_medium%3Dorganic%26utm_campaign%3Dgmb_website_northern_hills_chiro", "rating": 4.9, "reviews": 398, "place_id": "ChIJAURPufpmcVMRGuGDsVXkNTo", "latitude": 51.1651737, "longitude": -114.0718372, "care_type": "Chiropractor"}, {"name": "Optimum Wellness Centres - Transcanada", "address": "1440 52 St NE #182, Calgary, AB T2A 4T8", "city": "Calgary", "phone": "+1 403-272-3000", "website": "https://optimumwellnesscentres.com/", "rating": 4.9, "reviews": 240, "place_id": "ChIJkZEBuEt7cVMRk5iUuARF7Ws", "latitude": 51.06360979999999, "longitude": -113.955942, "care_type": "Chiropractor"}, {"name": "Evolve Chiropractic & Wellness Centre 5th Avenue", "address": "Calgary Place I, 330 5 Avenue SW Suite #116, Main Floor, Calgary, AB T2P 1R2", "city": "Calgary", "phone": "+1 403-474-7792", "website": "https://www.evolvechiro.ca/%3Futm_source%3Dgmb_listing%26utm_medium%3Dorganic%26utm_campaign%3Dgmb_website_link_evolve_5th", "rating": 4.8, "reviews": 257, "place_id": "ChIJc-fgfvtvcVMRDDiS50wL5WM", "latitude": 51.0488329, "longitude": -114.0691914, "care_type": "Chiropractor"}, {"name": "C\u016bro Chiropractic", "address": "3005 14 St SW, Calgary, AB T2T 3V6", "city": "Calgary", "phone": "+1 403-465-4653", "website": "https://www.curochiropractic.ca/%3Futm_source%3Dgmb_listing%26utm_medium%3Dorganic%26utm_campaign%3Dgmb_website", "rating": 4.9, "reviews": 332, "place_id": "ChIJ0cwYHIFxcVMRgZlO9LDqjyo", "latitude": 51.02720859999999, "longitude": -114.0950014, "care_type": "Chiropractor"}, {"name": "Align Health & Wellness", "address": "1918 Kensington Rd NW, Calgary, AB T2N 3R5", "city": "Calgary", "phone": "+1 403-266-2283", "website": "", "rating": 5.0, "reviews": 30, "place_id": "ChIJjSZ2xUxucVMRQvFqPj-rvaw", "latitude": 51.05278389999999, "longitude": -114.1044463, "care_type": "Chiropractor"}, {"name": "Shift Chiropractic & Wellness", "address": "1390 17 Ave SE, Calgary, AB T2G 1M8", "city": "Calgary", "phone": "+1 587-333-7921", "website": "https://www.shiftchirowellness.com/", "rating": 5.0, "reviews": 13, "place_id": "ChIJL0TK4px7cVMRvSzZXPeH8TA", "latitude": 51.0386607, "longitude": -114.0351079, "care_type": "Chiropractor"}, {"name": "Complete Chiropractic & Sports Therapy", "address": "2624 Parkdale Blvd NW, Calgary, AB T2N 3S6", "city": "Calgary", "phone": "+1 403-245-2686", "website": "http://ccstcalgary.com/", "rating": 4.9, "reviews": 194, "place_id": "ChIJMY7i98lvcVMRTNQPWH-NLTI", "latitude": 51.0528014, "longitude": -114.1217346, "care_type": "Chiropractor"}, {"name": "Full Motion Health & Pain Management", "address": "1632 14 Ave NW, Calgary, AB T2N 1M7", "city": "Calgary", "phone": "+1 403-282-5590", "website": "https://www.fullmotionhealth.com/", "rating": 4.6, "reviews": 36, "place_id": "ChIJ52MQ3pZvcVMRD2cfQZlGgvM", "latitude": 51.06617439999999, "longitude": -114.1009877, "care_type": "Chiropractor"}, {"name": "Bankers Hall Chiropractic Downtown", "address": "315 8 Ave SW #135, Calgary, AB T2P 4K1", "city": "Calgary", "phone": "+1 403-243-0111", "website": "http://www.bankershallchiropractic.com/%3Futm_source%3DGoogle%26utm_medium%3DGMB", "rating": 4.9, "reviews": 58, "place_id": "ChIJXYZ5J_1vcVMRdcEAan7XAu8", "latitude": 51.0455743, "longitude": -114.069115, "care_type": "Chiropractor"}, {"name": "Optimum Wellness Centres - Renfrew", "address": "619 Edmonton Trl, Calgary, AB T2E 3J3", "city": "Calgary", "phone": "+1 403-276-8800", "website": "https://optimumwellnesscentres.com/", "rating": 4.9, "reviews": 382, "place_id": "ChIJi5MpYlxlcVMRQrmPZBmyIfA", "latitude": 51.0578407, "longitude": -114.0546052, "care_type": "Chiropractor"}, {"name": "Dr. Sloane Hunter - A NUCCA practice", "address": "1918 Kensington Rd NW Unit #310, Calgary, AB T3N 3R5", "city": "Calgary", "phone": "+1 403-266-2283", "website": "http://www.hunterspinalcare.com/", "rating": 4.8, "reviews": 27, "place_id": "ChIJQbMkevhucVMRafZilUHklRg", "latitude": 51.05278389999999, "longitude": -114.1044463, "care_type": "Chiropractor"}, {"name": "Currie Chiropractic & Wellness (formerly Glenmore Landing Chiropractic)", "address": "2526 Battleford Ave SW, Calgary, AB T3E 7J4", "city": "Calgary", "phone": "+1 403-301-0276", "website": "http://www.curriechiropractic.com/", "rating": 5.0, "reviews": 26, "place_id": "ChIJQZaoAWtxcVMRBxvFUqyF2vs", "latitude": 51.0174439, "longitude": -114.1206252, "care_type": "Chiropractor"}, {"name": "Freedom Chiropractic and Massage: Optimum Wellness Centres - Victoria Park", "address": "422 11 Ave SE, Calgary, AB T2G 0Y4", "city": "Calgary", "phone": "+1 403-269-2225", "website": "https://optimumwellnesscentres.com/our-team/victoria-park-chiropractor/", "rating": 4.9, "reviews": 105, "place_id": "ChIJYxz94QBwcVMR9_3_TvCwO4A", "latitude": 51.0423959, "longitude": -114.0541167, "care_type": "Chiropractor"}, {"name": "Mckenzie Lake Chiropractic", "address": "16764 McKenzie Lake Blvd SE, Calgary, AB T2Z 1W3", "city": "Calgary", "phone": "+1 403-726-6325", "website": "https://mckenzielakechiropractic.com/", "rating": 4.9, "reviews": 273, "place_id": "ChIJ__W-8Mp3cVMRac0wetWr0TQ", "latitude": 50.9026204, "longitude": -113.9901134, "care_type": "Chiropractor"}, {"name": "Millennium Chiropractic Centre", "address": "620 12 Ave SW #103, Calgary, AB T2R 0H5", "city": "Calgary", "phone": "+1 403-517-2000", "website": "http://www.millenniumchiro.ca/", "rating": 4.8, "reviews": 71, "place_id": "ChIJgWpEeIqQcUER9F0L6cyxrtg", "latitude": 51.0419912, "longitude": -114.0753795, "care_type": "Chiropractor"}, {"name": "Chaparral Chiropractic Wellness Centre", "address": "10 Chaparral Drive SE #206, Calgary, AB T2X 3R7", "city": "Calgary", "phone": "+1 403-201-9991", "website": "https://www.familywellnesscentre.com/%3Futm_source%3Dgmb%26utm_medium%3Dorganic", "rating": 5.0, "reviews": 295, "place_id": "ChIJMV7inRB2cVMROflOnRIvsX8", "latitude": 50.8862977, "longitude": -114.0258644, "care_type": "Chiropractor"}, {"name": "Restore Chiropractic & Wellness", "address": "1324 11 Ave SW #205, Calgary, AB T3C 0M6", "city": "Calgary", "phone": "+1 403-984-7338", "website": "http://www.restorechiro.ca/", "rating": 5.0, "reviews": 29, "place_id": "ChIJ2chun41vcVMRC4KMFqngZ6c", "latitude": 51.04349209999999, "longitude": -114.0926947, "care_type": "Chiropractor"}, {"name": "Dr. Jeffrey Scholten - Calgary NW Chiropractor", "address": "1220 Kensington Rd NW #303, Calgary, AB T2N 3P5", "city": "Calgary", "phone": "+1 403-247-4257", "website": "http://www.drscholten.com/contact.html", "rating": 5.0, "reviews": 3, "place_id": "ChIJVZ751D1vcVMRerpXvuOJgww", "latitude": 51.0526861, "longitude": -114.0898231, "care_type": "Chiropractor"}, {"name": "Chiropractic Sport & Muscle Clinic", "address": "552 Northmount Dr NW, Calgary, AB T2K 3J2", "city": "Calgary", "phone": "+1 403-282-8601", "website": "https://chirosportandmuscle.com/", "rating": 5.0, "reviews": 32, "place_id": "ChIJ71CsMIFlcVMRPkXJSIshJFs", "latitude": 51.0883881, "longitude": -114.0856421, "care_type": "Chiropractor"}, {"name": "Generations Family Chiropractic", "address": "5268 Memorial Dr #8, Calgary, AB T2A 2R1", "city": "Calgary", "phone": "+1 403-273-5540", "website": "http://www.generationsfamilychiro.ca/", "rating": 4.9, "reviews": 564, "place_id": "ChIJYWoqWDh7cVMRX3eP1M4IfeQ", "latitude": 51.0536776, "longitude": -113.9568566, "care_type": "Chiropractor"}, {"name": "Dynamic YYC - Beltline", "address": "833 10 Ave SW, Calgary, AB T2R 0B4", "city": "Calgary", "phone": "+1 587-880-2919", "website": "http://www.dynamicyyc.com/", "rating": 5.0, "reviews": 451, "place_id": "ChIJNy-ZknRvcVMROLrhg1XCE0o", "latitude": 51.0436997, "longitude": -114.0809442, "care_type": "Chiropractor"}, {"name": "Brentwood Chiropractic Clinic: Optimum Wellness Centres - Brentwood", "address": "Mall Professional Building, 3630 Brentwood Rd NW Unit 232J, Calgary, AB T2L 2C1", "city": "Calgary", "phone": "+1 403-282-5557", "website": "https://optimumwellnesscentres.com/our-team/brentwood/", "rating": 4.9, "reviews": 138, "place_id": "ChIJ9WLJVg1vcVMRNAUuEADN1WI", "latitude": 51.08484139999999, "longitude": -114.1258934, "care_type": "Chiropractor"}, {"name": "Chiropractic Family Wellness Centre", "address": "320 23 Ave SW #100, Calgary, AB T2S 0J2", "city": "Calgary", "phone": "+1 403-299-0170", "website": "https://www.chiropracticfamilywellness.ca/", "rating": 4.9, "reviews": 20, "place_id": "ChIJTUnQeBxwcVMRh7sWHoF3ky0", "latitude": 51.0325912, "longitude": -114.0700146, "care_type": "Chiropractor"}, {"name": "Westbrook Family Chiropractic", "address": "1200 37 Street SW #23, Calgary, AB T3C 1S2", "city": "Calgary", "phone": "+1 403-663-0555", "website": "http://www.chiropractorscalgary.com/", "rating": 4.7, "reviews": 94, "place_id": "ChIJqWFdXDpucVMRLMWI9gfrpfI", "latitude": 51.041733, "longitude": -114.1405261, "care_type": "Chiropractor"}, {"name": "Bridgeland Sport and Spine", "address": "202 8a St NE, Calgary, AB T2E 4J1", "city": "Calgary", "phone": "+1 403-237-7686", "website": "https://www.bridgelandsport.com/", "rating": 4.7, "reviews": 152, "place_id": "ChIJwyDo801lcVMRlSRcBjcVzEg", "latitude": 51.053407, "longitude": -114.0413984, "care_type": "Chiropractor"}, {"name": "ProActive Health Group", "address": "602 12 Ave SW #120, Calgary, AB T2R 1J3", "city": "Calgary", "phone": "+1 403-225-3842", "website": "http://proactivehealthgroup.ca/", "rating": 5.0, "reviews": 289, "place_id": "ChIJL1Q2D-JvcVMR7LJU8xURZrs", "latitude": 51.0418887, "longitude": -114.0748764, "care_type": "Chiropractor"}, {"name": "Altitude Collaborative Health", "address": "Keynote Two, 225 11 Ave SE Room 10, Calgary, AB T2G 0G3", "city": "Calgary", "phone": "+1 403-454-1701", "website": "http://altitudehealth.ca/", "rating": 5.0, "reviews": 311, "place_id": "ChIJHYSC3dRvcVMRiztBBs8DtHk", "latitude": 51.0420732, "longitude": -114.059568, "care_type": "Chiropractor"}, {"name": "Dr. Karen Quinn", "address": "1026 Bellevue Ave SE, Calgary, AB T2G 4L1", "city": "Calgary", "phone": "+1 403-284-2055", "website": "http://www.drkarenquinn.com/", "rating": 5.0, "reviews": 20, "place_id": "ChIJ9xCz1T1vcVMRVW8DMbowRNM", "latitude": 51.0409298, "longitude": -114.0429212, "care_type": "Chiropractor"}, {"name": "Advance Health Group", "address": "1212 31 Ave NE #211, Calgary, AB T2E 7S8", "city": "Calgary", "phone": "+1 403-454-8330", "website": "https://www.advancehealthgroup.ca/%3Futm_source%3DGBL", "rating": 4.9, "reviews": 61, "place_id": "ChIJAQBAdxplcVMR7dbk4tl6mw8", "latitude": 51.08086369999999, "longitude": -114.0311004, "care_type": "Chiropractor"}, {"name": "Country Hills Chiropractic & Wellness", "address": "5149 Country Hills Blvd NW #236, Calgary, AB T3A 5K8", "city": "Calgary", "phone": "+1 403-547-7877", "website": "http://www.nwcalgarychiropractor.com/", "rating": 4.9, "reviews": 84, "place_id": "ChIJt9eOGZdocVMRuKnV3K5Th5k", "latitude": 51.13744149999999, "longitude": -114.1583715, "care_type": "Chiropractor"}, {"name": "Wall Chiropractic & Wellness", "address": "41 Chelsea St NW Suite 8, Calgary, AB T2K 1P1", "city": "Calgary", "phone": "+1 403-277-5381", "website": "http://www.wallchiropractic.com/", "rating": 5.0, "reviews": 29, "place_id": "ChIJo4XEVn9vcVMRvvy2PjPx0V0", "latitude": 51.0819945, "longitude": -114.0942226, "care_type": "Chiropractor"}, {"name": "The Vital Posture Clinic", "address": "1220 Kensington Rd NW #303, Calgary, AB T2N 3P5", "city": "Calgary", "phone": "+1 403-247-4257", "website": "https://vitalposture.com/", "rating": 4.7, "reviews": 87, "place_id": "ChIJVZ751D1vcVMRMUhRGuMC6xE", "latitude": 51.0526861, "longitude": -114.0898231, "care_type": "Chiropractor"}, {"name": "Chinook Chiropractic Massage & Physiotherapy Clinic", "address": "6455 Macleod Trl SW #605, Calgary, AB T2H 0K3", "city": "Calgary", "phone": "+1 403-255-8161", "website": "https://chinookchiro.ca/", "rating": 4.9, "reviews": 196, "place_id": "ChIJsXQOEv9wcVMRnb7GrwiN85E", "latitude": 50.9978823, "longitude": -114.0740046, "care_type": "Chiropractor"}, {"name": "Calgary Wellness Group", "address": "1510 Kensington Rd NW Unit E, Calgary, AB T2N 4P2", "city": "Calgary", "phone": "+1 403-283-0738", "website": "http://www.calgarywellnessgroup.com/", "rating": 4.8, "reviews": 28, "place_id": "ChIJxaLAfVNucVMRXbbhbIrcSWw", "latitude": 51.05270609999999, "longitude": -114.0952737, "care_type": "Chiropractor"}, {"name": "Healing Bridge Chiropractic Clinic", "address": "17 Inglewood Park SE Suite #201, Calgary, AB T2G 0M2", "city": "Calgary", "phone": "+1 403-313-7123", "website": "http://www.thehealingbridge.ca/", "rating": 4.9, "reviews": 54, "place_id": "ChIJTV2zObl6cVMRavc3YuH9h_s", "latitude": 51.03853489999999, "longitude": -114.0171393, "care_type": "Chiropractor"}, {"name": "Advanced Wellness Clinic - NUCCA Dr. Jordan Ausmus", "address": "11420 27 St SE #111, Calgary, AB T2Z 3R6", "city": "Calgary", "phone": "+1 403-475-0039", "website": "http://www.advancedwellnessclinic.ca/", "rating": 5.0, "reviews": 152, "place_id": "ChIJ1TarUkF3cVMRzli09dBcUfg", "latitude": 50.9532923, "longitude": -113.9959394, "care_type": "Chiropractor"}, {"name": "Ascent Health & Sport Therapy - Capitol Hill", "address": "1904 20 Ave NW, Calgary, AB T2M 1H5", "city": "Calgary", "phone": "+1 403-764-1200", "website": "https://ascent.health/", "rating": 5.0, "reviews": 711, "place_id": "ChIJuTfXtWdvcVMRr8bXZ6dZZaE", "latitude": 51.0707299, "longitude": -114.104771, "care_type": "Chiropractor"}, {"name": "Clinic Sport & Health Calgary", "address": "520 6 Ave SE, Calgary, AB T2G 1K7", "city": "Calgary", "phone": "+1 403-910-6296", "website": "http://clinicsportandhealth.com/", "rating": 4.9, "reviews": 99, "place_id": "ChIJ-dsmsvRlcVMR6zWQsbiiIWQ", "latitude": 51.0472563, "longitude": -114.0519078, "care_type": "Chiropractor"}, {"name": "Movement Performance & Health", "address": "2439 54 Ave SW #20, Calgary, AB T3E 5G9", "city": "Calgary", "phone": "+1 403-457-6683", "website": "https://www.mph-health.com/", "rating": 4.9, "reviews": 177, "place_id": "ChIJIxoU3IlxcVMRkFq1C--XnJo", "latitude": 51.00458159999999, "longitude": -114.1168561, "care_type": "Chiropractor"}, {"name": "Calgary Health Collective", "address": "2220 7 Ave NW Unit C, Calgary, AB T2N 0Z6", "city": "Calgary", "phone": "+1 825-414-0511", "website": "https://www.calgaryhealthcollective.com/", "rating": 5.0, "reviews": 64, "place_id": "ChIJS2ISob98cVMRRsQ1FTHYZRM", "latitude": 51.05921799999999, "longitude": -114.1116939, "care_type": "Chiropractor"}, {"name": "Encompass Sports Therapy", "address": "6490 Old Banff Coach Rd SW #201, Calgary, AB T3H 5R8", "city": "Calgary", "phone": "+1 403-249-4544", "website": "http://www.encompasscalgary.com/", "rating": 5.0, "reviews": 427, "place_id": "ChIJnf0ckmFucVMRHUaOBFSb0pw", "latitude": 51.0611235, "longitude": -114.1809196, "care_type": "Chiropractor"}, {"name": "Barlow Centre for Active Living", "address": "2535 7 Ave NE, Calgary, AB T2A 7R2", "city": "Calgary", "phone": "+1 403-248-7775", "website": "http://www.barlowcentre.com/", "rating": 5.0, "reviews": 32, "place_id": "ChIJvd8XMitlcVMR0lDjhSGiBv0", "latitude": 51.0582881, "longitude": -113.9992055, "care_type": "Chiropractor"}, {"name": "On Centre Chiropractic, Massage and Acupuncture", "address": "1701 Centre St N #405, Calgary, AB T2E 7Y2", "city": "Calgary", "phone": "+1 403-230-0066", "website": "http://oncentrechiropractic.com/", "rating": 4.9, "reviews": 77, "place_id": "ChIJ6WmLTmdlcVMRdURedaVEILE", "latitude": 51.0671775, "longitude": -114.0628161, "care_type": "Chiropractor"}, {"name": "Optimum Wellness Centres - Sunridge", "address": "2525 36 St NE #144L, Calgary, AB T1Y 5T4", "city": "Calgary", "phone": "+1 403-293-4404", "website": "https://optimumwellnesscentres.com/", "rating": 4.9, "reviews": 847, "place_id": "ChIJZxvy7M9kcVMR6byGeZimlJo", "latitude": 51.0737379, "longitude": -113.9853501, "care_type": "Chiropractor"}, {"name": "Proactive Chiropractic and wellness clinic", "address": "1640 16 Ave NW Unit 409, Calgary, AB T2M 0L6", "city": "Calgary", "phone": "+1 825-540-1580", "website": "https://www.proactivechiropracticandwellness.com/", "rating": 5.0, "reviews": 41, "place_id": "ChIJsehlvkhvcVMR9bFewijhLl0", "latitude": 51.0672214, "longitude": -114.0993328, "care_type": "Chiropractor"}, {"name": "Studio Per Noi Chiropractic", "address": "1-3927 Edmonton Trl, Calgary, AB T2E 6T1", "city": "Calgary", "phone": "+1 403-807-3331", "website": "https://pernoi.ca/chiropractic/", "rating": 5.0, "reviews": 7, "place_id": "ChIJ29lXCm5lcVMR9e89uzfFfaE", "latitude": 51.0878674, "longitude": -114.0523405, "care_type": "Chiropractor"}, {"name": "Nostos Chiropractic", "address": "703 64 Ave SE Unit 170, Calgary, AB T2H 2C3", "city": "Calgary", "phone": "+1 587-391-8611", "website": "http://www.nostos.ca/%3Futm_source%3Dgoogle%26utm_medium%3Dlocal%26utm_campaign%3D1%26utm_content%3Dprimary", "rating": 5.0, "reviews": 270, "place_id": "ChIJfcfXtS9xcVMRQ020idtrij0", "latitude": 50.9967615, "longitude": -114.0488637, "care_type": "Chiropractor"}, {"name": "Brost Chiropractic & Wellness Centre", "address": "817 19 St NE, Calgary, AB T2E 4X5", "city": "Calgary", "phone": "+1 403-520-5265", "website": "https://www.brostchiro.ca/", "rating": 4.9, "reviews": 41, "place_id": "ChIJ5UHSUzJlcVMRUNo0dPcdsvg", "latitude": 51.0579999, "longitude": -114.0145059, "care_type": "Chiropractor"}, {"name": "Parallel Chiropractic & Wellness Centre", "address": "111 5 Ave SW #1730, Calgary, AB T2P 3Y6", "city": "Calgary", "phone": "+1 403-232-1283", "website": "http://www.parallelwellness.com/", "rating": 4.9, "reviews": 51, "place_id": "ChIJPUDhl_5vcVMRR5c5Shwlpn4", "latitude": 51.04827969999999, "longitude": -114.0636757, "care_type": "Chiropractor"}, {"name": "Framework Chiropractic", "address": "708 11 Ave SW #101, Calgary, AB T2R 0E4", "city": "Calgary", "phone": "+1 403-519-5109", "website": "http://frameworkchiropractic.ca/", "rating": 5.0, "reviews": 12, "place_id": "ChIJWzE7E_JvcVMRz4ZPEKcc5YY", "latitude": 51.0430408, "longitude": -114.077451, "care_type": "Chiropractor"}, {"name": "CoLAB Health & Body", "address": "Ampersand East Tower, 112 4 Ave SW Suite 190, Calgary, AB T2P 0H3", "city": "Calgary", "phone": "+1 403-263-7477", "website": "http://colabhealthandbody.ca/", "rating": 4.9, "reviews": 134, "place_id": "ChIJ-QlW9P1vcVMRq0A2m_a2lsI", "latitude": 51.0496373, "longitude": -114.0642383, "care_type": "Chiropractor"}, {"name": "Pro Health Chiropractic & Physiotherapy", "address": "318 Nolanridge Cres NW #430, Calgary, AB T3R 1W9", "city": "Calgary", "phone": "+1 403-547-9011", "website": "http://www.prohealthchiro.ca/", "rating": 4.9, "reviews": 198, "place_id": "ChIJVSCTiyFmcVMRLS7iVsEuGGk", "latitude": 51.1702535, "longitude": -114.1735562, "care_type": "Chiropractor"}, {"name": "Dr. Rob Taylor - Downtown Calgary Chiropractor", "address": "700 2 St SW #330, Calgary, AB T2P 2W2", "city": "Calgary", "phone": "+1 403-237-6000", "website": "http://mycorehealth.com/", "rating": null, "reviews": 0, "place_id": "ChIJoy1oUvxvcVMRaWft3XIIOe8", "latitude": 51.046316, "longitude": -114.0673937, "care_type": "Chiropractor"}, {"name": "Healthy Families Chiropractic & Community Care", "address": "1404 10 St NW, Calgary, AB T2M 4M8", "city": "Calgary", "phone": "+1 587-391-6200", "website": "http://www.healthyfamilieschiropractic.ca/", "rating": 5.0, "reviews": 93, "place_id": "ChIJBaG-b4dvcVMRY4HMDvOIook", "latitude": 51.0642156, "longitude": -114.0842557, "care_type": "Chiropractor"}, {"name": "The Wellness Studio", "address": "1603 20 Ave NW, Calgary, AB T2M 1G9", "city": "Calgary", "phone": "+1 403-228-5433", "website": "https://thewellnessstudio.ca/", "rating": 4.9, "reviews": 176, "place_id": "ChIJO2C-pplvcVMRblblSsimLWk", "latitude": 51.0703456, "longitude": -114.097485, "care_type": "Chiropractor"}, {"name": "Optimum Wellness Centres - Marlborough", "address": "200 52 St NE #8a, Calgary, AB T2A 4K8", "city": "Calgary", "phone": "+1 403-248-3151", "website": "https://optimumwellnesscentres.com/", "rating": 4.9, "reviews": 583, "place_id": "ChIJCdIqbDh7cVMRkpZYbmA0izs", "latitude": 51.0549709, "longitude": -113.9548647, "care_type": "Chiropractor"}, {"name": "Live Life Well Chiropractic", "address": "#220, 4954 Richard Rd SW, Calgary, AB T3E 6L1", "city": "Calgary", "phone": "+1 403-217-3002", "website": "https://www.livelifewell.ca/%3FUTM_source%3DGBL", "rating": 4.9, "reviews": 110, "place_id": "ChIJMUQqZNJxcVMRPPHGVkfiRrg", "latitude": 51.0098851, "longitude": -114.1269908, "care_type": "Chiropractor"}, {"name": "Vitality Wellness", "address": "121A 14 St NW, Calgary, AB T2N 1Z6", "city": "Calgary", "phone": "+1 587-955-9910", "website": "", "rating": 5.0, "reviews": 12, "place_id": "ChIJjZgWKQBvcVMRlEy8OWzpBqo", "latitude": 51.0533188, "longitude": -114.0949422, "care_type": "Chiropractor"}, {"name": "Balanced Health & Sports Therapy", "address": "1519 19 St NW, Calgary, AB T2N 2K2", "city": "Calgary", "phone": "+1 403-282-0880", "website": "http://www.balancedhealth.ca/", "rating": 5.0, "reviews": 101, "place_id": "ChIJkcDU1ZdvcVMRzHMAdfV1imk", "latitude": 51.06568499999999, "longitude": -114.106892, "care_type": "Chiropractor"}, {"name": "Core Chiropractic & Wellness Clinic", "address": "320 23 Ave SW, Calgary, AB T2S 0J2", "city": "Calgary", "phone": "+1 403-244-6444", "website": "http://www.healthy2thecore.com/", "rating": 4.5, "reviews": 4, "place_id": "ChIJ98wJwxlwcVMRPa6338jd4e8", "latitude": 51.03270999999999, "longitude": -114.070015, "care_type": "Chiropractor"}, {"name": "Mayfair Chiropractic Clinic", "address": "6707 Elbow Dr SW, Calgary, AB T2V 0E5", "city": "Calgary", "phone": "+1 403-259-4443", "website": "http://www.mayfairchiro.ca/", "rating": 4.8, "reviews": 23, "place_id": "ChIJ6f7cwgBxcVMRdLks_uHdq28", "latitude": 50.99353499999999, "longitude": -114.0843132, "care_type": "Chiropractor"}, {"name": "Glow Health & Vitality", "address": "1128 10 Ave SW, Calgary, AB T2R 0B6", "city": "Calgary", "phone": "+1 587-353-4569", "website": "https://www.livelifebetter.ca/", "rating": 4.8, "reviews": 93, "place_id": "ChIJPVrZAN5vcVMR5uFAE4fETJU", "latitude": 51.0442299, "longitude": -114.0876306, "care_type": "Chiropractor"}, {"name": "Quarry Park Chiropractic & Wellness Centre (QPC)", "address": "11420 27 St SE Suite #213, Calgary, AB T2Z 3R6", "city": "Calgary", "phone": "+1 403-723-0133", "website": "https://www.quarryparkchiropractic.com/%3Futm_source%3Dgoogle%26utm_medium%3Dwix_google_business_profile%26utm_campaign%3D16544641671756927158", "rating": 4.8, "reviews": 168, "place_id": "ChIJPT_oTkp3cVMRseZ0-kIUPLg", "latitude": 50.9537279, "longitude": -113.9964248, "care_type": "Chiropractor"}, {"name": "YYC Sport and Spine", "address": "1052 1 Ave NE, Calgary, AB T2E 8R8", "city": "Calgary", "phone": "+1 403-814-0481", "website": "https://www.yycsportandspine.com/", "rating": 5.0, "reviews": 105, "place_id": "ChIJ1ZJAu1ZvcVMR7sjrZmGcum8", "latitude": 51.0534506, "longitude": -114.0387893, "care_type": "Chiropractor"}, {"name": "MYo Lab Health & Wellness", "address": "227 10 St NW #300, Calgary, AB T2N 1V5", "city": "Calgary", "phone": "+1 403-930-8686", "website": "https://myolab.ca/%3Futm_source%3Dgoogle%26utm_medium%3Dorganic%26utm_term%3Dgbp-listing", "rating": 4.9, "reviews": 801, "place_id": "ChIJX7UPzu5vcVMRSvJoGwZk01o", "latitude": 51.0537213, "longitude": -114.0863154, "care_type": "Chiropractor"}, {"name": "Move to Move", "address": "1010-2600 Portland St SE, Calgary, AB T2G 4M6", "city": "Calgary", "phone": "+1 587-607-6023", "website": "https://movetomove.ca/physical-therapy-clinic/calgary-ab/", "rating": 5.0, "reviews": 236, "place_id": "ChIJVQeUm6F6cVMRGsxycUcoQBE", "latitude": 51.0314086, "longitude": -114.0326588, "care_type": "Chiropractor"}, {"name": "Mt Royal Chiropractic Clinic", "address": "1032 17 Ave SW, Calgary, AB T2T 0A5", "city": "Calgary", "phone": "+1 403-244-1600", "website": "http://mrcc.mynucleus.ca/", "rating": 5.0, "reviews": 11, "place_id": "ChIJ_566jiBwcVMRpDtD6OzSLis", "latitude": 51.03812569999999, "longitude": -114.0859774, "care_type": "Chiropractor"}, {"name": "Dr. Robin Dohlman", "address": "1238 12 Ave SW, Calgary, AB T3C 0P3", "city": "Calgary", "phone": "+1 403-245-1221", "website": "https://www.artofchiropractic.ca/our-team", "rating": 5.0, "reviews": 1, "place_id": "ChIJvV3DcdhvcVMR1H9WVt0bf88", "latitude": 51.042342, "longitude": -114.090741, "care_type": "Chiropractor"}, {"name": "Capitol Chiropractic Health Centre", "address": "1432 19 Avenue NW, Calgary, AB T2M 3N3", "city": "Calgary", "phone": "+1 403-284-4741", "website": "http://capitolchiropractic.ca/", "rating": 5.0, "reviews": 20, "place_id": "ChIJ2-ELssOQcUERwwVDq7K3240", "latitude": 51.0697847, "longitude": -114.0940986, "care_type": "Chiropractor"}, {"name": "Dr.Jean-Paul Bohemier- A NUCCA Practice", "address": "1918 Kensington Rd NW, Calgary, AB T2N 3R5", "city": "Calgary", "phone": "+1 403-266-2283", "website": "https://www.vibehealthcalgary.com/dr-jean-paul-bohemier/", "rating": 4.9, "reviews": 18, "place_id": "ChIJVZ751D1vcVMR726DPSvW2Ds", "latitude": 51.05278389999999, "longitude": -114.1044463, "care_type": "Chiropractor"}, {"name": "Encompass Sports Therapy - Bridgeland", "address": "913 1 Ave NE, Calgary, AB T2E 1M2", "city": "Calgary", "phone": "+1 403-452-2111", "website": "https://www.encompasscalgary.com/", "rating": 5.0, "reviews": 83, "place_id": "ChIJL6p59SdlcVMRg-5IFC0KVUU", "latitude": 51.0531448, "longitude": -114.0424111, "care_type": "Chiropractor"}, {"name": "Peak Health Marda", "address": "3519 14 St SW Unit 105, Calgary, AB T2T 3W2", "city": "Calgary", "phone": "+1 403-668-8679", "website": "https://peakhealthcalgary.com/peak-health-marda/%3Futm_source%3Dgmb%26utm_medium%3Dorganic%26utm_campaign%3Dgmbwebsite", "rating": 5.0, "reviews": 559, "place_id": "ChIJg_ubV6ZxcVMRoUpbzj_rpVs", "latitude": 51.0225155, "longitude": -114.0949805, "care_type": "Chiropractor"}, {"name": "Elbow River Chiropractic", "address": "320 23 Ave SW #406, Calgary, AB T2S 0J2", "city": "Calgary", "phone": "+1 403-228-2282", "website": "", "rating": 5.0, "reviews": 4, "place_id": "ChIJaUQBwxlwcVMRV9nT0hcXMbM", "latitude": 51.0325999, "longitude": -114.070033, "care_type": "Chiropractor"}, {"name": "Intrinsi", "address": "3519 18 Street SW, Calgary, AB T2T 4T9", "city": "Calgary", "phone": "+1 403-229-9214", "website": "https://intrinsi.ca/", "rating": 5.0, "reviews": 888, "place_id": "ChIJfWQZPthvcVMRk0RKKHco7Yw", "latitude": 51.0224695, "longitude": -114.1052614, "care_type": "Chiropractor"}, {"name": "Dr. Lindsay Nealon", "address": "1404 10 St NW, Calgary, AB T2M 4M8", "city": "Calgary", "phone": "+1 587-391-6200", "website": "http://www.healthyfamilieschiropractic.ca/", "rating": 5.0, "reviews": 8, "place_id": "ChIJdYKtgJpvcVMRNVy-C33uAo4", "latitude": 51.0642156, "longitude": -114.0842557, "care_type": "Chiropractor"}, {"name": "Dr. Chris Hildebrandt, Chiropractor", "address": "300, 225 11 Ave SE Room 10, Calgary, AB T2G 0G3", "city": "Calgary", "phone": "+1 403-454-1701", "website": "http://chiropractorchris.com/", "rating": 5.0, "reviews": 11, "place_id": "ChIJOb6DJBZxcVMR-oaW6f7qllI", "latitude": 51.0420136, "longitude": -114.0594653, "care_type": "Chiropractor"}, {"name": "Healthquest Chiropractic", "address": "1228 Kensington Rd NW Ofc 301, Calgary, AB T2N 3P7", "city": "Calgary", "phone": "+1 403-270-0604", "website": "http://www.healthquestcalgary.com/", "rating": 5.0, "reviews": 8, "place_id": "ChIJLSSuqelvcVMR4KsRUaD8vdw", "latitude": 51.0527756, "longitude": -114.0906012, "care_type": "Chiropractor"}, {"name": "Centre for Chiropractic Care & Massage Downtown", "address": "Brookfield Place 116, 225 6 Ave SW, Calgary, AB T2P 1N2", "city": "Calgary", "phone": "+1 403-237-5200", "website": "https://www.centreforchiropractic.ca/", "rating": 4.7, "reviews": 26, "place_id": "ChIJR7Or8vtvcVMRUTnlDebmNfQ", "latitude": 51.0473121, "longitude": -114.0659052, "care_type": "Chiropractor"}, {"name": "Crowchild Physiotherapy, Massage and Chiropractic", "address": "3630 Brentwood Rd NW 312 A, Calgary, AB T2L 2M6", "city": "Calgary", "phone": "+1 403-300-0963", "website": "https://www.crowchildphysio.com/", "rating": 4.9, "reviews": 196, "place_id": "ChIJ4YvC0nRvcVMR2tiFEL_911M", "latitude": 51.085344, "longitude": -114.1246335, "care_type": "Chiropractor"}, {"name": "MRU Injury & Prevention Clinic", "address": "U216, 4825 Mt Royal Gate SW, Calgary, AB T3E 6K6", "city": "Calgary", "phone": "+1 403-440-6917", "website": "https://mruclinic.ca/", "rating": 4.9, "reviews": 88, "place_id": "ChIJIR-9gmBxcVMRobgroxBnAjQ", "latitude": 51.0125581, "longitude": -114.1343717, "care_type": "Chiropractor"}, {"name": "Dr. Andrew Moore, Chiropractor at Momentum Health Westbrook", "address": "3320 17 Ave SW #312, Calgary, AB T3E 7C1", "city": "Calgary", "phone": "+1 403-454-1600", "website": "https://momentumhealth.ca/location/westbrook-calgary-ab/", "rating": 5.0, "reviews": 9, "place_id": "ChIJx9OBlJJvcVMRGiz7Qt3ccFI", "latitude": 51.0379937, "longitude": -114.1351775, "care_type": "Chiropractor"}, {"name": "Massage Addict Calgary Beltline", "address": "905 10 Ave SW, Calgary, AB T2R 0Z9", "city": "Calgary", "phone": "+1 587-392-4330", "website": "https://www.massageaddict.ca/calgary-beltline/%3Futm_source%3Dgoogle_business_profile%26utm_medium%3Dorganic", "rating": 4.8, "reviews": 491, "place_id": "ChIJP1KKZb1vcVMRyGZyh5A9eWc", "latitude": 51.0436895, "longitude": -114.0821326, "care_type": "Chiropractor"}, {"name": "Three Peaks Clinic", "address": "1000 Centre St N #302, Calgary, AB T2E 7W6", "city": "Calgary", "phone": "+1 403-796-3575", "website": "http://www.3pc.co/", "rating": 4.9, "reviews": 166, "place_id": "ChIJ2wFoKlllcVMRkwoxA2KXBUw", "latitude": 51.0610021, "longitude": -114.0620521, "care_type": "Chiropractor"}, {"name": "Dr. Espanioli DC", "address": "1640 16 Ave NW #103, Calgary, AB T2M 0L6", "city": "Calgary", "phone": "", "website": "http://www.northhillchiropractic.com/", "rating": 5.0, "reviews": 9, "place_id": "ChIJ_SjJv_FvcVMRrSWoGBt6dAU", "latitude": 51.0672214, "longitude": -114.0993328, "care_type": "Chiropractor"}, {"name": "Adjust Your Health South", "address": "6940 Fisher Rd SE #104, Calgary, AB T2H 0W3", "city": "Calgary", "phone": "+1 403-538-0538", "website": "http://www.adjustyourhealth.com/", "rating": 4.9, "reviews": 30, "place_id": "ChIJKeT9Rv1wcVMRli_rvRgGTzs", "latitude": 50.9935596, "longitude": -114.0675122, "care_type": "Chiropractor"}, {"name": "My Integrated Health Clinic", "address": "3400 14 St NW #207, Calgary, AB T2K 1H9", "city": "Calgary", "phone": "+1 403-571-2475", "website": "https://myintegratedhealthclinic.ca/", "rating": 5.0, "reviews": 156, "place_id": "ChIJ6Z40UH9vcVMRDBB5O0qzkb0", "latitude": 51.0824826, "longitude": -114.0941149, "care_type": "Chiropractor"}, {"name": "Turn 2 Chiropractic", "address": "358 58 Ave SW #103, Calgary, AB T2H 2M5", "city": "Calgary", "phone": "+1 403-460-4945", "website": "http://www.turn2chiropractic.com/", "rating": 5.0, "reviews": 6, "place_id": "ChIJ34Lp61dwcVMR3urMAkGSS6Y", "latitude": 51.001655, "longitude": -114.0697, "care_type": "Chiropractor"}, {"name": "Endurance On 8th Health Ctr", "address": "607 8 Ave SW, Calgary, AB T2P 0A4", "city": "Calgary", "phone": "+1 403-265-8383", "website": "https://www.endurance8health.com/", "rating": 4.8, "reviews": 68, "place_id": "ChIJDwF6EuNvcVMRaXZoq5DUtVc", "latitude": 51.045562, "longitude": -114.0743791, "care_type": "Chiropractor"}, {"name": "Anew Chiropractic", "address": "933 17 Ave SW Suite 500 (5th Floor, Calgary, AB T2T 5R6", "city": "Calgary", "phone": "+1 403-302-6532", "website": "https://www.anewchiroclinic.com/", "rating": 5.0, "reviews": 29, "place_id": "ChIJz2rW-69xcVMRxfR4xSvT2Xg", "latitude": 51.0375581, "longitude": -114.0838283, "care_type": "Chiropractor"}, {"name": "Vitality Chiropractic & Counselling", "address": "2220 20 Ave NW Suite 1, Calgary, AB T2M 1J2", "city": "Calgary", "phone": "+1 403-890-6666", "website": "https://vitalitychirocalgary.ca/", "rating": 5.0, "reviews": 34, "place_id": "ChIJhdfp4D9vcVMRfAyDw0yUPXs", "latitude": 51.07052299999999, "longitude": -114.1111611, "care_type": "Chiropractor"}, {"name": "Dr. Ryan Emmons", "address": "2912 Memorial Dr, Calgary, AB T2A 6R1", "city": "Calgary", "phone": "+1 403-521-2278", "website": "http://atlaspaincentre.com/", "rating": 5.0, "reviews": 4, "place_id": "ChIJtYzzAetvcVMRZW-7--QjU2Y", "latitude": 51.0500183, "longitude": -113.9912305, "care_type": "Chiropractor"}, {"name": "Jeffrey G Sawa Dr Pro Corporation", "address": "2912 Memorial Dr E, Calgary, AB T2A 6R1", "city": "Calgary", "phone": "+1 403-240-9717", "website": "", "rating": 4.7, "reviews": 24, "place_id": "ChIJU2LQ59l6cVMRiZBEtsLsZ_c", "latitude": 51.0499873, "longitude": -113.9914333, "care_type": "Chiropractor"}, {"name": "Integrative Health Centre", "address": "17 Inglewood Park SE #201, Calgary, AB T2G 3W8", "city": "Calgary", "phone": "+1 403-287-9201", "website": "https://www.integrativehealthcentre.com/", "rating": 4.9, "reviews": 57, "place_id": "ChIJyUKoy1ZlcVMRQSA2NsGUt14", "latitude": 51.0386017, "longitude": -114.0170353, "care_type": "Chiropractor"}, {"name": "Doctor Mark Dyrholm Chiropractic North Location", "address": "1910 20 Ave NW #202, Calgary, AB T2M 1H5", "city": "Calgary", "phone": "+1 403-464-1903", "website": "http://www.doctormark.com/", "rating": 5.0, "reviews": 1, "place_id": "ChIJV-kgp5lvcVMRn7aa6I8OiuE", "latitude": 51.0707828, "longitude": -114.1054532, "care_type": "Chiropractor"}, {"name": "Dr Jessica de Nooij (nee: Hiebert)", "address": "1603 20 Ave NW, Calgary, AB T2M 1G9", "city": "Calgary", "phone": "+1 403-228-5433", "website": "http://www.drjessicayyc.com/", "rating": 5.0, "reviews": 5, "place_id": "ChIJG7A2TCZvcVMR_oqS4MXle4I", "latitude": 51.0703413, "longitude": -114.0974528, "care_type": "Chiropractor"}, {"name": "Calgary Back & Sports Injury Clinic / Marlborough Chiropractic Centre", "address": "2912 Memorial Dr #305, Calgary, AB T2A 6R1", "city": "Calgary", "phone": "+1 403-272-8800", "website": "https://www.calgarybackandsportsinjuryclinic.com/", "rating": 4.7, "reviews": 29, "place_id": "ChIJOVTZ6tBkcVMRh_BwogYzabg", "latitude": 51.0500179, "longitude": -113.9915017, "care_type": "Chiropractor"}, {"name": "Chiropractic", "address": "306 10 St NW, Calgary, AB T2N 1V8", "city": "Calgary", "phone": "+1 403-452-0076", "website": "", "rating": null, "reviews": 0, "place_id": "ChIJi3fVme5vcVMRbcNtudWFoOc", "latitude": 51.0542057, "longitude": -114.0856418, "care_type": "Chiropractor"}, {"name": "Dr. Willson Chan - Chiropractor", "address": "5940 Macleod Trl SW #103, Calgary, AB T2H 2G4", "city": "Calgary", "phone": "+1 587-288-5673", "website": "http://drwillsonchan.com/", "rating": 5.0, "reviews": 8, "place_id": "ChIJcy2LfHxxcVMRETPshjJAnfM", "latitude": 51.0004162, "longitude": -114.0700636, "care_type": "Chiropractor"}, {"name": "Vital Performance Care", "address": "101 3 St SW #210, Calgary, AB T2P 4G6", "city": "Calgary", "phone": "+1 587-834-2001", "website": "https://vitalperformancecare.com/", "rating": 5.0, "reviews": 167, "place_id": "ChIJYYNsLhhwcVMR_Hnpx5hsYmY", "latitude": 51.0527416, "longitude": -114.0707555, "care_type": "Chiropractor"}, {"name": "Action Sports Clinic", "address": "639 5 Ave SW Suite 130, Calgary, AB T2P 0M9", "city": "Calgary", "phone": "+1 403-263-2225", "website": "https://actionsportsclinic.ca/", "rating": 4.8, "reviews": 144, "place_id": "ChIJrfBNsuRvcVMRTlx07JjcN0E", "latitude": 51.0484815, "longitude": -114.0756048, "care_type": "Chiropractor"}, {"name": "Tuxedo Park Chiropractic Ofc", "address": "1518 Centre a St NE, Calgary, AB T2E 2R9", "city": "Calgary", "phone": "+1 403-230-9300", "website": "", "rating": 5.0, "reviews": 1, "place_id": "ChIJN01L9F1lcVMRty1GYwD28x0", "latitude": 51.0655414, "longitude": -114.0616729, "care_type": "Chiropractor"}, {"name": "Edge Chiropractic & Sport Therapy", "address": "108 7 St SW, Calgary, AB T2P 5N7", "city": "Calgary", "phone": "+1 403-294-0095", "website": "http://www.edgechiro.com/", "rating": 4.3, "reviews": 22, "place_id": "ChIJETodE-NvcVMR1ovvcPa8g44", "latitude": 51.0519747, "longitude": -114.0780317, "care_type": "Chiropractor"}, {"name": "Canadian Chiropractic Exam Brd", "address": "308, 2116 27 Ave NE #330, Calgary, AB T2E 7A6", "city": "Calgary", "phone": "+1 403-230-5997", "website": "", "rating": null, "reviews": 0, "place_id": "ChIJj6H58t9kcVMRFgobSb8P07Q", "latitude": 51.07735539999999, "longitude": -114.009814, "care_type": "Chiropractor"}, {"name": "Live Younger - Hormone balance/Medical Aesthetics/ Weight Loss | Dr. Natasha Iyer", "address": "922 5 Ave SW #518, Calgary, AB T2P 5R4", "city": "Calgary", "phone": "+1 403-237-2353", "website": "https://liveyounger.ca/%3Futm_source%3DGoogle%26utm_medium%3DGMB", "rating": 4.8, "reviews": 114, "place_id": "ChIJA42J1-VvcVMRVEdPEXlfdlA", "latitude": 51.0490777, "longitude": -114.082304, "care_type": "Chiropractor"}, {"name": "Centre 70 Chiropractic and Massage Therapy Clinic", "address": "7015 Macleod Trl SW, Calgary, AB T2H 2K6", "city": "Calgary", "phone": "+1 403-252-2869", "website": "https://www.centre70chiropractic.ca/", "rating": 4.9, "reviews": 17, "place_id": "ChIJ_c70ixdxcVMRJJ6HyGhbUFU", "latitude": 50.9912535, "longitude": -114.0732255, "care_type": "Chiropractor"}, {"name": "Dr. Gordon Hasick - NUCCA Board Certified Chiropractor", "address": "5005 Elbow Dr SW #201, Calgary, AB T2S 2T6", "city": "Calgary", "phone": "+1 403-243-0155", "website": "http://www.c-1.com/", "rating": 4.3, "reviews": 12, "place_id": "ChIJIf4PT1eFcUERVNdZXljpfU4", "latitude": 51.0094343, "longitude": -114.0816661, "care_type": "Chiropractor"}, {"name": "DR. MICHAEL GRAESSER", "address": "6707 Elbow Dr SW, Calgary, AB T2V 0E5", "city": "Calgary", "phone": "+1 403-259-4443", "website": "https://mayfairchiro.ca/", "rating": 5.0, "reviews": 1, "place_id": "ChIJBwBA4gBwcVMRrAKLnbhOMdU", "latitude": 50.9933282, "longitude": -114.0842457, "care_type": "Chiropractor"}, {"name": "Dr. Doug Meldrum", "address": "3403 26 Ave SW, Calgary, AB T3E 0N3", "city": "Calgary", "phone": "+1 403-686-7676", "website": "http://www.lifenbalancewellness.com/", "rating": 5.0, "reviews": 7, "place_id": "ChIJWdv8NSducVMR6tFB5NFRD2w", "latitude": 51.0297868, "longitude": -114.135718, "care_type": "Chiropractor"}, {"name": "Calgary Chiropractic for Babies", "address": "703 64 Ave SE Unit 170, Calgary, AB T2H 2C3", "city": "Calgary", "phone": "+1 587-391-8611", "website": "https://www.calgarychiropracticforbabies.com/", "rating": null, "reviews": 0, "place_id": "ChIJd1P1D0hxcVMRNL3AUpdjicM", "latitude": 50.9967638, "longitude": -114.0486863, "care_type": "Chiropractor"}, {"name": "South Edmonton Chiropractic Centre", "address": "2603 Hewes Way NW Unit #106, Edmonton, AB T6L 6W6", "city": "Edmonton", "phone": "+1 780-462-6060", "website": "http://southedmontonchiro.com/", "rating": 4.9, "reviews": 529, "place_id": "ChIJn6raKz4ZoFMRfLaMhnc2BSE", "latitude": 53.4573287, "longitude": -113.4264678, "care_type": "Chiropractor"}, {"name": "Enhanced Health & Wellness - South Edmonton Chiropractic Clinic", "address": "5330 Calgary Trl NW, Edmonton, AB T6H 4J8", "city": "Edmonton", "phone": "+1 780-431-1201", "website": "https://enhancedwellnessclinic.com/%3Futm_source%3DGBP%26utm_medium%3Dorganic", "rating": 4.9, "reviews": 281, "place_id": "ChIJydur7GUfoFMRTKamRc3inyA", "latitude": 53.49103909999999, "longitude": -113.4960373, "care_type": "Chiropractor"}, {"name": "The Chiropractic Wellness Studio", "address": "13812 40 St NW, Edmonton, AB T5Y 3E6", "city": "Edmonton", "phone": "+1 780-477-0990", "website": "http://www.feelbetteredmonton.com/", "rating": 4.8, "reviews": 248, "place_id": "ChIJn7pzT7k8oFMRJ8G1A5iDsvo", "latitude": 53.5994434, "longitude": -113.404483, "care_type": "Chiropractor"}, {"name": "LiveWell Family Chiropractic", "address": "15508 87 Ave NW bsmnt 16, Edmonton, AB T5R 4G5", "city": "Edmonton", "phone": "+1 780-705-3556", "website": "http://www.livewelledmonton.com/", "rating": 4.9, "reviews": 221, "place_id": "ChIJ_6heuLMhoFMR1UVuYXQqCG4", "latitude": 53.51995059999999, "longitude": -113.5889671, "care_type": "Chiropractor"}, {"name": "North Edmonton Chiropractic & Massage Clinic", "address": "12935 97 St NW, Edmonton, AB T5E 4C2", "city": "Edmonton", "phone": "+1 780-473-6441", "website": "https://www.northedmontonchiropractic.ca/%3FUTM_source%3DGBL", "rating": 4.6, "reviews": 114, "place_id": "ChIJrXikb3AjoFMR-k5xiS3Kh4k", "latitude": 53.5884449, "longitude": -113.4916606, "care_type": "Chiropractor"}, {"name": "Iron Spine Chiropractic", "address": "4004 97 St NW Unit 28, Edmonton, AB T6E 6N1", "city": "Edmonton", "phone": "+1 780-818-4766", "website": "https://www.ironspinechiropractic.ca/", "rating": 4.9, "reviews": 513, "place_id": "ChIJa-Ax_0IfoFMRJAJpjikQO1A", "latitude": 53.4755249, "longitude": -113.480119, "care_type": "Chiropractor"}, {"name": "The Chiropractors At Commerce Place", "address": "10150 Jasper Ave #255, Edmonton, AB T5J 1W4", "city": "Edmonton", "phone": "+1 780-423-6003", "website": "https://www.myedmontonchiropractors.com/", "rating": 5.0, "reviews": 100, "place_id": "ChIJwc1iaUYioFMRFW0sw8ZUuAc", "latitude": 53.54115059999999, "longitude": -113.4947815, "care_type": "Chiropractor"}, {"name": "South Side Chiropractic", "address": "7361 104 Street NW, Edmonton, AB T6E 4B9", "city": "Edmonton", "phone": "+1 780-439-3444", "website": "https://www.edmontonchirosouthside.com/", "rating": 4.8, "reviews": 173, "place_id": "ChIJP_PLiAUioFMR3Zn1LcApxJ8", "latitude": 53.5111668, "longitude": -113.497442, "care_type": "Chiropractor"}, {"name": "Whitemud Crossing Chiropractors", "address": "4211 106 St #141, Edmonton, AB T6J 6L7", "city": "Edmonton", "phone": "+1 780-430-7549", "website": "http://www.whitemudchiro.com/", "rating": 4.9, "reviews": 162, "place_id": "ChIJs-BH6jkfoFMREUrzEyf4wn0", "latitude": 53.4792307, "longitude": -113.5017374, "care_type": "Chiropractor"}, {"name": "Divine Spine", "address": "11936 104 Ave NW #205, Edmonton, AB T5K 0G6", "city": "Edmonton", "phone": "+1 780-244-5025", "website": "https://divinespine.com/alberta/edmonton/downtown-central/", "rating": 4.7, "reviews": 288, "place_id": "ChIJsQXTNcUjoFMRbr61faVLR2Q", "latitude": 53.5466401, "longitude": -113.5274515, "care_type": "Chiropractor"}, {"name": "Garneau Chiropractic Health Clinic", "address": "College Plaza, 8215 112 St NW 1600 - 16th Floor, Edmonton, AB T6G 2C8", "city": "Edmonton", "phone": "+1 780-413-4600", "website": "http://www.garneauchiropractic.ca/", "rating": 4.9, "reviews": 187, "place_id": "ChIJ5_S9nR0ioFMRFvDoJUq123E", "latitude": 53.518511, "longitude": -113.5204759, "care_type": "Chiropractor"}, {"name": "Chiropractic Plus Wellness Center", "address": "9811 34 Ave NW #101, Edmonton, AB T6E 5X9", "city": "Edmonton", "phone": "+1 780-468-1303", "website": "http://www.chiropractic-plus.ca/", "rating": 4.9, "reviews": 133, "place_id": "ChIJKWAghCkfoFMR6J6jLUGKwQM", "latitude": 53.4671891, "longitude": -113.482016, "care_type": "Chiropractor"}, {"name": "Providence Chiropractic Clinic | Dr. Ben Kuhn, DC", "address": "4556 99 St NW, Edmonton, AB T6E 5J1", "city": "Edmonton", "phone": "+1 587-412-1527", "website": "http://www.providencenucca.com/", "rating": 4.8, "reviews": 174, "place_id": "ChIJM4smEZQioFMRQzjnWGa0WnU", "latitude": 53.483998, "longitude": -113.487739, "care_type": "Chiropractor"}, {"name": "WOW Chiropractic", "address": "9509 156 St NW #209, Edmonton, AB T5P 4J5", "city": "Edmonton", "phone": "+1 780-482-2788", "website": "http://www.wowchiropractic.com/", "rating": 5.0, "reviews": 29, "place_id": "ChIJJ8wPTbchoFMRwCuUTo3c4qw", "latitude": 53.531749, "longitude": -113.5896669, "care_type": "Chiropractor"}, {"name": "Forest Heights Chiropractic, Physiotherapy & Wellness Centre", "address": "10144 79 St NW, Edmonton, AB T6A 3G3", "city": "Edmonton", "phone": "+1 780-469-1561", "website": "https://www.fhchiro.com/", "rating": 5.0, "reviews": 82, "place_id": "ChIJq9087fIioFMRVKyhmzL8aow", "latitude": 53.542262, "longitude": -113.449554, "care_type": "Chiropractor"}, {"name": "Divine Spine", "address": "9126 23 Ave NW, Edmonton, AB T6N 1L6", "city": "Edmonton", "phone": "+1 780-490-7585", "website": "https://divinespine.com/alberta/edmonton/south/", "rating": 4.8, "reviews": 310, "place_id": "ChIJYa_lps4eoFMRGkyuGosbRYg", "latitude": 53.45262959999999, "longitude": -113.469572, "care_type": "Chiropractor"}, {"name": "Pulse Health", "address": "10504 123 St NW, Edmonton, AB T5N 1P1", "city": "Edmonton", "phone": "+1 780-851-5387", "website": "https://pulse-health.ca/%3Futm_source%3Dgbp%26utm_medium%3Dwebsite_btn%26utm_campaign%3Dpmp", "rating": 5.0, "reviews": 307, "place_id": "ChIJc0GXOQAjoFMR9PAL9YIrOFo", "latitude": 53.54802189999999, "longitude": -113.53452, "care_type": "Chiropractor"}, {"name": "Chiropractic On Whyte", "address": "10814 82, Edmonton, AB T6E 2B3", "city": "Edmonton", "phone": "+1 780-437-0700", "website": "", "rating": 4.8, "reviews": 45, "place_id": "ChIJu9W4mBwioFMRR2LwD28ot48", "latitude": 53.5183613, "longitude": -113.5102097, "care_type": "Chiropractor"}, {"name": "Blue Quill Chiropractic", "address": "374 Saddleback Rd NW, Edmonton, AB T6J 4R7", "city": "Edmonton", "phone": "+1 780-433-0686", "website": "http://www.bluequillchiropractic.com/", "rating": 4.9, "reviews": 123, "place_id": "ChIJk6c9j7YfoFMRfoZGmwKVFPg", "latitude": 53.460086, "longitude": -113.530983, "care_type": "Chiropractor"}, {"name": "Element Chiropractic", "address": "10407 64 Ave NW, Edmonton, AB T6H 1S8", "city": "Edmonton", "phone": "+1 587-936-6591", "website": "http://elementchiro.ca/", "rating": 5.0, "reviews": 268, "place_id": "ChIJDeQopFoZoFMRz6hIg4MnizM", "latitude": 53.500684, "longitude": -113.4981474, "care_type": "Chiropractor"}, {"name": "Collins Chiropractic Health & Wellness Centre", "address": "10308 121 St NW, Edmonton, AB T5N 1K8", "city": "Edmonton", "phone": "+1 780-482-2738", "website": "http://drcollins.ca/", "rating": 5.0, "reviews": 227, "place_id": "ChIJ77ii4AohoFMRX-idXsBuu-M", "latitude": 53.544894, "longitude": -113.5312421, "care_type": "Chiropractor"}, {"name": "Whyte Avenue Chiropractic & Wellness Centre", "address": "8923 Whyte Ave NW, Edmonton, AB T6C 0Z2", "city": "Edmonton", "phone": "+1 780-466-7111", "website": "http://www.whytechiro.com/", "rating": 4.5, "reviews": 143, "place_id": "ChIJC67dC3cioFMR_5DoUSUjqgA", "latitude": 53.517838, "longitude": -113.4647635, "care_type": "Chiropractor"}, {"name": "Callingwood Chiropractic Centre", "address": "6725 177 St NW, Edmonton, AB T5T 4K3", "city": "Edmonton", "phone": "+1 780-444-3433", "website": "https://westedmontonwellness.com/callingwood-chiropractic/", "rating": 4.3, "reviews": 123, "place_id": "ChIJibJjoBQgoFMR0Q9eS4GrU_s", "latitude": 53.502695, "longitude": -113.62544, "care_type": "Chiropractor"}, {"name": "50th Street Chiropractic", "address": "12781 50 St NW #206, Edmonton, AB T5A 4L8", "city": "Edmonton", "phone": "+1 780-414-1110", "website": "https://www.edmontonchiropractor.net/", "rating": 4.4, "reviews": 31, "place_id": "ChIJSVVVic48oFMR4uQUd-9k7NM", "latitude": 53.587512, "longitude": -113.4169459, "care_type": "Chiropractor"}, {"name": "Balwin Chiropractic & Massage Clinic", "address": "13123 82 St NW, Edmonton, AB T5E 2T4", "city": "Edmonton", "phone": "+1 780-475-8484", "website": "https://balwinchiropractic.com/", "rating": 4.9, "reviews": 333, "place_id": "ChIJqeOg7VsjoFMRbxmOQKeSzzk", "latitude": 53.5918661, "longitude": -113.4667118, "care_type": "Chiropractor"}, {"name": "Edmonton Chiropractic Neurology & Sports Clinic", "address": "10020 Jasper Ave, Edmonton, AB T5J 1R9", "city": "Edmonton", "phone": "+1 780-466-7202", "website": "http://yegchiropractor.com/", "rating": 4.3, "reviews": 30, "place_id": "ChIJC9luzkUioFMRYPkRAPS0a18", "latitude": 53.54125, "longitude": -113.4913835, "care_type": "Chiropractor"}, {"name": "Edmonton Tower Chiropractic", "address": "10111 104 Ave NW #114, Edmonton, AB T5J 0J4", "city": "Edmonton", "phone": "+1 780-422-1087", "website": "https://www.edmontonchiropractic.com/%3FUTM_source%3DGBL", "rating": 4.9, "reviews": 43, "place_id": "ChIJR3MbCkcioFMRKh7_-nDTOE4", "latitude": 53.5456261, "longitude": -113.4946675, "care_type": "Chiropractor"}, {"name": "Castledowns Chiropractic Clinic", "address": "12222 137 Ave NW #201, Edmonton, AB T5L 4X5", "city": "Edmonton", "phone": "+1 780-457-3621", "website": "http://www.castledownschiro.com/", "rating": 4.9, "reviews": 131, "place_id": "ChIJfRE2T3okoFMRHbUtrQpY2Do", "latitude": 53.6006593, "longitude": -113.5327107, "care_type": "Chiropractor"}, {"name": "Manning Chiropractic & Wellness", "address": "240 Manning Crossing NW, Edmonton, AB T5A 5A1", "city": "Edmonton", "phone": "+1 780-456-2323", "website": "http://manningchiro.ca/", "rating": 4.6, "reviews": 87, "place_id": "ChIJ-Qp3uio9oFMRULQesfBViMM", "latitude": 53.6007285, "longitude": -113.4241115, "care_type": "Chiropractor"}, {"name": "Back In Line Chiropractic", "address": "6568 170 Ave NW, Edmonton, AB T5Y 3X6", "city": "Edmonton", "phone": "+1 780-444-7222", "website": "http://www.backinline.ca/", "rating": 4.6, "reviews": 82, "place_id": "ChIJK4J54Vg7oFMRGRUAZqI-Zu0", "latitude": 53.6333352, "longitude": -113.4421134, "care_type": "Chiropractor"}, {"name": "Hope Chiropractic", "address": "3807 34 St NW, Edmonton, AB T6T 1N2", "city": "Edmonton", "phone": "+1 780-469-4438", "website": "http://www.hopechiropractic.ca/", "rating": 4.9, "reviews": 109, "place_id": "ChIJ98aCtKgZoFMRMoubONJnLTU", "latitude": 53.4738193, "longitude": -113.3929889, "care_type": "Chiropractor"}, {"name": "ActiveCare Chiropractic and Physiotherapy Clinic", "address": "11704 Jasper Ave, Edmonton, AB T5K 0N3", "city": "Edmonton", "phone": "+1 780-482-7617", "website": "http://www.activecarechiro.ca/", "rating": 5.0, "reviews": 97, "place_id": "ChIJ7fsg6y8ioFMRHBUVIiaG-Lg", "latitude": 53.5411073, "longitude": -113.5233691, "care_type": "Chiropractor"}, {"name": "Dr. McLeod Chiropractic", "address": "7131 Winterburn Rd NW, Edmonton, AB T5T 4K2", "city": "Edmonton", "phone": "+1 780-756-9506", "website": "https://www.drmcleodchiropractic.ca/", "rating": 4.8, "reviews": 88, "place_id": "ChIJwWTnL4eKn1MRBmMjLcIiLjw", "latitude": 53.505769, "longitude": -113.6879129, "care_type": "Chiropractor"}, {"name": "Inside-Out Chiropractic Center", "address": "3550 76 Ave NW, Edmonton, AB T6B 2N8", "city": "Edmonton", "phone": "+1 780-462-4243", "website": "http://www.iochiro.com/", "rating": 4.5, "reviews": 68, "place_id": "ChIJD9cWt-0YoFMRdMzcQ3CQxuI", "latitude": 53.512863, "longitude": -113.3970875, "care_type": "Chiropractor"},