[{"name": "Ogawa Chiropractic", "address": "4-956 Kuhio Hwy, Kapa\u02bba, HI 96746", "city": "Kapa\u02bba", "phone": "+1 808-822-7113", "website": "http://www.kapaakauaichiropractor.com/", "rating": 4.8, "reviews": 17, "place_id": "ChIJjwtsalngBnwRuhkxsBH2p2o", "latitude": 22.0648884, "longitude": -159.3190561, "care_type": "Chiropractor"}, {"name": "Smith Chiropractic", "address": "4-820 Kuhio Hwy, Kapa\u02bba, HI 96746", "city": "Kapa\u02bba", "phone": "+1 808-823-8888", "website": "http://www.spabytheseakauai.com/", "rating": 5.0, "reviews": 8, "place_id": "ChIJ9TMqBlvgBnwRoHV1Y8IzuJY", "latitude": 22.060734, "longitude": -159.3198119, "care_type": "Chiropractor"}, {"name": "The Fix Chiropractic Walk-In Clinic", "address": "4-1435 Kuhio Hwy #206, Kapa\u02bba, HI 96746", "city": "Kapa\u02bba", "phone": "+1 808-868-9413", "website": "http://fixchiropractic.com/", "rating": 4.9, "reviews": 321, "place_id": "ChIJD1s2z-zhBnwRH7E-DDA-Diw", "latitude": 22.0774562, "longitude": -159.3169331, "care_type": "Chiropractor"}, {"name": "Swell Chiropractic", "address": "4520 Kukui St #204, Kapa\u02bba, HI 96746", "city": "Kapa\u02bba", "phone": "+1 808-631-2508", "website": "", "rating": 5.0, "reviews": 6, "place_id": "ChIJqQXhSPHgBnwRoBy1LlwFK-w", "latitude": 22.0762187, "longitude": -159.318874, "care_type": "Chiropractor"}, {"name": "Mauna Lani Chiropractic", "address": "68-1330 Mauna Lani Dr Suite 106, Waimea, HI 96743", "city": "Waimea", "phone": "+1 808-747-8303", "website": "http://www.maunalanichiropractic.com/", "rating": 5.0, "reviews": 18, "place_id": "ChIJecgxvkJ5VHkR_imCpjp6mOw", "latitude": 19.9416478, "longitude": -155.8584646, "care_type": "Chiropractor"}, {"name": "Malama Integrative Wellness and Chiropractic", "address": "65-1184 Mamalahoa Hwy, Waimea, HI 96743", "city": "Waimea", "phone": "+1 808-938-6557", "website": "https://drashlynrussell.com/", "rating": 5.0, "reviews": 12, "place_id": "ChIJdT_7axhLUnkRJp01b5r3HvE", "latitude": 20.0211885, "longitude": -155.6682014, "care_type": "Chiropractor"}, {"name": "Advanced Bodyworks Physical Medicine", "address": "65-1291 Kawaihae Rd #203, Waimea, HI 96743", "city": "Waimea", "phone": "+1 808-439-6292", "website": "https://www.advbodyworks.com/", "rating": 5.0, "reviews": 11, "place_id": "ChIJF9ZhGeeDU3kRGgo3T3GFEXg", "latitude": 20.0216738, "longitude": -155.6751618, "care_type": "Chiropractor"}, {"name": "Doreen King", "address": "65-1291 Kawaihae Rd #203, Waimea, HI 96743", "city": "Waimea", "phone": "", "website": "https://www.advbodyworks.com/team/Dr-Doreen-King", "rating": 5.0, "reviews": 1, "place_id": "ChIJ12n5MTCDU3kReeY19JiLH1w", "latitude": 20.0216738, "longitude": -155.6751618, "care_type": "Chiropractor"}, {"name": "Doherty Chiropractic", "address": "65-1231 Opelo Rd # 3, Waimea, HI 96743", "city": "Waimea", "phone": "+1 808-885-9300", "website": "http://www.dohertychiropractic.com/", "rating": 5.0, "reviews": 5, "place_id": "ChIJA-38RBCDU3kRkLMkohXB1Wc", "latitude": 20.0234672, "longitude": -155.6766977, "care_type": "Chiropractor"}, {"name": "Police Family Chiropractic- Waimea", "address": "65-1227 Opelo Rd #103, Waimea, HI 96743", "city": "Waimea", "phone": "+1 808-895-2505", "website": "http://www.policefamilychiropractic.com/", "rating": 4.9, "reviews": 47, "place_id": "ChIJ6-wY1y-DU3kRRNvkViYlQbY", "latitude": 20.0230714, "longitude": -155.6766322, "care_type": "Chiropractor"}, {"name": "Mizuba Chiropractic", "address": "65-1206 Mamalahoa Hwy, Waimea, HI 96743", "city": "Waimea", "phone": "+1 808-887-1918", "website": "http://www.drmizuba.com/", "rating": 4.0, "reviews": 4, "place_id": "ChIJWwiQv1WDU3kR2X7kbbuBNtQ", "latitude": 20.0203388, "longitude": -155.6698346, "care_type": "Chiropractor"}, {"name": "Waimea Chiropractic Clinic", "address": "65-1298 Kawaihae Rd # 1, Waimea, HI 96743", "city": "Waimea", "phone": "+1 808-885-7719", "website": "", "rating": 5.0, "reviews": 1, "place_id": "ChIJiZB02C-DU3kRjPixuo9ml2A", "latitude": 20.0225687, "longitude": -155.6755759, "care_type": "Chiropractor"}, {"name": "Dawana Simpson DC", "address": "59-237 Kanaloa Way, Waimea, HI 96743", "city": "Waimea", "phone": "+1 808-557-7200", "website": "http://www.alternativehealthcoach.com/", "rating": null, "reviews": 0, "place_id": "ChIJI8R72yWAU3kRrgW92S6O_5o", "latitude": 20.093271, "longitude": -155.822106, "care_type": "Chiropractor"}, {"name": "Dr. Eric Mizuba", "address": "65-1206 Hawai\u02bbi Belt Rd Ste 3-212, Waimea, HI 96743", "city": "Waimea", "phone": "+1 808-491-2462", "website": "https://drmizuba.com/", "rating": null, "reviews": 0, "place_id": "ChIJqdvbaDKDU3kR0IXsy1a2LVI", "latitude": 20.0205058, "longitude": -155.6697314, "care_type": "Chiropractor"}, {"name": "Hawaii Elite Chiropractic - Aiea", "address": "99-128 Aiea Heights Dr STE 404, Aiea, HI 96701", "city": "Aiea", "phone": "+1 808-445-3527", "website": "http://www.hawaiielitechiropractic.com/", "rating": 5.0, "reviews": 309, "place_id": "ChIJbYY_OUpvAHwR-vr_l0JCGjI", "latitude": 21.3794561, "longitude": -157.9302883, "care_type": "Chiropractor"}, {"name": "Chiropractic Family Health Center", "address": "99-115 Aiea Heights Dr, Aiea, HI 96701", "city": "Aiea", "phone": "+1 808-486-6696", "website": "https://www.chiropractichawaii.com/", "rating": 4.8, "reviews": 168, "place_id": "ChIJrR4gH0pvAHwRKj7uPh0lZuI", "latitude": 21.3786787, "longitude": -157.929743, "care_type": "Chiropractor"}, {"name": "Turning Point Chiropractic", "address": "99-080 Kauhale St UNIT D-9, Aiea, HI 96701", "city": "Aiea", "phone": "+1 808-637-2608", "website": "http://www.tpchiro.com/", "rating": 5.0, "reviews": 585, "place_id": "ChIJy_JE1H5vAHwRxkPwqs6Z4LA", "latitude": 21.3795029, "longitude": -157.9319165, "care_type": "Chiropractor"}, {"name": "Hawaii Chiropractic Clinic", "address": "98-1247 Ka\u02bbahumanu St #215, Aiea, HI 96701", "city": "Aiea", "phone": "+1 808-487-1575", "website": "https://www.hawaiichiropracticclinic.com/", "rating": 4.6, "reviews": 10, "place_id": "ChIJ2yj_PQBmAHwRcKX0_dVDjY0", "latitude": 21.3884516, "longitude": -157.9531962, "care_type": "Chiropractor"}, {"name": "CHIROPRACTIC WELLNESS CENTER, Aiea, Hawaii", "address": "98-211 Pali Momi St Ste 412, Aiea, HI 96701", "city": "Aiea", "phone": "+1 808-488-8588", "website": "http://bodymind-spa.com/CHIROPRACTIC.html", "rating": 5.0, "reviews": 2, "place_id": "ChIJi3YhzXVuAHwRywX6yvS4d0s", "latitude": 21.3824712, "longitude": -157.9388683, "care_type": "Chiropractor"}, {"name": "Newtown Chiropractic", "address": "98-1277 Ka\u02bbahumanu St #130, Aiea, HI 96701", "city": "Aiea", "phone": "+1 808-487-9999", "website": "", "rating": 5.0, "reviews": 7, "place_id": "ChIJhSBAYghmAHwRK630mhZ6Q1E", "latitude": 21.3901646, "longitude": -157.9519829, "care_type": "Chiropractor"}, {"name": "Tanaka and Associates Chiropractic & Massage", "address": "98-027 Hekaha St #17, Aiea, HI 96701", "city": "Aiea", "phone": "+1 808-487-2273", "website": "http://tanakaandassociates.com/", "rating": 5.0, "reviews": 13, "place_id": "ChIJ87O-TgBmAHwRX3tr2qwyzIE", "latitude": 21.3833843, "longitude": -157.9503151, "care_type": "Chiropractor"}, {"name": "Eugene Kitts, DC, ND, ABAAHP", "address": "98-1277 Ka'ahumanu St #130, Aiea, HI 96701", "city": "Aiea", "phone": "+1 808-487-9999", "website": "", "rating": 5.0, "reviews": 20, "place_id": "ChIJdZ97FwBmAHwRadlpbTLAifs", "latitude": 21.3901646, "longitude": -157.9519829, "care_type": "Chiropractor"}, {"name": "Behruz Chiropractic", "address": "99-128 Aiea Heights Dr STE 301, Aiea, HI 96701", "city": "Aiea", "phone": "+1 808-445-3224", "website": "http://drbehruz.com/", "rating": 5.0, "reviews": 9, "place_id": "ChIJgzMFwLtvAHwREbltSI66bsk", "latitude": 21.3794561, "longitude": -157.9302883, "care_type": "Chiropractor"}, {"name": "The Chiropractic Studio", "address": "98-1256 Ka\u02bbahumanu St e203, Pearl City, HI 96782", "city": "Pearl City", "phone": "+1 808-688-7362", "website": "http://thechirostudiohi.com/", "rating": 5.0, "reviews": 67, "place_id": "ChIJAXVPtm9nAHwRSABUGzSYH2E", "latitude": 21.3891483, "longitude": -157.9545204, "care_type": "Chiropractor"}, {"name": "Aiea Pain Relief Chiropractic", "address": "99-128 Aiea Heights Dr # 202, Aiea, HI 96701", "city": "Aiea", "phone": "+1 808-486-8888", "website": "", "rating": 5.0, "reviews": 1, "place_id": "ChIJlXkrOUpvAHwRfn2KACbn_Zs", "latitude": 21.3797008, "longitude": -157.9304635, "care_type": "Chiropractor"}, {"name": "Dr. Anne Takata, DC", "address": "98-029 Hekaha St #34, Aiea, HI 96701", "city": "Aiea", "phone": "+1 808-487-8885", "website": "http://www.drannetakata.com/", "rating": 5.0, "reviews": 2, "place_id": "ChIJNXHVeVVvAHwRNTAFgvfiW98", "latitude": 21.3843902, "longitude": -157.9514005, "care_type": "Chiropractor"}, {"name": "Dr. Shaun Ohira", "address": "99-128 Aiea Heights Dr STE 404, Aiea, HI 96701", "city": "Aiea", "phone": "+1 808-445-3527", "website": "https://hawaiielitechiropractic.com/about-us/", "rating": 5.0, "reviews": 2, "place_id": "ChIJe2D3PEpvAHwRiRfrvXpE8Q4", "latitude": 21.3794561, "longitude": -157.9302883, "care_type": "Chiropractor"}, {"name": "Island Family Chiropractic", "address": "4510 Salt Lake Blvd Unit B6, Honolulu, HI 96818", "city": "Honolulu", "phone": "+1 808-321-7135", "website": "http://www.islandfamilychiro.com/", "rating": 4.9, "reviews": 78, "place_id": "ChIJm3lk62xvAHwRhqJjG3ovOIU", "latitude": 21.3656227, "longitude": -157.9270429, "care_type": "Chiropractor"}, {"name": "Pearl City Chiropractic, LLC", "address": "945 Kamehameha Hwy #8, Pearl City, HI 96782", "city": "Pearl City", "phone": "+1 808-456-5553", "website": "", "rating": 5.0, "reviews": 9, "place_id": "ChIJW2xJGwlmAHwRHVPMlSIYVKk", "latitude": 21.394098, "longitude": -157.971975, "care_type": "Chiropractor"}, {"name": "Oahu Wellness Chiropractic", "address": "50 S Beretania St. STE C111, Honolulu, HI 96813", "city": "Honolulu", "phone": "+1 808-312-3466", "website": "http://oahuwellnesschiropractic.com/", "rating": 4.7, "reviews": 47, "place_id": "ChIJYzFbtiNvAHwRDxeLsEGkBu4", "latitude": 21.3125229, "longitude": -157.8590157, "care_type": "Chiropractor"}, {"name": "Yoza Chiropractic", "address": "99-185 Moanalua Rd STE 106, Aiea, HI 96701", "city": "Aiea", "phone": "+1 808-488-6330", "website": "", "rating": 5.0, "reviews": 1, "place_id": "ChIJt-h800tvAHwRya8uZ3-YA4o", "latitude": 21.3789013, "longitude": -157.9312809, "care_type": "Chiropractor"}, {"name": "Honor Box Chiropractic", "address": "1245 Kuala St Unit 105, Pearl City, HI 96782", "city": "Pearl City", "phone": "+1 808-841-2929", "website": "https://honorboxchiropractic.com/", "rating": 5.0, "reviews": 174, "place_id": "ChIJpdCpL11uAHwRcvyqlZYwqrA", "latitude": 21.4014949, "longitude": -157.9713281, "care_type": "Chiropractor"}, {"name": "Dr Raymond K Yoza", "address": "99-185 Moanalua Rd #106, Aiea, HI 96701", "city": "Aiea", "phone": "+1 808-488-6330", "website": "http://dryoza.com/home-en", "rating": 5.0, "reviews": 3, "place_id": "ChIJt-h800tvAHwRpHnETI1cP0A", "latitude": 21.378966, "longitude": -157.931196, "care_type": "Chiropractor"}, {"name": "Paul Kurihara", "address": "Parking lot, 99-115 Aiea Heights Dr Ste 260, Aiea, HI 96701", "city": "Aiea", "phone": "+1 808-486-6696", "website": "https://chiropractichawaii.com/", "rating": null, "reviews": 0, "place_id": "ChIJq6rqHkpvAHwRsC4EELojyTU", "latitude": 21.3787168, "longitude": -157.9297275, "care_type": "Chiropractor"}, {"name": "Aviva Wellness and Acupuncture", "address": "98-023 Hekaha St STE 204, Aiea, HI 96701", "city": "Aiea", "phone": "+1 808-888-2300", "website": "https://avivaacupuncture.com/%3Futm_campaign%3Dgmb", "rating": 4.9, "reviews": 67, "place_id": "ChIJJ9KQAGNzAHwRw92VNLlLf5M", "latitude": 21.3840756, "longitude": -157.9517986, "care_type": "Chiropractor"}, {"name": "Kato Stephen S DC", "address": "99-128 Aiea Heights Dr # 101A, Honolulu, HI 96813", "city": "Honolulu", "phone": "+1 808-224-0063", "website": "", "rating": 5.0, "reviews": 3, "place_id": "ChIJlXkrOUpvAHwRKXz9xK1JuSc", "latitude": 21.3797008, "longitude": -157.9304635, "care_type": "Chiropractor"}, {"name": "Nose To Toes Family Chiropractic", "address": "99-128 Aiea Heights Dr STE 109, Aiea, HI 96701", "city": "Aiea", "phone": "+1 808-282-4751", "website": "", "rating": null, "reviews": 0, "place_id": "ChIJbYY_OUpvAHwRWY9R-HK_B0g", "latitude": 21.3797008, "longitude": -157.9304635, "care_type": "Chiropractor"}, {"name": "Ohana Chiropractic Center", "address": "3049 Ualena St #104, Honolulu, HI 96819", "city": "Honolulu", "phone": "+1 808-834-8662", "website": "https://ohanachiropracticcenter.com/", "rating": 5.0, "reviews": 17, "place_id": "ChIJ-0acNqpvAHwRQtyjT8PCtos", "latitude": 21.3333188, "longitude": -157.9094645, "care_type": "Chiropractor"}, {"name": "Body & Mind Spa", "address": "98-1005 Moanalua Rd #235, Aiea, HI 96701", "city": "Aiea", "phone": "+1 808-488-8588", "website": "http://www.bodymind-spa.com/", "rating": 4.5, "reviews": 132, "place_id": "ChIJi9c_tFJvAHwRg9dZr37UNCw", "latitude": 21.3853959, "longitude": -157.9415002, "care_type": "Chiropractor"}, {"name": "Howard D. Tang, DC", "address": "98-1005 Moanalua Rd, Aiea, HI 96701", "city": "Aiea", "phone": "+1 808-488-8588", "website": "http://bodymind-spa.com/CHIROPRACTIC.html", "rating": null, "reviews": 0, "place_id": "ChIJgW3YzHVuAHwRg4MqW8zFnBQ", "latitude": 21.385003, "longitude": -157.940315, "care_type": "Chiropractor"}, {"name": "Ward E. Rider, DC", "address": "98-027 Hekaha St #17, Aiea, HI 96701", "city": "Aiea", "phone": "+1 808-487-2273", "website": "http://tanakaandassociates.com/", "rating": null, "reviews": 0, "place_id": "ChIJBSk9olVvAHwRtHMhnmH29C8", "latitude": 21.3836489, "longitude": -157.9508317, "care_type": "Chiropractor"}, {"name": "DANIEL WEISBECKER, DC LLC", "address": "94-1030 Waipio Uka St Suite 104, Waipahu, HI 96797", "city": "Waipahu", "phone": "+1 808-671-7887", "website": "http://www.waipiochiro.com/", "rating": 4.9, "reviews": 32, "place_id": "ChIJn_oDk2FmAHwR0tGMF-34lak", "latitude": 21.4115579, "longitude": -157.9983377, "care_type": "Chiropractor"}, {"name": "Epik Chiro - SALT Kakaako Chiropractic Office", "address": "675 Auahi St Suite E3, Honolulu, HI 96813", "city": "Honolulu", "phone": "+1 808-888-2608", "website": "http://www.epikchiro.com/", "rating": 5.0, "reviews": 4, "place_id": "ChIJf7MN4AhuAHwRZL97p6OlQf8", "latitude": 21.298563, "longitude": -157.861243, "care_type": "Chiropractor"}, {"name": "Yoza Chiropractic", "address": "98-1085 Moanalua Rd STE 106, Aiea, HI 96701", "city": "Aiea", "phone": "+1 808-486-7501", "website": "", "rating": null, "reviews": 0, "place_id": "ChIJh8LCK0pvAHwRndqqZSm5QJQ", "latitude": 21.3849825, "longitude": -157.9403953, "care_type": "Chiropractor"}, {"name": "Align Studio Chiropractic Nanakuli", "address": "87-2070 Farrington Hwy Suite B4, Waianae, HI 96792", "city": "Waianae", "phone": "+1 808-425-2473", "website": "http://www.alignstudiohi.com/", "rating": 5.0, "reviews": 129, "place_id": "ChIJh089llOJAHwRhZvWGxWoTNw", "latitude": 21.3872717, "longitude": -158.1506627, "care_type": "Chiropractor"}, {"name": "Stay Well Chiropractic", "address": "834 Kilani Ave #202, Wahiawa, HI 96786", "city": "Wahiawa", "phone": "+1 808-295-3216", "website": "http://staywellchiropractichi.com/", "rating": 5.0, "reviews": 58, "place_id": "ChIJ7VVrPbldAHwRlobzj2ZI5y0", "latitude": 21.4993766, "longitude": -158.0270335, "care_type": "Chiropractor"}, {"name": "Kingdom Chiropractic", "address": "834 Kilani Ave #202, Wahiawa, HI 96786", "city": "Wahiawa", "phone": "+1 808-295-3216", "website": "http://kingdomchirohi.com/", "rating": 5.0, "reviews": 65, "place_id": "ChIJRx26mdhdAHwRgD1mSd7XflQ", "latitude": 21.4993766, "longitude": -158.0270335, "care_type": "Chiropractor"}, {"name": "Kapolei Chiropractic Clinic", "address": "555 Farrington Hwy, Kapolei, HI 96707", "city": "Kapolei", "phone": "+1 808-675-6461", "website": "http://kapoleichiropracticclinic.com/", "rating": 4.9, "reviews": 133, "place_id": "ChIJvyFbpK5jAHwRWQf8J99rdH8", "latitude": 21.3377726, "longitude": -158.0785498, "care_type": "Chiropractor"}, {"name": "Island Family Chiropractic", "address": "Holomua Professional Center, 2176 Lauwiliwili St Suite 5A, Kapolei, HI 96707", "city": "Kapolei", "phone": "+1 808-425-7092", "website": "http://www.islandfamilychiro.com/", "rating": 4.7, "reviews": 45, "place_id": "ChIJrZK-5ipjAHwRdWP_iTkT31U", "latitude": 21.3178113, "longitude": -158.0929307, "care_type": "Chiropractor"}, {"name": "Cornerstone Community Chiropractic - Kapolei", "address": "338 Kamokila Blvd #207, Kapolei, HI 96707", "city": "Kapolei", "phone": "+1 808-321-1540", "website": "https://www.cornerstonecommunitychiro.com/", "rating": 4.9, "reviews": 119, "place_id": "ChIJKynvm8JjAHwRd50e6wlPOz4", "latitude": 21.3289214, "longitude": -158.0867359, "care_type": "Chiropractor"}, {"name": "Young Russell L DC", "address": "579 Farrington Hwy # 202, Kapolei, HI 96707", "city": "Kapolei", "phone": "+1 808-674-0090", "website": "", "rating": 4.9, "reviews": 11, "place_id": "ChIJFXoSUOpiAHwRCYpYUaMhZLg", "latitude": 21.3386837, "longitude": -158.0767542, "care_type": "Chiropractor"}, {"name": "CARE Chiropractic, LLC", "address": "840 Kakala St APT 305, Kapolei, HI 96707", "city": "Kapolei", "phone": "+1 808-376-0300", "website": "http://www.mycarechiropractic.com/", "rating": 4.4, "reviews": 7, "place_id": "ChIJVZAiaRZjAHwRMJb3m6ukre8", "latitude": 21.3262039, "longitude": -158.078293, "care_type": "Chiropractor"}, {"name": "Kaneohe Family Chiropractic", "address": "46-001 Kamehameha Hwy, Kaneohe, HI 96744", "city": "Kaneohe", "phone": "+1 808-234-5535", "website": "https://808spine.com/", "rating": 4.9, "reviews": 90, "place_id": "ChIJ2dGa6vtqAHwRNDktGq04rkg", "latitude": 21.4187174, "longitude": -157.8017897, "care_type": "Chiropractor"}, {"name": "Dr. Shayne M. Guthrie, D.C. - Windward Spine and Body Center", "address": "47-388 Hui Iwa St #21, Kaneohe, HI 96744", "city": "Kaneohe", "phone": "+1 808-445-9100", "website": "http://www.drguthriedc.com/", "rating": 5.0, "reviews": 161, "place_id": "ChIJCZ7bEEJqAHwRGaY_zIoYkaU", "latitude": 21.4366721, "longitude": -157.826323, "care_type": "Chiropractor"}, {"name": "Turning Point Chiropractic", "address": "46-047 Kamehameha Hwy, Kaneohe, HI 96744", "city": "Kaneohe", "phone": "+1 808-637-2608", "website": "https://www.tpchiro.com/", "rating": 4.9, "reviews": 308, "place_id": "ChIJf50b-SRrAHwRsk2DgOGhBig", "latitude": 21.4209099, "longitude": -157.8022783, "care_type": "Chiropractor"}, {"name": "Dr Jamie Finley Healing Hands Chiropractic", "address": "45-510 Kamehameha Hwy, Kaneohe, HI 96744", "city": "Kaneohe", "phone": "+1 808-753-1242", "website": "http://www.drjamiefinley.com/", "rating": 5.0, "reviews": 5, "place_id": "ChIJIzQSPw5rAHwRn6qa4wguuPI", "latitude": 21.3961425, "longitude": -157.7982046, "care_type": "Chiropractor"}, {"name": "Bernard A. Abbadessa, DC", "address": "Castle Professional Center, 46-001 Kamehameha Hwy #419B, Kaneohe, HI 96744", "city": "Kaneohe", "phone": "+1 808-234-5535", "website": "", "rating": 5.0, "reviews": 1, "place_id": "ChIJ2dGa6vtqAHwR0AT2M4AQfqM", "latitude": 21.4188499, "longitude": -157.80199, "care_type": "Chiropractor"}, {"name": "Ricky D. Bautista, DC", "address": "45-270 William Henry Rd #205, Kaneohe, HI 96744", "city": "Kaneohe", "phone": "+1 808-235-6677", "website": "", "rating": 5.0, "reviews": 3, "place_id": "ChIJ8dF88vtqAHwR9W1nYq6zgkE", "latitude": 21.4179453, "longitude": -157.8019007, "care_type": "Chiropractor"}, {"name": "Family Chiropractic Center", "address": "45-270 William Henry Rd #205, Kaneohe, HI 96744", "city": "Kaneohe", "phone": "+1 808-235-6677", "website": "http://www.hawaiianhealers.com/", "rating": 4.0, "reviews": 3, "place_id": "ChIJS6CtjPtqAHwR7aefKEfmkhw", "latitude": 21.414779, "longitude": -157.799609, "care_type": "Chiropractor"}, {"name": "Dr. Alexander R. Concepcion, DC", "address": "45-696 Kamehameha Hwy, Kaneohe, HI 96744", "city": "Kaneohe", "phone": "+1 808-235-0729", "website": "", "rating": 5.0, "reviews": 6, "place_id": "ChIJt3ajZANrAHwR2n6TI33oyWc", "latitude": 21.405972, "longitude": -157.7995269, "care_type": "Chiropractor"}, {"name": "Windward Wellness", "address": "970 N Kalaheo Ave Suite C-315, Kailua, HI 96734", "city": "Kailua", "phone": "+1 808-254-5577", "website": "https://www.windwardwellness.com/", "rating": 4.9, "reviews": 160, "place_id": "ChIJL_DuhzkVAHwRXUlMCTgS75s", "latitude": 21.4211017, "longitude": -157.747301, "care_type": "Chiropractor"}, {"name": "Kailua Chiropractic Family Wellness", "address": "354 Uluniu St #404, Kailua, HI 96734", "city": "Kailua", "phone": "+1 808-262-2226", "website": "https://kailuachiropracticfamilywellness.com/", "rating": 4.9, "reviews": 73, "place_id": "ChIJA1GRxN0VAHwRjGegfQOHBnU", "latitude": 21.3969137, "longitude": -157.7433015, "care_type": "Chiropractor"}, {"name": "Hawaii Gonstead Chiropractic", "address": "415 Uluniu St D, Kailua, HI 96734", "city": "Kailua", "phone": "+1 808-321-9034", "website": "https://www.hawaiigonsteadchiro.com/", "rating": 5.0, "reviews": 49, "place_id": "ChIJL64yIMQVAHwRLVPca05YLHU", "latitude": 21.3963481, "longitude": -157.7435986, "care_type": "Chiropractor"}, {"name": "Back To Health", "address": "45-696 Kamehameha Hwy #2, Kaneohe, HI 96744", "city": "Kaneohe", "phone": "+1 808-235-0729", "website": "", "rating": null, "reviews": 0, "place_id": "ChIJEbr1ZANrAHwRKR952O1CifE", "latitude": 21.4060054, "longitude": -157.7996287, "care_type": "Chiropractor"}, {"name": "Eclipse Chiropractic", "address": "32 Kainehe St STE 201, Kailua, HI 96734", "city": "Kailua", "phone": "+1 808-777-9975", "website": "https://www.eclipsechiro.com/", "rating": 5.0, "reviews": 83, "place_id": "ChIJx2_ni9trAHwRAmXOPz5y_a0", "latitude": 21.3943823, "longitude": -157.7457378, "care_type": "Chiropractor"}, {"name": "Dr. Mikey Provost (Doctor of Chiropractic)", "address": "Hawaii Gonstead Chiropractic, 415 Uluniu St D, Kailua, HI 96734", "city": "Kailua", "phone": "+1 808-895-5262", "website": "http://hgc.janeapp.com/", "rating": 5.0, "reviews": 45, "place_id": "ChIJw2iYpmIVAHwREcJMrq9jv2M", "latitude": 21.3961135, "longitude": -157.743589, "care_type": "Chiropractor"}, {"name": "Cornerstone Community Chiropractic - Kailua", "address": "600 Kailua Rd Ste 124, Kailua, HI 96734", "city": "Kailua", "phone": "+1 808-636-6996", "website": "https://www.cornerstonecommunitychiro.com/", "rating": 5.0, "reviews": 67, "place_id": "ChIJ1cOIol0VAHwR4t5HDVHb74E", "latitude": 21.3940057, "longitude": -157.7403833, "care_type": "Chiropractor"}, {"name": "Hawaii Sports Chiropractic, LLC", "address": "320 Uluniu St Suite #2, Kailua, HI 96734", "city": "Kailua", "phone": "+1 808-295-9939", "website": "http://www.hisportschiropractic.com/", "rating": 5.0, "reviews": 7, "place_id": "ChIJLw_Yki4VAHwRCOFnL25TK64", "latitude": 21.3972604, "longitude": -157.7425374, "care_type": "Chiropractor"}, {"name": "Dr. Shayne M. Guthrie, D.C. - Kailua Chiropractic", "address": "9 Maluniu Ave, Kailua, HI 96734", "city": "Kailua", "phone": "+1 808-445-9100", "website": "http://www.drguthriedc.com/", "rating": 4.8, "reviews": 31, "place_id": "ChIJSabLNtwUAHwRc4mLpaZMffI", "latitude": 21.3962741, "longitude": -157.7412717, "care_type": "Chiropractor"}, {"name": "Kailua Wellness Center", "address": "228 Kuulei Rd, Kailua, HI 96734", "city": "Kailua", "phone": "+1 808-261-8181", "website": "http://www.kailuawellnesscenter.com/", "rating": 4.9, "reviews": 303, "place_id": "ChIJNfxLE9wUAHwRlYXPegkOgI4", "latitude": 21.396882, "longitude": -157.7401687, "care_type": "Chiropractor"}, {"name": "Sauer Chris DC", "address": "46-001 Kamehameha Hwy # 416, Kaneohe, HI 96744", "city": "Kaneohe", "phone": "+1 808-234-1371", "website": "", "rating": null, "reviews": 0, "place_id": "ChIJ2dGa6vtqAHwRZcf2V777WTM", "latitude": 21.4187688, "longitude": -157.8018269, "care_type": "Chiropractor"}, {"name": "Koolau Chiro", "address": "45-1048 Kamehameha Hwy #203, Kaneohe, HI 96744", "city": "Kaneohe", "phone": "+1 808-247-4842", "website": "", "rating": null, "reviews": 0, "place_id": "ChIJX65RafxqAHwRZ-37mI-C1M8", "latitude": 21.4160368, "longitude": -157.8014265, "care_type": "Chiropractor"}, {"name": "Turning Point Chiropractic", "address": "95-390 Kuahelani Ave #3e, Mililani, HI 96789", "city": "Mililani", "phone": "+1 808-637-2608", "website": "http://www.tpchiro.com/", "rating": 4.9, "reviews": 515, "place_id": "ChIJtWShSx5nAHwRIG3TFypZqQ0", "latitude": 21.4582212, "longitude": -158.0149175, "care_type": "Chiropractor"}, {"name": "Sol Chiropractic - Kihei Chiropractor Maui", "address": "30 E Lipoa St, Kihei, HI 96753", "city": "Kihei", "phone": "+1 808-270-2530", "website": "http://www.solchiro.com/", "rating": 5.0, "reviews": 89, "place_id": "ChIJYQtIZ2rQVHkRLmXK5oIpn2U", "latitude": 20.7475304, "longitude": -156.4543517, "care_type": "Chiropractor"}, {"name": "Maui Kihei Pacific Chiropractic - Kihei Chiropractor Dr John Avallone & Therapeutic Massage", "address": "310 Ohukai Rd STE 312, Kihei, HI 96753", "city": "Kihei", "phone": "+1 808-871-7745", "website": "https://kiheichiropractor.com/", "rating": 5.0, "reviews": 271, "place_id": "ChIJZ8iFh7XRVHkR6M5CkgqeVj0", "latitude": 20.7741395, "longitude": -156.450991, "care_type": "Chiropractor"}, {"name": "Maui Chiropractic", "address": "1325 S Kihei Rd #102A, Kihei, HI 96753", "city": "Kihei", "phone": "+1 808-875-0073", "website": "http://www.ohanahalewellness.com/", "rating": 5.0, "reviews": 10, "place_id": "ChIJsf2saGrQVHkR-PVM_7NjPqI", "latitude": 20.7480584, "longitude": -156.455073, "care_type": "Chiropractor"}, {"name": "Wasserman Chiropractic Maui -Chiropractor Kihei", "address": "95 E Lipoa St A206, Kihei, HI 96753", "city": "Kihei", "phone": "+1 808-283-0097", "website": "http://www.wassermanchiro.com/", "rating": 5.0, "reviews": 30, "place_id": "ChIJbyB4ZmrQVHkR7FAsDn4OzHM", "latitude": 20.7485282, "longitude": -156.4527043, "care_type": "Chiropractor"}, {"name": "Berry Ohana Chiropractic", "address": "1280 S Kihei Rd Suite 121, Kihei, HI 96753", "city": "Kihei", "phone": "+1 808-727-2121", "website": "http://www.berryohanachiropractic.com/", "rating": 5.0, "reviews": 47, "place_id": "ChIJoRmEq_rRVHkRFMtXlUi8Z0g", "latitude": 20.7489365, "longitude": -156.4566632, "care_type": "Chiropractor"}, {"name": "Advanced Chiropractic Applied Kinesiology", "address": "2439 S Kihei Rd B-202, Kihei, HI 96753", "city": "Kihei", "phone": "+1 808-875-9355", "website": "http://www.advancedchiropracticmaui.com/", "rating": 5.0, "reviews": 28, "place_id": "ChIJb0Y_3aPaVHkRGUXnHYq8K5M", "latitude": 20.7194335, "longitude": -156.446066, "care_type": "Chiropractor"}, {"name": "South Maui Sports Chiropractic", "address": "2395 S Kihei Rd #202, Kihei, HI 96753", "city": "Kihei", "phone": "+1 808-875-4357", "website": "https://southmauichiropractic.com/", "rating": 4.9, "reviews": 23, "place_id": "ChIJpxB_YKHaVHkRGCikDGMrzEE", "latitude": 20.7200017, "longitude": -156.4463548, "care_type": "Chiropractor"}, {"name": "Dr. William Latter, D.C.", "address": "2439 S Kihei Rd B202, Kihei, HI 96753", "city": "Kihei", "phone": "+1 808-875-9355", "website": "http://www.advancedchiropracticmaui.com/", "rating": 4.6, "reviews": 29, "place_id": "ChIJb0Y_3aPaVHkRwRyWtDXERks", "latitude": 20.7191171, "longitude": -156.4462128, "care_type": "Chiropractor"}, {"name": "Fortune Chiropractic", "address": "411 Huku Lii Pl #302, Kihei, HI 96753", "city": "Kihei", "phone": "+1 808-874-0333", "website": "http://fortunechiropractic.com/%3Futm_source%3Dgmb%26utm_medium%3Dreferral", "rating": 4.8, "reviews": 28, "place_id": "ChIJOQfyCmrQVHkRRl--PqsOYAs", "latitude": 20.7720123, "longitude": -156.4515685, "care_type": "Chiropractor"}, {"name": "Honua Chiropractic", "address": "95E E Lipoa St Suite B, Kihei, HI 96753", "city": "Kihei", "phone": "", "website": "http://honuachiropractic.com/", "rating": 5.0, "reviews": 5, "place_id": "ChIJFVKWCIgrZWMR7zuBzdM2hVU", "latitude": 20.7480626, "longitude": -156.4523287, "care_type": "Chiropractor"}, {"name": "Brian Bodyworks and Chiropractic: Dr. Brian Chenes, DC", "address": "95 E Lipoa St Suite A-204, Kihei, HI 96753", "city": "Kihei", "phone": "+1 808-633-6223", "website": "http://www.brianbodyworks.com/", "rating": 5.0, "reviews": 22, "place_id": "ChIJ_5OdTWrQVHkR_3L77pmUgh8", "latitude": 20.748479, "longitude": -156.452507, "care_type": "Chiropractor"}, {"name": "Shana Amouyal DC", "address": "95 E Lipoa St A206, Kihei, HI 96753", "city": "Kihei", "phone": "+1 808-283-0097", "website": "https://www.wassermanchiro.com/", "rating": 5.0, "reviews": 1, "place_id": "ChIJc4U0XqHaVHkR3ZQ_ppaeaLE", "latitude": 20.748578, "longitude": -156.4525786, "care_type": "Chiropractor"}, {"name": "Turning Point Chiropractic", "address": "91-3575 Kauluakoko St #3006, Ewa Beach, HI 96706", "city": "Ewa Beach", "phone": "+1 808-637-2608", "website": "https://tpchiro.com/", "rating": 5.0, "reviews": 305, "place_id": "ChIJw8p7d1JlAHwRUd_wXDDwSrI", "latitude": 21.3599179, "longitude": -158.0479202, "care_type": "Chiropractor"}, {"name": "Turning Point Chiropractic", "address": "91-1001 Kaimalie St #106, Ewa Beach, HI 96706", "city": "Ewa Beach", "phone": "+1 808-637-2608", "website": "http://www.tpchiro.com/", "rating": 5.0, "reviews": 648, "place_id": "ChIJKxBCUMVkAHwR4RQSgi_V-Xc", "latitude": 21.318762, "longitude": -158.0156808, "care_type": "Chiropractor"}, {"name": "Cornerstone Community Chiropractic - Ewa Beach", "address": "91-1123 Keaunui Dr #228, Ewa Beach, HI 96706", "city": "Ewa Beach", "phone": "+1 808-321-0253", "website": "https://www.cornerstonecommunitychiro.com/ewa-beach/", "rating": 4.9, "reviews": 229, "place_id": "ChIJu6LERsBkAHwRE9Fwx-FTWYY", "latitude": 21.3281938, "longitude": -158.0205693, "care_type": "Chiropractor"}, {"name": "Align Studio", "address": "91-960 Iwikuamoo St #1008, Ewa Beach, HI 96706", "city": "Ewa Beach", "phone": "+1 808-445-5477", "website": "https://www.alignstudiohi.com/", "rating": 5.0, "reviews": 20, "place_id": "ChIJ7VILucdlAHwRFdbBRrzZDPU", "latitude": 21.3527323, "longitude": -158.0374704, "care_type": "Chiropractor"}, {"name": "Turning Point Chiropractic", "address": "94-307 Farrington Hwy Ste B05, Waipahu, HI 96797", "city": "Waipahu", "phone": "+1 808-637-2608", "website": "https://www.tpchiro.com/", "rating": 4.6, "reviews": 10, "place_id": "ChIJdTM2xIZlAHwR8MZpQHdC638", "latitude": 21.380048, "longitude": -158.0174295, "care_type": "Chiropractor"}, {"name": "Agape Chiropractic", "address": "94-333 Waipahu Depot St, Waipahu, HI 96797", "city": "Waipahu", "phone": "+1 808-291-6934", "website": "https://www.agapechiropracticoahu.com/", "rating": 5.0, "reviews": 27, "place_id": "ChIJ--b46lhlAHwRnB1VLv9TYus", "latitude": 21.3852091, "longitude": -158.0066669, "care_type": "Chiropractor"}, {"name": "Waipahu Chiropractic Clinic", "address": "94-307 Farrington Hwy b05, Waipahu, HI 96797", "city": "Waipahu", "phone": "+1 808-671-2685", "website": "https://waipahuchiro.net/", "rating": 4.7, "reviews": 31, "place_id": "ChIJW6s-ARVkAHwRJ1yXxvvJULc", "latitude": 21.3801902, "longitude": -158.0179718, "care_type": "Chiropractor"}, {"name": "ABC CHIROPRACTIC CORP.", "address": "94-216 Farrington Hwy #103, Waipahu, HI 96797", "city": "Waipahu", "phone": "+1 808-676-1717", "website": "https://www.abcchiropracticcorp.com/", "rating": 4.6, "reviews": 10, "place_id": "ChIJl0WzETxkAHwRjgVmgM7cB3E", "latitude": 21.379613, "longitude": -158.0204139, "care_type": "Chiropractor"}, {"name": "Tiffany Nguyen", "address": "590 Farrington Hwy Unit 521, Kapolei, HI 96707", "city": "Kapolei", "phone": "+1 808-376-0300", "website": "https://www.mycarechiropractic.com/about-us", "rating": null, "reviews": 0, "place_id": "ChIJq6qqRhZjAHwRxFqqn6xhPAg", "latitude": 21.3390405, "longitude": -158.0795629, "care_type": "Chiropractor"}, {"name": "Nowicki Chris DC", "address": "803 Kamehameha Hwy #309, Pearl City, HI 96782", "city": "Pearl City", "phone": "+1 808-456-5553", "website": "", "rating": 5.0, "reviews": 1, "place_id": "ChIJW2xJGwlmAHwRnT2iZ6_Hnn4", "latitude": 21.392719, "longitude": -157.9678496, "care_type": "Chiropractor"}, {"name": "Cassandra Peterson, DC, LLC", "address": "98-1277 Ka\u02bbahumanu St, Aiea, HI 96701", "city": "Aiea", "phone": "+1 808-388-7682", "website": "", "rating": null, "reviews": 0, "place_id": "ChIJNT1DfKpoAHwRcW9Qi10_VKg", "latitude": 21.3902503, "longitude": -157.951905, "care_type": "Chiropractor"}, {"name": "Anapuni Coleman, D.C.", "address": "200 N Vineyard Blvd #B257, Honolulu, HI 96817", "city": "Honolulu", "phone": "+1 808-531-2266", "website": "http://dranapuni.com/", "rating": 4.7, "reviews": 0, "place_id": "ChIJWzUtAXZuAHwRKfsTYm5XEpQ", "latitude": 21.3172613, "longitude": -157.8595281, "care_type": "Chiropractor"}, {"name": "Kathleen D. Limbaga, DC", "address": "98-1258 Ka\u02bbahumanu St STE 110, Pearl City, HI 96782", "city": "Pearl City", "phone": "+1 808-487-2273", "website": "http://tanakaandassociates.com/", "rating": null, "reviews": 0, "place_id": "ChIJ87O-TgBmAHwRyalQODENEF4", "latitude": 21.3895387, "longitude": -157.9542697, "care_type": "Chiropractor"}, {"name": "dr lindsey Niimoto", "address": "98-211 Pali Momi St #506, Aiea, HI 96701", "city": "Aiea", "phone": "", "website": "", "rating": null, "reviews": 0, "place_id": "ChIJ0_-XA01vAHwRixDmhSKO6yk", "latitude": 21.38286, "longitude": -157.9377385, "care_type": "Chiropractor"}, {"name": "Dr. Brenden Kim", "address": "98-027 Hekaha St #17, Aiea, HI 96701", "city": "Aiea", "phone": "+1 808-487-2273", "website": "", "rating": null, "reviews": 0, "place_id": "ChIJGV59olVvAHwRae1UluKXi0Y", "latitude": 21.3836489, "longitude": -157.9508317, "care_type": "Chiropractor"}, {"name": "Ammon Zukeran LLC", "address": "99-128 Aiea Heights Dr STE 109, Aiea, HI 96701", "city": "Aiea", "phone": "+1 808-445-3427", "website": "http://www.hawaiielitechiropractic.com/", "rating": null, "reviews": 0, "place_id": "ChIJbYY_OUpvAHwR0t0A5cZ5VBs", "latitude": 21.3797008, "longitude": -157.9304635, "care_type": "Chiropractor"}, {"name": "Kailua Spine Center", "address": "1051 Keolu Dr Suite 106, Kailua, HI 96734", "city": "Kailua", "phone": "+1 808-400-2423", "website": "https://www.kailuaspinecenter.com/", "rating": 4.6, "reviews": 21, "place_id": "ChIJR-R5TOkVAHwRY96YPPkvZHM", "latitude": 21.3776455, "longitude": -157.7282214, "care_type": "Chiropractor"}, {"name": "WildBird Chiropractic & Wellness", "address": "354 Uluniu St #100, Kailua, HI 96734", "city": "Kailua", "phone": "+1 808-261-4040", "website": "http://www.wildbirdchiro.com/", "rating": 5.0, "reviews": 53, "place_id": "ChIJ_0_bKjEVAHwRpoX43oUGwZg", "latitude": 21.3968533, "longitude": -157.7432959, "care_type": "Chiropractor"}, {"name": "Kailua Oahu Chiropractic", "address": "418 Kuulei Rd, Kailua, HI 96734", "city": "Kailua", "phone": "", "website": "", "rating": 3.7, "reviews": 3, "place_id": "ChIJ2dGa6vtqAHwRVbUQLsle2lU", "latitude": 21.3950407, "longitude": -157.7430863, "care_type": "Chiropractor"}, {"name": "Move Right Chiropractic (Kailua)", "address": "9 Maluniu Ave, Kailua, HI 96734", "city": "Kailua", "phone": "+1 808-913-0630", "website": "", "rating": 5.0, "reviews": 2, "place_id": "ChIJUfp0mLgVAHwRF38MzEBWiA0", "latitude": 21.3962161, "longitude": -157.7412468, "care_type": "Chiropractor"}, {"name": "Dr. Emily Marriott", "address": "1005 Keolu Dr, Kailua, HI 96734", "city": "Kailua", "phone": "+1 563-209-2953", "website": "", "rating": 5.0, "reviews": 13, "place_id": "ChIJuXy2vHMVAHwRjwCf_LTCLqc", "latitude": 21.3789224, "longitude": -157.7281838, "care_type": "Chiropractor"}, {"name": "Dr. Susan Corbin", "address": "1005 Keolu Dr, Kailua, HI 96734", "city": "Kailua", "phone": "+1 808-563-0998", "website": "", "rating": 5.0, "reviews": 2, "place_id": "ChIJAQCwddwUAHwRL-FjOPe34k0", "latitude": 21.3789224, "longitude": -157.7281838, "care_type": "Chiropractor"}, {"name": "Chiropractors Hawaii", "address": "9 Maluniu Ave Suite 2, Kailua, HI 96734", "city": "Kailua", "phone": "+1 808-753-1242", "website": "", "rating": null, "reviews": 0, "place_id": "ChIJF-MdN9wUAHwRES-YBNM_uOw", "latitude": 21.3963364, "longitude": -157.7412917, "care_type": "Chiropractor"}, {"name": "Turning Point Chiropractic", "address": "94-1221 Ka Uka Blvd b205, Waipahu, HI 96797", "city": "Waipahu", "phone": "+1 808-637-2608", "website": "http://www.tpchiro.com/", "rating": 5.0, "reviews": 503, "place_id": "ChIJYeGoSvZmAHwRMgZHo_JbCNk", "latitude": 21.426379, "longitude": -158.0013642, "care_type": "Chiropractor"}, {"name": "George E. Raquel, DC", "address": "94-216 Farrington Hwy, Waipahu, HI 96797", "city": "Waipahu", "phone": "+1 808-676-1717", "website": "", "rating": 4.7, "reviews": 14, "place_id": "ChIJe6peKzxkAHwRESMQoVDaBXc", "latitude": 21.3802435, "longitude": -158.021109, "care_type": "Chiropractor"}, {"name": "Dr. Shayne M. Guthrie, D.C. - Leeward Chiropractic", "address": "94-137 Leoleo St, Waipahu, HI 96797", "city": "Waipahu", "phone": "+1 808-445-9100", "website": "http://www.drguthriedc.com/", "rating": 5.0, "reviews": 13, "place_id": "ChIJH9LXfkhlAHwR7u1q7xX2KPE", "latitude": 21.3763582, "longitude": -158.019638, "care_type": "Chiropractor"}, {"name": "Spencer Chiropractic", "address": "94-1193 Heahea St, Waipahu, HI 96797", "city": "Waipahu", "phone": "+1 808-678-1948", "website": "", "rating": 5.0, "reviews": 2, "place_id": "ChIJvZ8EPp9mAHwRiJb3HSAXsqM", "latitude": 21.4010744, "longitude": -158.0220683, "care_type": "Chiropractor"}, {"name": "Studio Chiropractic: Dr. Kourtney Knox and Dr. Mallory Josh", "address": "12 Kiopa'a St #201, Makawao, HI 96768", "city": "Makawao", "phone": "+1 808-575-5483", "website": "http://www.studiohealthmaui.com/", "rating": 5.0, "reviews": 11, "place_id": "ChIJVZOMj5k0q34RSiOad7FEj1c", "latitude": 20.8216226, "longitude": -156.329531, "care_type": "Chiropractor"}, {"name": "Motiv Integrative Health", "address": "1135 Makawao Ave #101, Makawao, HI 96768", "city": "Makawao", "phone": "+1 808-303-1190", "website": "https://www.motivintegrativehealth.com/", "rating": 5.0, "reviews": 5, "place_id": "ChIJi0rlBBXLVHkRzpjNS09HT00", "latitude": 20.8530151, "longitude": -156.3117121, "care_type": "Chiropractor"}, {"name": "Upcountry Aloha Family Chiropractic", "address": "7 Aewa Pl #12, Makawao, HI 96768", "city": "Makawao", "phone": "+1 808-572-5599", "website": "http://www.upcountrychiropractic.com/", "rating": 4.2, "reviews": 5, "place_id": "ChIJOWvDDXnMVHkRiLC_Kp2osl4", "latitude": 20.8359215, "longitude": -156.3361679, "care_type": "Chiropractor"}, {"name": "Dr. Haley Ann Nakamura DC- Applied Kinesiology", "address": "8 Kiopaa St Unit 103, Makawao, HI 96768", "city": "Makawao", "phone": "+1 808-344-0986", "website": "https://drhaleynakamura.com/", "rating": 5.0, "reviews": 40, "place_id": "ChIJaWkh2x-gOAkR3oVxQNUKlT0", "latitude": 20.821339, "longitude": -156.329367, "care_type": "Chiropractor"}, {"name": "Dr. Noah Lebowitz DC - Applied Kinesiologist", "address": "8 Kiopa'a Street Ste #103, Makawao, HI 96768", "city": "Makawao", "phone": "+1 808-446-3169", "website": "http://www.drnoahlebowitz.com/", "rating": 5.0, "reviews": 21, "place_id": "ChIJA5S_H_R1K4cRxg4y24pYhuc", "latitude": 20.821339, "longitude": -156.329367, "care_type": "Chiropractor"}, {"name": "Pacific Islands Health Center, LLC", "address": "81 Makawao Ave # 202, Makawao, HI 96768", "city": "Makawao", "phone": "+1 808-444-0788", "website": "http://www.pacificislandshc.com/", "rating": 5.0, "reviews": 8, "place_id": "ChIJryvp6VXNVHkRsi3veiPzGTE", "latitude": 20.8355665, "longitude": -156.3323673, "care_type": "Chiropractor"}, {"name": "Abundant Life Chiropractic", "address": "1043 Makawao Ave Ste 207C, Makawao, HI 96768", "city": "Makawao", "phone": "+1 808-303-7209", "website": "https://abundantlifemaui.com/", "rating": 5.0, "reviews": 21, "place_id": "ChIJ_fu7wArI_UsRQSKtf6Lxpgo", "latitude": 20.8517935, "longitude": -156.314026, "care_type": "Chiropractor"}, {"name": "Campbell Lois DC", "address": "1150 Nakui St, Makawao, HI 96768", "city": "Makawao", "phone": "+1 808-572-0969", "website": "", "rating": 5.0, "reviews": 3, "place_id": "ChIJESPZT2zLVHkRNv0Zt4teuis", "latitude": 20.854726, "longitude": -156.311855, "care_type": "Chiropractor"}, {"name": "Pickford Beth DC", "address": "1135 Makawao Ave, Makawao, HI 96768", "city": "Makawao", "phone": "+1 808-572-6586", "website": "http://www.hawaiichiropractichome.com/", "rating": 5.0, "reviews": 3, "place_id": "ChIJkX8zm3jMVHkRQX1PvOsV7MQ", "latitude": 20.8530106, "longitude": -156.3117159, "care_type": "Chiropractor"}, {"name": "Wruck Eric DC", "address": "1135 Makawao Ave # 202, Makawao, HI 96768", "city": "Makawao", "phone": "+1 808-572-6223", "website": "", "rating": 4.0, "reviews": 4, "place_id": "ChIJp-EQo23LVHkR_68qVl2Xt30", "latitude": 20.8530197, "longitude": -156.3117082, "care_type": "Chiropractor"}, {"name": "Rosen Meri DC", "address": "81 Makawao Ave STE 204, Makawao, HI 96768", "city": "Makawao", "phone": "+1 808-573-4776", "website": "http://merirosenchiro.com/", "rating": null, "reviews": 0, "place_id": "ChIJkX8zm3jMVHkR0oZRTcwcgKg", "latitude": 20.8355665, "longitude": -156.3323673, "care_type": "Chiropractor"}, {"name": "Dr. Michael Pierner", "address": "7 Aewa Pl #12, Makawao, HI 96768", "city": "Makawao", "phone": "+1 808-572-5599", "website": "https://southmauichiropractic.biz/", "rating": 5.0, "reviews": 3, "place_id": "ChIJVVWhDXnMVHkRU5nGrcm6kak", "latitude": 20.8359136, "longitude": -156.3361794, "care_type": "Chiropractor"}, {"name": "Dr. Richard Walker", "address": "30 Kupaoa St Unit 207, Makawao, HI 96768", "city": "Makawao", "phone": "+1 303-877-3657", "website": "", "rating": null, "reviews": 0, "place_id": "ChIJSfJQaj_QVHkRoAe1fWfOhXM", "latitude": 20.8218779, "longitude": -156.3305226, "care_type": "Chiropractor"}, {"name": "Janssen Nikki DC", "address": "7 Aewa Pl #12, Makawao, HI 96768", "city": "Makawao", "phone": "+1 808-572-5599", "website": "", "rating": null, "reviews": 0, "place_id": "ChIJOWvDDXnMVHkRfHC7ALck69Y", "latitude": 20.8359409, "longitude": -156.3361679, "care_type": "Chiropractor"}, {"name": "Ryan Gary J DC", "address": "55 Makawao Ave, Makawao, HI 96768", "city": "Makawao", "phone": "", "website": "", "rating": null, "reviews": 0, "place_id": "ChIJ52JUfXjMVHkRTf7TgnuTrP8", "latitude": 20.8349685, "longitude": -156.3327563, "care_type": "Chiropractor"}, {"name": "Honolulu Chiropractic Pain Relief Center", "address": "1314 S King St STE 1655, Honolulu, HI 96814", "city": "Honolulu", "phone": "+1 808-924-7246", "website": "http://www.honolulupainreliefcenter.com/", "rating": 4.9, "reviews": 429, "place_id": "ChIJhQlMJeltAHwRUTi_O89yPG8", "latitude": 21.2989655, "longitude": -157.8411149, "care_type": "Chiropractor"}, {"name": "Ho'ola Chiropractic", "address": "1357 Kapiolani Blvd Suite 1007, Honolulu, HI 96814", "city": "Honolulu", "phone": "+1 808-772-8284", "website": "https://www.hoolachiropractic.com/%3Futm_source%3Dgoogle%26utm_medium%3Dorganic%26utm_campaign%3Dgbp-website-link", "rating": 5.0, "reviews": 620, "place_id": "ChIJeaFC_u9tAHwRStD9ZfFggAs", "latitude": 21.2935565, "longitude": -157.8447776, "care_type": "Chiropractor"}, {"name": "Hawaii's Family Chiro Center", "address": "3221 Waialae Ave #330i, Honolulu, HI 96816", "city": "Honolulu", "phone": "+1 808-732-4626", "website": "", "rating": 4.9, "reviews": 108, "place_id": "ChIJjUEHanhtAHwR7bTFyq4Bnlc", "latitude": 21.2868578, "longitude": -157.80768, "care_type": "Chiropractor"}, {"name": "Hawaii Elite Chiropractic - Honolulu", "address": "4747 Kilauea Ave Ste 107, Honolulu, HI 96816", "city": "Honolulu", "phone": "+1 808-732-2244", "website": "https://www.hawaiielitechiropractic.com/", "rating": 5.0, "reviews": 254, "place_id": "ChIJjyWAOl5tAHwR7vk1wUFREcg", "latitude": 21.2776603, "longitude": -157.7842559, "care_type": "Chiropractor"}, {"name": "Ke'ale Chiropractic", "address": "1314 S King St STE 425b, Honolulu, HI 96814", "city": "Honolulu", "phone": "+1 808-763-8387", "website": "http://kealechiropractic.com/", "rating": 5.0, "reviews": 120, "place_id": "ChIJS-uVIhltAHwR0nnzjHW6UqE", "latitude": 21.29936, "longitude": -157.8411814, "care_type": "Chiropractor"}, {"name": "Island Family Chiropractic", "address": "Koko Marina Center Building E, 7192 Kalaniana\u02bbole Hwy e206, Honolulu, HI 96825", "city": "Honolulu", "phone": "+1 808-797-8094", "website": "http://www.islandfamilychiro.com/", "rating": 4.9, "reviews": 64, "place_id": "ChIJCxvMTmQSAHwRkkfpuG3gdyk", "latitude": 21.278029, "longitude": -157.705461, "care_type": "Chiropractor"}, {"name": "Don Harada DC", "address": "1580 Makaloa St # 798, Honolulu, HI 96814", "city": "Honolulu", "phone": "+1 808-947-7575", "website": "", "rating": 5.0, "reviews": 10, "place_id": "ChIJsxCoHe5tAHwRVQfv2vAIFKM", "latitude": 21.293025, "longitude": -157.8397635, "care_type": "Chiropractor"}, {"name": "Haleiwa Chiropractic Clinic", "address": "66-560 Kamehameha Hwy # 5, Haleiwa, HI 96712", "city": "Haleiwa", "phone": "+1 808-637-9752", "website": "", "rating": 5.0, "reviews": 1, "place_id": "ChIJAfnjkC9fAHwRKqyvDLJzPdg", "latitude": 21.5784624, "longitude": -158.1052251, "care_type": "Chiropractor"}, {"name": "Randy R. Collins, D.C., Inc", "address": "2810 Paa St Ste 4, Honolulu, HI 96819", "city": "Honolulu", "phone": "+1 808-839-7474", "website": "http://www.collinschiropractichi.com/", "rating": 4.5, "reviews": 2, "place_id": "ChIJ_da4LOVuAHwRS5QTq8c83j0", "latitude": 21.3457659, "longitude": -157.8952623, "care_type": "Chiropractor"}, {"name": "Action Chiropractic LLC", "address": "1600 Kapiolani Blvd # 1660, Honolulu, HI 96814", "city": "Honolulu", "phone": "+1 808-944-1117", "website": "https://actionchirohawaii.com/", "rating": 4.7, "reviews": 15, "place_id": "ChIJcw1l-PFtAHwRDRxscYkH6js", "latitude": 21.2920734, "longitude": -157.8391749, "care_type": "Chiropractor"}, {"name": "North Shore Family Chiropractic", "address": "66-590 Kamehameha Hwy #1b, Haleiwa, HI 96712", "city": "Haleiwa", "phone": "+1 808-291-2542", "website": "http://northshorefamilychiro.com/", "rating": 5.0, "reviews": 26, "place_id": "ChIJVU1VuxBfAHwRAEamx6rZk0Y", "latitude": 21.5777393, "longitude": -158.1053145, "care_type": "Chiropractor"}, {"name": "Global Health Chiropractic", "address": "Ninth Floor, 677 Ala Moana Blvd #914, Honolulu, HI 96813", "city": "Honolulu", "phone": "+1 808-521-9686", "website": "http://www.globalhealthchiropractic.com/", "rating": 5.0, "reviews": 134, "place_id": "ChIJ35qbxghuAHwRqPzP9-04j6Q", "latitude": 21.2977963, "longitude": -157.8623749, "care_type": "Chiropractor"}, {"name": "Katsura Stewart M DC", "address": "1 Jarrett White Rd, TRIPLER AMC, HI 96859", "city": "TRIPLER AMC", "phone": "+1 808-433-2460", "website": "", "rating": null, "reviews": 0, "place_id": "ChIJ3xTzLMNuAHwRn_bPZbSxx-I", "latitude": 21.3597645, "longitude": -157.8900314, "care_type": "Chiropractor"}, {"name": "Brenden James Kim", "address": "98-027 Hekaha St #17, Aiea, HI 96701", "city": "Aiea", "phone": "+1 808-487-2273", "website": "", "rating": null, "reviews": 0, "place_id": "ChIJGV59olVvAHwRXSFKvrMlDhY", "latitude": 21.3836489, "longitude": -157.9508317, "care_type": "Chiropractor"}, {"name": "Integrity Chiropractic of Hawaii LLC", "address": "770 Kapiolani Blvd Suite 601, Honolulu, HI 96813", "city": "Honolulu", "phone": "+1 808-593-9992", "website": "https://integritychirohawaii.com/", "rating": 5.0, "reviews": 3, "place_id": "ChIJyfJjoqdtAHwRUu9T4RSgMiY", "latitude": 21.30069, "longitude": -157.8536718, "care_type": "Chiropractor"}, {"name": "Manoa Chiropractic and Therapeutic Massage", "address": "2851 E Manoa Rd #1-205, Honolulu, HI 96822", "city": "Honolulu", "phone": "+1 808-988-6113", "website": "http://www.manoachiropracticandmassage.com/", "rating": 4.8, "reviews": 31, "place_id": "ChIJ7coplKdtAHwRLX-Vwpq2_Tg", "latitude": 21.309405, "longitude": -157.810455, "care_type": "Chiropractor"}, {"name": "Aloha Chiropractic", "address": "2930 E Manoa Rd, Honolulu, HI 96822", "city": "Honolulu", "phone": "+1 808-988-5532", "website": "https://drchadsato.com/", "rating": 5.0, "reviews": 4, "place_id": "ChIJAw6F8adtAHwRPJ6cJBRS6KM", "latitude": 21.3101819, "longitude": -157.809905, "care_type": "Chiropractor"}, {"name": "Taira Chiropractic", "address": "2525 S King St Ste 304, Honolulu, HI 96826", "city": "Honolulu", "phone": "+1 808-948-8722", "website": "http://www.tairachiropractic.com/", "rating": 4.5, "reviews": 6, "place_id": "ChIJAQCQRpBtAHwR5Qdll6ZURl4", "latitude": 21.2921792, "longitude": -157.8232297, "care_type": "Chiropractor"}, {"name": "Cornerstone Community Chiropractic", "address": "512 Keawe St, Honolulu, HI 96813", "city": "Honolulu", "phone": "+1 808-286-4287", "website": "https://www.cornerstonecommunitychiro.com/", "rating": 4.9, "reviews": 84, "place_id": "ChIJ61QY7E5vAHwRpdo5IewTwAA", "latitude": 21.3001987, "longitude": -157.8598227, "care_type": "Chiropractor"}, {"name": "Smith Family Wellness", "address": "2440 K\u016bhi\u014d Ave., Honolulu, HI 96815", "city": "Honolulu", "phone": "+1 808-922-3244", "website": "https://www.smithfamilywellness.com/", "rating": 4.5, "reviews": 65, "place_id": "ChIJBY-_o3dyAHwRtixgj9we9g0", "latitude": 21.276765, "longitude": -157.8229979, "care_type": "Chiropractor"}, {"name": "Piianaia Ohana Chiropractic", "address": "3221 Waialae Ave Unit 330, Honolulu, HI 96816", "city": "Honolulu", "phone": "+1 808-735-8749", "website": "", "rating": 4.8, "reviews": 20, "place_id": "ChIJ3SVxQHhtAHwR8I0zqlPgnSQ", "latitude": 21.2868798, "longitude": -157.8076717, "care_type": "Chiropractor"}, {"name": "North Shore Chiropractic", "address": "59-168 Kamehameha Hwy, Haleiwa, HI 96712", "city": "Haleiwa", "phone": "+1 808-638-8740", "website": "http://www.northshorehawaiichiropractic.com/", "rating": 5.0, "reviews": 2, "place_id": "ChIJ2eHpiBlRAHwRTrBjg5nmbeA", "latitude": 21.671258, "longitude": -158.041113, "care_type": "Chiropractor"}, {"name": "Lihue Chiropractic Center", "address": "4374 Kukui Grove St #104, Lihue, HI 96766", "city": "Lihue", "phone": "+1 808-465-2288", "website": "https://lihuechiropracticcenter.com/", "rating": 5.0, "reviews": 12, "place_id": "ChIJLYsg2g8fB3wRkGp4v-z3ZvY", "latitude": 21.9722151, "longitude": -159.3767637, "care_type": "Chiropractor"}, {"name": "Kauai Chiropractic and Wellness Center", "address": "3092 Akahi St, Lihue, HI 96766", "city": "Lihue", "phone": "+1 808-246-8858", "website": "http://kauaichiropractic.weebly.com/", "rating": 5.0, "reviews": 9, "place_id": "ChIJ-1my_I4eB3wRGRqNZjNfinA", "latitude": 21.9768611, "longitude": -159.3673817, "care_type": "Chiropractor"}, {"name": "Galan Sports Chiropractic", "address": "305 Keawe St UNIT 505, Lahaina, HI 96761", "city": "Lahaina", "phone": "+1 808-344-5066", "website": "http://galansportschiropractic.com/", "rating": 4.9, "reviews": 12, "place_id": "ChIJ-UaziqQrVXkRyC4cnzvqG-w", "latitude": 20.8851416, "longitude": -156.6815181, "care_type": "Chiropractor"}, {"name": "West Maui Chiropractic Clinic", "address": "10 Hoohui Rd #107, Lahaina, HI 96761", "city": "Lahaina", "phone": "+1 808-736-3354", "website": "http://www.westmauichiro.com/", "rating": 4.9, "reviews": 80, "place_id": "ChIJczCjmEcrVXkRbbVc1jq6qOU", "latitude": 20.971413, "longitude": -156.6777865, "care_type": "Chiropractor"}, {"name": "Lahaina Health Center (Chiropractic and Neurofeedback)", "address": "180 Dickenson St #204, Lahaina, HI 96761", "city": "Lahaina", "phone": "+1 808-667-6268", "website": "http://www.lahainahealthcenter.com/", "rating": 4.3, "reviews": 6, "place_id": "ChIJ9WHq3LsrVXkRbM0ZDSm8cYU", "latitude": 20.8741135, "longitude": -156.6768461, "care_type": "Chiropractor"}, {"name": "Healing Hands Chiropractic of Maui", "address": "10 Hoohui Rd #310, Lahaina, HI 96761", "city": "Lahaina", "phone": "+1 808-662-4476", "website": "http://healinghandschiropracticmaui.com/", "rating": 5.0, "reviews": 71, "place_id": "ChIJNXMRU8bUqn4RoU1MHKiW-pg", "latitude": 20.9714334, "longitude": -156.6780158, "care_type": "Chiropractor"}, {"name": "Kokua Chiropractic - Dr. Aubrey Huey, DC", "address": "10 Hoohui Rd #211, Lahaina, HI 96761", "city": "Lahaina", "phone": "+1 808-667-7700", "website": "http://www.kokuachiropractic.com/", "rating": 5.0, "reviews": 13, "place_id": "ChIJ7zQMNzzVqn4RMDxFG63fawY", "latitude": 20.9714652, "longitude": -156.6779782, "care_type": "Chiropractor"}, {"name": "Ocean LightForce Chiropractic Maui", "address": "180 Dickenson St #205, Lahaina, HI 96761", "city": "Lahaina", "phone": "+1 808-419-6450", "website": "", "rating": 5.0, "reviews": 1, "place_id": "ChIJtcXcZLcrVXkR_ZemQWU96Qk", "latitude": 20.8745099, "longitude": -156.6766113, "care_type": "Chiropractor"}, {"name": "Stevan Walton, DC", "address": "180 Dickenson St #204, Lahaina, HI 96761", "city": "Lahaina", "phone": "+1 808-667-6268", "website": "", "rating": 3.7, "reviews": 3, "place_id": "ChIJtcXcZLcrVXkR9n258wO5CeQ", "latitude": 20.8743255, "longitude": -156.6768831, "care_type": "Chiropractor"}, {"name": "Amanda Burns", "address": "180 Dickenson St #205, Lahaina, HI 967611215", "city": "Lahaina", "phone": "+1 808-667-6268", "website": "", "rating": 4.0, "reviews": 1, "place_id": "ChIJr-c6ZLcrVXkR-b6H7ms1c_0", "latitude": 20.8743528, "longitude": -156.676695, "care_type": "Chiropractor"}, {"name": "Dianna M. Walton, DC", "address": "180 Dickenson St #210, Lahaina, HI 96761", "city": "Lahaina", "phone": "+1 808-667-6268", "website": "", "rating": 5.0, "reviews": 2, "place_id": "ChIJtcXcZLcrVXkRESb1D-lGmRM", "latitude": 20.8742833, "longitude": -156.6767788, "care_type": "Chiropractor"}, {"name": "Hawaii Spine Chiropractic and Physical Therapy", "address": "74-5565 Luhia St Unit A1A, Kailua-Kona, HI 96740", "city": "Kailua-Kona", "phone": "+1 541-225-8160", "website": "http://hawaiispinechiropractic.com/", "rating": 5.0, "reviews": 86, "place_id": "ChIJM5EmrWkPVHkR43VVBlC4Imk", "latitude": 19.648148, "longitude": -156.0001943, "care_type": "Chiropractor"}, {"name": "Tanaka Family Chiropractic Center", "address": "76-6225 Kuakini Hwy STE C-104, Kailua-Kona, HI 96740", "city": "Kailua-Kona", "phone": "+1 808-327-2225", "website": "https://tanakafamilychiro.com/", "rating": 5.0, "reviews": 56, "place_id": "ChIJ7duwFfkOVHkR3p6cQSyRZc8", "latitude": 19.6174309, "longitude": -155.9709208, "care_type": "Chiropractor"}, {"name": "Big Island Chiropractic", "address": "75-5591 Palani Rd #2003, Kailua-Kona, HI 96740", "city": "Kailua-Kona", "phone": "+1 808-327-9845", "website": "http://drtodhawaii.com/", "rating": 5.0, "reviews": 6, "place_id": "ChIJPdu53_kOVHkRv12bVtufkDU", "latitude": 19.6451471, "longitude": -155.9922657, "care_type": "Chiropractor"}, {"name": "Okai Chiropractic, LLC, HMSA, HMAA In-Netwrok Provider", "address": "75-5591 Palani Rd Suite 3007, Kailua-Kona, HI 96740", "city": "Kailua-Kona", "phone": "+1 808-778-9754", "website": "http://okaichiro.com/", "rating": 5.0, "reviews": 50, "place_id": "ChIJsZoz0CEPVHkRAs2RHRmzWhI", "latitude": 19.6451745, "longitude": -155.9929198, "care_type": "Chiropractor"}, {"name": "Miranda Chiropractic", "address": "74-5565 Luhia St Unit A1A, Kailua-Kona, HI 96740", "city": "Kailua-Kona", "phone": "+1 808-331-1205", "website": "http://www.mirandachiropractic.com/", "rating": 4.7, "reviews": 54, "place_id": "ChIJqdmVUfgOVHkRUA7qAfvwsn0", "latitude": 19.648148, "longitude": -156.0001943, "care_type": "Chiropractor"}, {"name": "Malama Chiropractic Clinic", "address": "74-5620 Palani Rd # 102, Kailua-Kona, HI 96740", "city": "Kailua-Kona", "phone": "+1 808-329-7797", "website": "https://www.malamachiropractic.com/", "rating": 5.0, "reviews": 76, "place_id": "ChIJK8sw_vgOVHkRscXCFPSIqzg", "latitude": 19.6434187, "longitude": -155.9965424, "care_type": "Chiropractor"}, {"name": "Ali\u2019i Chiropractic", "address": "74-5565 Luhia St, Kailua-Kona, HI 96740", "city": "Kailua-Kona", "phone": "", "website": "", "rating": 4.8, "reviews": 18, "place_id": "ChIJ7duwFfkOVHkRSXwTEh3QFKI", "latitude": 19.6482965, "longitude": -156.0001925, "care_type": "Chiropractor"}, {"name": "Police Family Chiropractic- Kona", "address": "75-167 Kalani St #101, Kailua-Kona, HI 96740", "city": "Kailua-Kona", "phone": "+1 808-326-9355", "website": "http://www.policefamilychiropractic.com/", "rating": 4.8, "reviews": 42, "place_id": "ChIJ1UxcmPsOVHkRXqgKnEsfD-I", "latitude": 19.6404798, "longitude": -155.990164, "care_type": "Chiropractor"}, {"name": "Makai Chiropractic", "address": "Pottery Terrace, 75-5995 Kuakini Hwy suite #323a, Kailua-Kona, HI 96740", "city": "Kailua-Kona", "phone": "+1 808-329-7900", "website": "http://www.makaichiropractic.com/", "rating": 4.4, "reviews": 8, "place_id": "ChIJCSWtu_cOVHkRdqFRqeAFzGs", "latitude": 19.626941, "longitude": -155.9807741, "care_type": "Chiropractor"}, {"name": "Head and Neck Center of Hawai'i LLC", "address": "75-170 Hualalai Rd Suite B104, Kailua-Kona, HI 96740", "city": "Kailua-Kona", "phone": "+1 808-331-1454", "website": "http://www.hancoh.com/", "rating": 5.0, "reviews": 13, "place_id": "ChIJfchj8fwOVHkReAQ1GC_NgGQ", "latitude": 19.637333, "longitude": -155.9888795, "care_type": "Chiropractor"}, {"name": "Dr. Tod Ichishita", "address": "75-5591 Palani Rd #2003, Kailua-Kona, HI 96740", "city": "Kailua-Kona", "phone": "+1 808-327-9845", "website": "https://www.drtodhawaii.com/about-us", "rating": 4.4, "reviews": 13, "place_id": "ChIJPdu53_kOVHkRtUr_MnUgV9c", "latitude": 19.6451348, "longitude": -155.9928357, "care_type": "Chiropractor"}, {"name": "James A. Stanley, DC", "address": "75-240 Nani Kailua Dr APT 3, Kailua-Kona, HI 96740", "city": "Kailua-Kona", "phone": "+1 808-326-9229", "website": "https://www.chiroplanhawaii.com/james-stanley-dc", "rating": 5.0, "reviews": 12, "place_id": "ChIJn0xm2eMOVHkRQ8lrgBdzhfU", "latitude": 19.6358095, "longitude": -155.9804631, "care_type": "Chiropractor"}, {"name": "TLC Chiropractic", "address": "75-127 Lunapule Rd # 1B, Kailua-Kona, HI 96740", "city": "Kailua-Kona", "phone": "+1 808-329-5472", "website": "http://tlcchiropractickona.com/", "rating": 4.6, "reviews": 7, "place_id": "ChIJxdYvZzoPVHkRpELSRoi3Aps", "latitude": 19.6263828, "longitude": -155.9864413, "care_type": "Chiropractor"}, {"name": "Hendlin Chiropractic Health Center", "address": "75-166 Kalani St #203, Kailua-Kona, HI 96740", "city": "Kailua-Kona", "phone": "+1 808-329-5155", "website": "http://hendlinhealth.com/", "rating": 4.7, "reviews": 14, "place_id": "ChIJkUVZmPsOVHkRPgmz-LQn4VY", "latitude": 19.6400433, "longitude": -155.9901763, "care_type": "Chiropractor"}, {"name": "Dr. Al Valenzuela D.C. Dr V", "address": "75-167 Kalani St #101, Kailua-Kona, HI 96740", "city": "Kailua-Kona", "phone": "+1 808-326-9355", "website": "", "rating": 4.8, "reviews": 9, "place_id": "ChIJpamOmPsOVHkRZNs351ZaCeQ", "latitude": 19.6404798, "longitude": -155.990164, "care_type": "Chiropractor"}, {"name": "Lisa M. Di Natale, DC. TLC Chiropractic", "address": "Lunapule Professional Plaza, 75-127 Lunapule Rd # 1B, Kailua-Kona, HI 96740", "city": "Kailua-Kona", "phone": "+1 808-329-5472", "website": "http://tlcchiropractickona.com/", "rating": 4.7, "reviews": 10, "place_id": "ChIJK8vDpfkOVHkRdMwA9o55rLc", "latitude": 19.6265124, "longitude": -155.986455, "care_type": "Chiropractor"}, {"name": "Active Chiropractic", "address": "A1b, 74-5615 Luhia St, Kailua-Kona, HI 96740", "city": "Kailua-Kona", "phone": "+1 808-329-7900", "website": "", "rating": null, "reviews": 0, "place_id": "ChIJaQWjpfcOVHkRnCr8XjszmqE", "latitude": 19.6469574, "longitude": -155.9968795, "care_type": "Chiropractor"}, {"name": "Dr. Philip Miranda", "address": "73-5618 Maiau St b105, Kailua-Kona, HI 96740", "city": "Kailua-Kona", "phone": "+1 808-331-1205", "website": "https://www.mirandachiropractic.com/", "rating": null, "reviews": 0, "place_id": "ChIJq6qqRfgOVHkRLt67AKWxkuo", "latitude": 19.6868992, "longitude": -156.0157536, "care_type": "Chiropractor"}, {"name": "Chiropractic Care and Massage", "address": "74 Eho St, Kailua-Kona, HI 96740", "city": "Kailua-Kona", "phone": "", "website": "", "rating": null, "reviews": 0, "place_id": "ChIJ_Qa-lfcOVHkR_0xSBCRxnXU", "latitude": 19.6461807, "longitude": -155.9971246, "care_type": "Chiropractor"}, {"name": "Dr. Albert Police", "address": "75-167 Kalani St #101, Kailua-Kona, HI 96740", "city": "Kailua-Kona", "phone": "+1 808-326-9355", "website": "https://policefamilychiropractic.com/about/", "rating": null, "reviews": 0, "place_id": "ChIJh3eaofsOVHkRlvcpG-pqPR4", "latitude": 19.6404798, "longitude": -155.990164, "care_type": "Chiropractor"}, {"name": "Chiropractic Clinic For Injury", "address": "77-6425 Kuakini Hwy, Kailua-Kona, HI 96740", "city": "Kailua-Kona", "phone": "+1 808-329-1551", "website": "", "rating": null, "reviews": 0, "place_id": "ChIJy_VOY0gPVHkRtgFYQFTAepY", "latitude": 19.6045706, "longitude": -155.9622861, "care_type": "Chiropractor"}, {"name": "Timothy M. Barber, DC", "address": "75-5706 Hanama Pl, Kailua-Kona, HI 96740", "city": "Kailua-Kona", "phone": "+1 808-329-0547", "website": "", "rating": null, "reviews": 0, "place_id": "ChIJtQjYVfkOVHkRfcyOs_q6CCM", "latitude": 19.6398541, "longitude": -155.9932618, "care_type": "Chiropractor"}, {"name": "Dr. Mikal Barchenger", "address": "75-5665 Kuakini Hwy, Kailua-Kona, HI 96740", "city": "Kailua-Kona", "phone": "+1 808-329-6997", "website": "", "rating": null, "reviews": 0, "place_id": "ChIJq6pGFPkOVHkRhgegHCYn9WQ", "latitude": 19.6412064, "longitude": -155.994567, "care_type": "Chiropractor"}, {"name": "Kona Affordable Massage and Chiropractic", "address": "77 Nalani St # 3, Kailua-Kona, HI 96740", "city": "Kailua-Kona", "phone": "+1 808-327-9400", "website": "", "rating": null, "reviews": 0, "place_id": "ChIJa6CzCkgPVHkRzwXKqPwPi3c", "latitude": 19.6059464, "longitude": -155.962953, "care_type": "Chiropractor"}, {"name": "Takitani Maui Chiropractic", "address": "871 Kolu St # 101, Wailuku, HI 96793", "city": "Wailuku", "phone": "+1 808-871-6218", "website": "http://www.advancedperformancerehab.com/", "rating": 5.0, "reviews": 33, "place_id": "ChIJH32Vf97SVHkRI0oNfqmPAcQ", "latitude": 20.9032273, "longitude": -156.4875343, "care_type": "Chiropractor"}, {"name": "Wilcox Chiropractic", "address": "1958 E Vineyard St, Wailuku, HI 96793", "city": "Wailuku", "phone": "+1 808-871-6996", "website": "http://www.wilcoxchiropractic.com/", "rating": 4.2, "reviews": 5, "place_id": "ChIJa0XQf2rTVHkR0OgzZUH8GcM", "latitude": 20.890211, "longitude": -156.5017841, "care_type": "Chiropractor"}, {"name": "Paradise Chiropractic", "address": "871 Kolu St # 101, Wailuku, HI 96793", "city": "Wailuku", "phone": "+1 808-242-4764", "website": "", "rating": 3.5, "reviews": 2, "place_id": "ChIJ-zOZwzHTVHkROZ9MU5jFBmM", "latitude": 20.9031535, "longitude": -156.4874805, "care_type": "Chiropractor"}, {"name": "Golden Lion Chiropractic and Wellness Center: Dr. Eric Siu", "address": "52 Central Ave, Wailuku, HI 96793", "city": "Wailuku", "phone": "+1 808-269-6567", "website": "http://goldenlionchiropractic.com/", "rating": 5.0, "reviews": 3, "place_id": "ChIJLVow5TDTVHkRjnMf1aCzv8U", "latitude": 20.8895452, "longitude": -156.500125, "care_type": "Chiropractor"}, {"name": "Livaloha Wellness", "address": "1261 Lower Main St, Wailuku, HI 96793", "city": "Wailuku", "phone": "+1 808-303-9812", "website": "http://livalohawellness.com/", "rating": 5.0, "reviews": 9, "place_id": "ChIJua2iJYnTVHkRTINOp_rAcck", "latitude": 20.896247, "longitude": -156.4915331, "care_type": "Chiropractor"}, {"name": "Connected Chiropractic", "address": "75B N Church St, Wailuku, HI 96793", "city": "Wailuku", "phone": "+1 808-723-4703", "website": "http://www.connected-chiropractic.com/", "rating": 5.0, "reviews": 39, "place_id": "ChIJs38icyQzq34RfWWv8t45lHc", "latitude": 20.8883064, "longitude": -156.5034316, "care_type": "Chiropractor"}, {"name": "Living Adjusted Family Wellness Center", "address": "53 Puunene Ave # 104, Kahului, HI 96732", "city": "Kahului", "phone": "+1 808-385-9506", "website": "http://www.livingadjustedmaui.com/", "rating": 5.0, "reviews": 94, "place_id": "ChIJQzGtza41q34RWT24LMDuwCA", "latitude": 20.8901005, "longitude": -156.4663297, "care_type": "Chiropractor"}, {"name": "Dr. Ty Takitani", "address": "95 Lono Ave #203, Kahului, HI 96732", "city": "Kahului", "phone": "+1 808-871-6218", "website": "https://www.advancedperformancerehab.com/", "rating": 5.0, "reviews": 2, "place_id": "ChIJp0bMf97SVHkRf19TaCwQKFY", "latitude": 20.8881317, "longitude": -156.4689856, "care_type": "Chiropractor"}, {"name": "Albury Cynthia DC", "address": "2307 Main St, Wailuku, HI 96793", "city": "Wailuku", "phone": "+1 808-986-1111", "website": "", "rating": 5.0, "reviews": 3, "place_id": "ChIJicSuOWnTVHkRojwkJAd2cOc", "latitude": 20.886043, "longitude": -156.506237, "care_type": "Chiropractor"}, {"name": "Central Maui Chiropractic LLC", "address": "358 Papa Pl ste c, Kahului, HI 96732", "city": "Kahului", "phone": "+1 808-353-6300", "website": "http://www.centralmauichiropractic.com/", "rating": 5.0, "reviews": 85, "place_id": "ChIJQUIP0VPTVHkRKXiN10ITCC4", "latitude": 20.8849485, "longitude": -156.4545664, "care_type": "Chiropractor"}, {"name": "Dr. Alejandro Lazo DC", "address": "871 Kolu St # 101, Wailuku, HI 96793", "city": "Wailuku", "phone": "+1 808-242-5768", "website": "", "rating": 5.0, "reviews": 1, "place_id": "ChIJL8BswzHTVHkR3NtJgQCCLRo", "latitude": 20.9032274, "longitude": -156.4875343, "care_type": "Chiropractor"}, {"name": "Ho`ala Natural Pain Relief / Dr. William M. Battles, DC - Chiropractor Maui", "address": "16 Hobron Ave #204, Kahului, HI 96732", "city": "Kahului", "phone": "+1 808-873-6262", "website": "http://www.hoalanaturalpainrelief.com/", "rating": 4.7, "reviews": 23, "place_id": "ChIJpQu-68TSVHkRX-hrhd3DEhc", "latitude": 20.891453, "longitude": -156.461012, "care_type": "Chiropractor"}, {"name": "Richard L. Wilcox, DC", "address": "1958 E Vineyard St, Wailuku, HI 96793", "city": "Wailuku", "phone": "+1 808-871-6996", "website": "", "rating": null, "reviews": 0, "place_id": "ChIJa0XQf2rTVHkRDFSig1LKyhI", "latitude": 20.890172, "longitude": -156.5018109, "care_type": "Chiropractor"}, {"name": "Gina Kim, DC", "address": "1958 E Vineyard St, Wailuku, HI 96793", "city": "Wailuku", "phone": "+1 808-871-6996", "website": "https://www.wilcoxchiropractic.com/doctors/", "rating": null, "reviews": 0, "place_id": "ChIJa0XQf2rTVHkRbYROGwZXXgQ", "latitude": 20.8901464, "longitude": -156.5017985, "care_type": "Chiropractor"}, {"name": "Dr. James P. Urban", "address": "444 Hana Hwy #213B, Kahului, HI 96732", "city": "Kahului", "phone": "+1 808-573-2000", "website": "https://www.chiropracticmaui.com/", "rating": 4.9, "reviews": 53, "place_id": "ChIJq3pSnXjMVHkROXv1sd3sA8s", "latitude": 20.8852602, "longitude": -156.4532484, "care_type": "Chiropractor"}, {"name": "Aloha Family Chiropractic and Wellness", "address": "360 Hoohana St A104, Kahului, HI 96732", "city": "Kahului", "phone": "+1 808-877-1534", "website": "http://www.mauichiro.com/", "rating": 4.9, "reviews": 46, "place_id": "ChIJjYZUOdPTVHkR03tftAETriA", "latitude": 20.8836512, "longitude": -156.4604629, "care_type": "Chiropractor"}, {"name": "Hawaii Holistic Health Network, LLC", "address": "335 Hoohana St Unit F, Kahului, HI 96732", "city": "Kahului", "phone": "+1 808-359-3336", "website": "https://www.hawaiiholistichealthnetwork.com/", "rating": 5.0, "reviews": 114, "place_id": "ChIJzQvPTCnNVHkRbdDeQZwKN8o", "latitude": 20.8842412, "longitude": -156.4610102, "care_type": "Chiropractor"}, {"name": "Fagan William DC", "address": "2180 Main St, Wailuku, HI 96793", "city": "Wailuku", "phone": "+1 808-242-6464", "website": "https://www.mauimedical.com/", "rating": 5.0, "reviews": 1, "place_id": "ChIJ1ywYfmnTVHkRDo-U5j4zLFg", "latitude": 20.8873539, "longitude": -156.5047007, "care_type": "Chiropractor"}, {"name": "Back In Action Chiropractic Inc", "address": "95 Lono Ave #105, Kahului, HI 96732", "city": "Kahului", "phone": "+1 808-873-0733", "website": "http://www.mauichiropractic.com/", "rating": 5.0, "reviews": 8, "place_id": "ChIJf644l9nSVHkRVZSDUYqsKMk", "latitude": 20.888122, "longitude": -156.4689566, "care_type": "Chiropractor"}, {"name": "Alejandro Lazo, DC", "address": "1063 Lower Main St, Wailuku, HI 96793", "city": "Wailuku", "phone": "+1 808-242-5768", "website": "", "rating": null, "reviews": 0, "place_id": "ChIJZU6XmjrTVHkRAYs1kEdQph4", "latitude": 20.898878, "longitude": -156.4893241, "care_type": "Chiropractor"}, {"name": "Roy S. Genatt, DC", "address": "871 Kolu St # 101, Wailuku, HI 96793", "city": "Wailuku", "phone": "+1 808-242-4764", "website": "", "rating": null, "reviews": 0, "place_id": "ChIJ-zOZwzHTVHkRAiHM9NJxuRg", "latitude": 20.9032143, "longitude": -156.4875375, "care_type": "Chiropractor"}, {"name": "Cellular Regeneration", "address": "1958 E Vineyard St, Wailuku, HI 96793", "city": "Wailuku", "phone": "+1 808-871-6996", "website": "", "rating": null, "reviews": 0, "place_id": "ChIJCw6M1UHTVHkR1YOaM3orF6A", "latitude": 20.890175, "longitude": -156.5018152, "care_type": "Chiropractor"}, {"name": "Brandon Parry", "address": "358 Papa Pl ste c, Kahului, HI 967322481", "city": "Kahului", "phone": "+1 808-298-2465", "website": "", "rating": 5.0, "reviews": 1, "place_id": "ChIJAQBwtsHSVHkRn8_d5fyvFdg", "latitude": 20.8847994, "longitude": -156.4543532, "care_type": "Chiropractor"}, {"name": "Dr. Robert Gonzalez", "address": "360 Hoohana St A104, Kahului, HI 96732", "city": "Kahului", "phone": "+1 808-877-1534", "website": "http://www.mauichiro.com/", "rating": 5.0, "reviews": 2, "place_id": "ChIJ0wRtO-jSVHkRi73Yc0kmcKU", "latitude": 20.8835617, "longitude": -156.4605635, "care_type": "Chiropractor"}, {"name": "Leslie D. Shaw, DC", "address": "444 Hana Hwy, Kahului, HI 96732", "city": "Kahului", "phone": "+1 808-877-5587", "website": "https://www.ohanahalewellness.com/", "rating": 3.0, "reviews": 2, "place_id": "ChIJG3rRU8DSVHkR3nHBj2Gu-QQ", "latitude": 20.8856377, "longitude": -156.453474, "care_type": "Chiropractor"}, {"name": "Pacific Spine & Rehab", "address": "95 Lono Ave #105, Kahului, HI 96732", "city": "Kahului", "phone": "+1 808-572-6223", "website": "https://www.pacificspineandrehab.com/", "rating": 5.0, "reviews": 1, "place_id": "ChIJH32Vf97SVHkR76NDBiebC-k", "latitude": 20.8881113, "longitude": -156.4689589, "care_type": "Chiropractor"}, {"name": "Ohana Hale Chiropractic", "address": "444 Hana Hwy #213, Kahului, HI 96732", "city": "Kahului", "phone": "+1 808-877-5587", "website": "http://www.ohanahalewellness.com/", "rating": 5.0, "reviews": 6, "place_id": "ChIJG3rRU8DSVHkRNQzmArDI3oc", "latitude": 20.8852932, "longitude": -156.4532688, "care_type": "Chiropractor"}, {"name": "Network Care", "address": "2307 Main St, Wailuku, HI 96793", "city": "Wailuku", "phone": "+1 808-986-1111", "website": "", "rating": null, "reviews": 0, "place_id": "ChIJicSuOWnTVHkR_1gnWr9kwpI", "latitude": 20.886043, "longitude": -156.506237, "care_type": "Chiropractor"}, {"name": "The Specific Chiropractic Centers - Maui", "address": "296 Alamaha St Suite C3A, Kahului, HI 96732", "city": "Kahului", "phone": "+1 808-866-6551", "website": "", "rating": 3.7, "reviews": 6, "place_id": "ChIJ2UsCMULTVHkRNcWNRgJ-LW4", "latitude": 20.8862375, "longitude": -156.4581559, "care_type": "Chiropractor"}, {"name": "Dr. Craig Zion Cain LLC", "address": "64 Keawe St Suite 205, Hilo, HI 96720", "city": "Hilo", "phone": "+1 808-464-5576", "website": "https://www.kisomethod.com/", "rating": 4.8, "reviews": 37, "place_id": "ChIJ4eMO3alMUnkRxkVyABFREdU", "latitude": 19.7260137, "longitude": -155.0882231, "care_type": "Chiropractor"}, {"name": "Klein Natural Health and Wellness Center", "address": "2070 Kilauea Ave, Hilo, HI 96720", "city": "Hilo", "phone": "+1 808-959-4588", "website": "http://www.kleinnatural.com/", "rating": 4.4, "reviews": 62, "place_id": "ChIJe07m8BZLUnkRIoSR8JKM6Tg", "latitude": 19.6929435, "longitude": -155.0685572, "care_type": "Chiropractor"}, {"name": "Dr. Jill Dawrs Family Chiropractic Clinic", "address": "198 Ponahawai St, Hilo, HI 96720", "city": "Hilo", "phone": "+1 808-935-0004", "website": "http://docjillchiropractic.com/", "rating": 3.8, "reviews": 12, "place_id": "ChIJDa4711dLUnkROwP6XhMtHZs", "latitude": 19.7212023, "longitude": -155.0856547, "care_type": "Chiropractor"}, {"name": "Christopher M. Hilton, DC", "address": "2100 Kanoelehua Ave Suite 204, Hilo, HI 96720", "city": "Hilo", "phone": "+1 808-959-8922", "website": "https://www.hilochiropractic.com/about", "rating": 5.0, "reviews": 3, "place_id": "ChIJHcguOxdLUnkRdCoNI5njyIc", "latitude": 19.6920673, "longitude": -155.0670095, "care_type": "Chiropractor"}, {"name": "Hawaii Physical Therapy & Chiropractic Clinic Inc", "address": "224 Haili St, Hilo, HI 96720", "city": "Hilo", "phone": "+1 808-961-5663", "website": "http://www.hiptchiro.com/", "rating": 5.0, "reviews": 7, "place_id": "ChIJLxf64FVLUnkRZbgif1-Kf-c", "latitude": 19.7228409, "longitude": -155.0896816, "care_type": "Chiropractor"}, {"name": "Tanaka Chiropractic & Wellness", "address": "1028 Kinoole St # 103, Hilo, HI 96720", "city": "Hilo", "phone": "+1 808-934-9355", "website": "", "rating": 4.0, "reviews": 3, "place_id": "ChIJ893azVpLUnkRP9Wt8eOuIao", "latitude": 19.7136099, "longitude": -155.0819922, "care_type": "Chiropractor"}, {"name": "Harvelee H. Leite - Ah Yo, DC", "address": "261 Waianuenue Ave, Hilo, HI 96720", "city": "Hilo", "phone": "+1 808-961-5663", "website": "https://www.hiptchiro.com/our-staff/harvelee-leite-ah-yo/", "rating": 5.0, "reviews": 3, "place_id": "ChIJLxf64FVLUnkRCORn_XkzKoU", "latitude": 19.7244364, "longitude": -155.090013, "care_type": "Chiropractor"}, {"name": "Dr. David Shapiro", "address": "465 Hinano St, Hilo, HI 96720", "city": "Hilo", "phone": "+1 808-937-9292", "website": "", "rating": 2.6, "reviews": 5, "place_id": "ChIJyaRdw2ZLUnkROM74c87ufCs", "latitude": 19.7158915, "longitude": -155.06827, "care_type": "Chiropractor"}, {"name": "Klein Chiropractic Center: Bearden Liat DC", "address": "2070 Kilauea Ave, Hilo, HI 96720", "city": "Hilo", "phone": "+1 808-959-4588", "website": "https://www.kleinnatural.com/", "rating": 5.0, "reviews": 3, "place_id": "ChIJe07m8BZLUnkRd7UHrOfzWDE", "latitude": 19.6929183, "longitude": -155.0684582, "care_type": "Chiropractor"}, {"name": "Aloha Acupuncture & Wellness, Inc. (formerly Hinano Healing Arts)", "address": "465 Hinano St, Hilo, HI 96720", "city": "Hilo", "phone": "+1 808-854-5063", "website": "http://www.hinanohealingarts.com/", "rating": 5.0, "reviews": 7, "place_id": "ChIJyaRdw2ZLUnkR5-Q0O7X-xjo", "latitude": 19.7158915, "longitude": -155.06827, "care_type": "Chiropractor"}, {"name": "Nagareda Chiropractic", "address": "291 Kinoole St, Hilo, HI 96720", "city": "Hilo", "phone": "+1 808-961-5750", "website": "", "rating": null, "reviews": 0, "place_id": "ChIJb7loVlZLUnkR7cXcohSt1sE", "latitude": 19.7226487, "longitude": -155.0873056, "care_type": "Chiropractor"}, {"name": "Back To Basics Chiropractic LLC", "address": "16-590 Old Volcano Rd, Keaau, HI 96749", "city": "Keaau", "phone": "+1 408-809-1844", "website": "http://www.backtobasicshawaii.com/", "rating": 4.7, "reviews": 31, "place_id": "ChIJH5Amp4Q1UnkRx8QRWLUl3Ww", "latitude": 19.6199538, "longitude": -155.0422148, "care_type": "Chiropractor"}, {"name": "Dr. Robert Tanaka", "address": "1028 Kinoole St, Hilo, HI 96720", "city": "Hilo", "phone": "+1 808-934-9355", "website": "", "rating": 5.0, "reviews": 1, "place_id": "ChIJ-7jczFpLUnkROWzeqbC-SjA", "latitude": 19.7135833, "longitude": -155.0820771, "care_type": "Chiropractor"}, {"name": "Robert E. Klein, DC", "address": "2070 Kilauea Ave, Hilo, HI 96720", "city": "Hilo", "phone": "+1 808-959-4588", "website": "", "rating": 3.5, "reviews": 2, "place_id": "ChIJe07m8BZLUnkRGkpZBsLxgks", "latitude": 19.6929183, "longitude": -155.0684582, "care_type": "Chiropractor"}, {"name": "Dean Guida, D.C.", "address": "2536 Kilauea Ave, Hilo, HI 96720", "city": "Hilo", "phone": "+1 808-938-5257", "website": "", "rating": 3.4, "reviews": 5, "place_id": "ChIJV697va20U3kRZFCPfFVEoJ0", "latitude": 19.6800587, "longitude": -155.0673455, "care_type": "Chiropractor"}, {"name": "Maysonet David DC", "address": "21 Kalanianaole St #107, Hilo, HI 96720", "city": "Hilo", "phone": "+1 808-969-3139", "website": "", "rating": 4.5, "reviews": 4, "place_id": "ChIJPRGbnp1MUnkRTbJitVbXXAI", "latitude": 19.7233913, "longitude": -155.0636186, "care_type": "Chiropractor"}, {"name": "Clear Chiropractic LLC", "address": "16-576 Keaau-Pahoa Rd, Keaau, HI 96749", "city": "Keaau", "phone": "+1 808-982-4801", "website": "", "rating": 4.8, "reviews": 17, "place_id": "ChIJDRvyCIU1UnkREwhIe_nHqWk", "latitude": 19.6209628, "longitude": -155.0385567, "care_type": "Chiropractor"}, {"name": "Kiso Life Chiropractic Center", "address": "688 Kinoole St, Hilo, HI 96720", "city": "Hilo", "phone": "+1 808-961-6888", "website": "", "rating": null, "reviews": 0, "place_id": "ChIJr1oBmVBLUnkRv_2WnEEWYac", "latitude": 19.7176227, "longitude": -155.0846761, "care_type": "Chiropractor"}, {"name": "Hilo Accident & Industrial Injury", "address": "400 Hualani St Suite 191B, Hilo, HI 96720", "city": "Hilo", "phone": "+1 808-961-6373", "website": "", "rating": null, "reviews": 0, "place_id": "ChIJKftDP11LUnkRp8xcRVuiaGM", "latitude": 19.7133918, "longitude": -155.0736677, "care_type": "Chiropractor"}, {"name": "Miranda Chiropractic", "address": "577 Kinoole St, Hilo, HI 96720", "city": "Hilo", "phone": "+1 808-933-7910", "website": "", "rating": null, "reviews": 0, "place_id": "ChIJOxVqtFBLUnkRvHVGagTnyzg", "latitude": 19.7192179, "longitude": -155.0851313, "care_type": "Chiropractor"}, {"name": "Wellness All Ways", "address": "15-1505 Hialoa St, Keaau, HI 96749", "city": "Keaau", "phone": "+1 808-464-4541", "website": "http://www.wellnessallways.com/", "rating": 5.0, "reviews": 52, "place_id": "ChIJd-D60EWKa4cRL5DzCRX7Co4", "latitude": 19.6071126, "longitude": -154.968067, "care_type": "Chiropractor"}, {"name": "Harvelee Leite - Ah Yo", "address": "261 Waianuenue Ave, Hilo, HI 96720", "city": "Hilo", "phone": "+1 808-961-2491", "website": "https://www.hiptchiro.com/our-staff/harvelee-leite-ah-yo/", "rating": null, "reviews": 0, "place_id": "ChIJ__9b4FVLUnkRdC7xO5_r-RA", "latitude": 19.7244364, "longitude": -155.090013, "care_type": "Chiropractor"}, {"name": "Young Chiropractic Center", "address": "150A Kinoole St, Hilo, HI 96720", "city": "Hilo", "phone": "+1 808-969-3899", "website": "http://www.youngchiropracticcenter.com/", "rating": 4.8, "reviews": 21, "place_id": "ChIJoQiJGlZLUnkRmPsp7DlCF44", "latitude": 19.7241421, "longitude": -155.0887032, "care_type": "Chiropractor"}, {"name": "Hilo Chiropractic Clinic", "address": "2100 Kanoelehua Ave Suite 204, Hilo, HI 96720", "city": "Hilo", "phone": "+1 808-959-8922", "website": "http://www.hilochiropractic.com/", "rating": 3.4, "reviews": 9, "place_id": "ChIJHcguOxdLUnkR939UB-fT9j0", "latitude": 19.6921037, "longitude": -155.0669464, "care_type": "Chiropractor"}, {"name": "Step Up Chiropractic", "address": "2525 S King St # 311, Honolulu, HI 96826", "city": "Honolulu", "phone": "+1 808-840-0326", "website": "https://stepupchiropractic.com/", "rating": 4.9, "reviews": 158, "place_id": "ChIJH8Y0teVtAHwRULMQqiDYcoQ", "latitude": 21.2921916, "longitude": -157.8233116, "care_type": "Chiropractor"}, {"name": "Diamond Head Chiropractic", "address": "3615 Harding Ave STE 301, Honolulu, HI 96816", "city": "Honolulu", "phone": "+1 808-737-4325", "website": "http://www.dhchi.com/", "rating": 5.0, "reviews": 195, "place_id": "ChIJNVoR0XttAHwREYDF5B5ybtI", "latitude": 21.2805898, "longitude": -157.7994202, "care_type": "Chiropractor"}, {"name": "Upper Cervical Hawaii | Dr. Joe Breuwet, DC", "address": "1600 Kapiolani Blvd #1421, Honolulu, HI 96814", "city": "Honolulu", "phone": "+1 808-201-1324", "website": "http://uppercervicalhawaii.com/", "rating": 4.9, "reviews": 132, "place_id": "ChIJcw1l-PFtAHwRzW3EbANyO_8", "latitude": 21.2920734, "longitude": -157.8391749, "care_type": "Chiropractor"}, {"name": "Luke Chiropractic & Sports Injury", "address": "1314 S King St STE 425, Honolulu, HI 96814", "city": "Honolulu", "phone": "+1 808-591-2400", "website": "http://oahuchiropractic.com/", "rating": 4.7, "reviews": 80, "place_id": "ChIJhQlMJeltAHwROzT__-BuCEI", "latitude": 21.2990786, "longitude": -157.8414965, "care_type": "Chiropractor"}, {"name": "Turning Point Chiropractic", "address": "1144 10th Ave, Honolulu, HI 96816", "city": "Honolulu", "phone": "+1 808-637-2608", "website": "http://www.tpchiro.com/", "rating": 4.9, "reviews": 438, "place_id": "ChIJa4UQ3zBtAHwR4ueIHrRWfKM", "latitude": 21.2832539, "longitude": -157.8017833, "care_type": "Chiropractor"}, {"name": "TRIO Health Chiropractic & Shockwave Therapy Hawaii", "address": "INTERSTATE BUILDING, 1314 S King St STE 1264, Honolulu, HI 96814", "city": "Honolulu", "phone": "+1 808-465-4700", "website": "http://www.triohealth.co/", "rating": 4.9, "reviews": 133, "place_id": "ChIJFYLSQo1tAHwRO8YoVSty8pM", "latitude": 21.299329, "longitude": -157.8413349, "care_type": "Chiropractor"}, {"name": "DK Chiropractic LLC", "address": "1441 Kapiolani Blvd # 708, Honolulu, HI 96814", "city": "Honolulu", "phone": "+1 808-551-4548", "website": "http://www.hnlqsm3.com/", "rating": 4.8, "reviews": 17, "place_id": "ChIJrd_FTuVtAHwR7as0aLxnzb4", "latitude": 21.292722, "longitude": -157.8430372, "care_type": "Chiropractor"}, {"name": "KOS Chiropractic & Integrative Health: Concussion Care", "address": "1441 Kapiolani Blvd #609, Honolulu, HI 96814", "city": "Honolulu", "phone": "+1 808-200-4899", "website": "https://www.kosintegrative.com/", "rating": 5.0, "reviews": 223, "place_id": "ChIJee-N-OltAHwRzljbLY3gnnA", "latitude": 21.2928432, "longitude": -157.8430602, "care_type": "Chiropractor"}, {"name": "Dale K. Yamauchi, DC", "address": "1221 Kapiolani Blvd, Honolulu, HI 96814", "city": "Honolulu", "phone": "+1 808-593-9941", "website": "", "rating": 5.0, "reviews": 8, "place_id": "ChIJiQVzIuVtAHwRKYDkxnP_yrI", "latitude": 21.295086, "longitude": -157.8476115, "care_type": "Chiropractor"}, {"name": "Tanaka Chiropractic Office", "address": "1221 Kapiolani Blvd SUITE 1046, Honolulu, HI 96814", "city": "Honolulu", "phone": "+1 808-596-0220", "website": "http://www.tanakachiro.com/", "rating": 5.0, "reviews": 7, "place_id": "ChIJiQVzIuVtAHwR4UUzaseCew0", "latitude": 21.295035, "longitude": -157.8476406, "care_type": "Chiropractor"}, {"name": "Dr. Janaki Berman Waikiki Chiropractor", "address": "1860 Ala Moana Blvd Ste 420, Honolulu, HI 96815", "city": "Honolulu", "phone": "+1 808-225-2120", "website": "http://www.waikikichiropractor.com/", "rating": 5.0, "reviews": 65, "place_id": "ChIJzQ4mFPNtAHwRZz35DMo5488", "latitude": 21.2853733, "longitude": -157.8359186, "care_type": "Chiropractor"}, {"name": "Spinal Dynamics Hawaii", "address": "1525 Kal\u0101kaua Ave Grnd Floor, Honolulu, HI 96826", "city": "Honolulu", "phone": "+1 808-942-1144", "website": "https://www.808doc.com/%3Futm_source%3DGBP%26utm_medium%3Dorganic", "rating": 4.8, "reviews": 27, "place_id": "ChIJGx8LzYRtAHwRcN0JF-z92U4", "latitude": 21.2965491, "longitude": -157.8372082, "care_type": "Chiropractor"}, {"name": "Kingdom Chiropractic", "address": "1188 Bishop St STE 1510, Honolulu, HI 96813", "city": "Honolulu", "phone": "+1 808-292-2680", "website": "", "rating": 5.0, "reviews": 30, "place_id": "ChIJwcdIOXJvAHwRiVe91SGXanc", "latitude": 21.3106261, "longitude": -157.8592065, "care_type": "Chiropractor"}, {"name": "Zen Health Center", "address": "1188 Bishop St STE 3301, Honolulu, HI 96813", "city": "Honolulu", "phone": "+1 808-599-2700", "website": "http://www.thezencenter.com/", "rating": 4.9, "reviews": 385, "place_id": "ChIJY1-TuXVuAHwRsJvVhgn7oPo", "latitude": 21.3105847, "longitude": -157.8590595, "care_type": "Chiropractor"}, {"name": "Ola Loa Chiropractic and Wellness", "address": "2499 Kapiolani Blvd STE 104, Honolulu, HI 96826", "city": "Honolulu", "phone": "+1 650-383-8098", "website": "http://drericayu.com/", "rating": 5.0, "reviews": 6, "place_id": "ChIJ7zwl1sVtAHwRN3j1vQLqCeY", "latitude": 21.2867845, "longitude": -157.8236281, "care_type": "Chiropractor"}, {"name": "Blue Skies Chiropractic", "address": "1215 Center St Suite 201, Honolulu, HI 96816", "city": "Honolulu", "phone": "+1 808-975-9000", "website": "https://chiropracticblueskies.com/", "rating": 5.0, "reviews": 27, "place_id": "ChIJyydOX3ttAHwRFzu8ripNXho", "latitude": 21.2830812, "longitude": -157.7987276, "care_type": "Chiropractor"}, {"name": "Brandon L. Kikuchi, DC", "address": "2875 S King St #205, Honolulu, HI 96826", "city": "Honolulu", "phone": "+1 808-373-3384", "website": "http://www.kikuchichiro.com/", "rating": 4.8, "reviews": 73, "place_id": "ChIJTZLZGoNtAHwRcSf9GJTOI9k", "latitude": 21.2894014, "longitude": -157.8173954, "care_type": "Chiropractor"}, {"name": "Awakuni Family Chiropractic", "address": "1221 Kapiolani Blvd, Honolulu, HI 96814", "city": "Honolulu", "phone": "+1 808-589-1433", "website": "", "rating": 5.0, "reviews": 1, "place_id": "ChIJq6qqquVtAHwRe9K9tvaE_2M", "latitude": 21.2949905, "longitude": -157.8474884, "care_type": "Chiropractor"}, {"name": "Gregory Chiropractic Offices", "address": "615 Piikoi St Ste 1202, Honolulu, HI 96814", "city": "Honolulu", "phone": "+1 808-596-8054", "website": "", "rating": 5.0, "reviews": 8, "place_id": "ChIJG0jjZOVtAHwRcnuPHJl-ub0", "latitude": 21.295168, "longitude": -157.8455681, "care_type": "Chiropractor"}, {"name": "Josuke Tanaka, DC", "address": "Ala Moana Building, 1441 Kapiolani Blvd #609, Honolulu, HI 96814", "city": "Honolulu", "phone": "+1 808-200-4899", "website": "https://www.kosintegrative.com/", "rating": 5.0, "reviews": 13, "place_id": "ChIJx0ZRDJptAHwRGuv5M5MAALM", "latitude": 21.291298, "longitude": -157.8433791, "care_type": "Chiropractor"}, {"name": "Hawaii Optimum Performance", "address": "1212 Punahou St, Honolulu, HI 96826", "city": "Honolulu", "phone": "+1 808-678-8467", "website": "http://hopsportsmedicine.com/", "rating": 4.8, "reviews": 24, "place_id": "ChIJB3XqJllmAHwRcb66b0jjMe8", "latitude": 21.29966, "longitude": -157.835648, "care_type": "Chiropractor"}, {"name": "Hawaii Kai Chiropractic", "address": "771 Kaluanui Way, Honolulu, HI 96825", "city": "Honolulu", "phone": "+1 808-395-4454", "website": "https://hikaichiropractic.com/", "rating": 4.7, "reviews": 15, "place_id": "ChIJN1VVVUUSAHwR99NojFPO8Ik", "latitude": 21.2910307, "longitude": -157.702279, "care_type": "Chiropractor"}, {"name": "Honolulu Wellness Group", "address": "1314 S King St #1656, Honolulu, HI 96814", "city": "Honolulu", "phone": "+1 808-923-8378", "website": "http://www.hiwellnessgroup.com/", "rating": 5.0, "reviews": 4, "place_id": "ChIJgZiDOultAHwRsY4Jya-bJUQ", "latitude": 21.299297, "longitude": -157.84119, "care_type": "Chiropractor"}, {"name": "Healing Waters Chiropractic LLC", "address": "575 Cooke St STE E, Honolulu, HI 96813", "city": "Honolulu", "phone": "+1 808-462-7624", "website": "https://www.healingwaterschiropractic.com/", "rating": 5.0, "reviews": 12, "place_id": "ChIJO4l34XpvAHwRFCWOLHKKaJk", "latitude": 21.2993989, "longitude": -157.8572439, "care_type": "Chiropractor"}, {"name": "Dr. Eliza Kim, D.C.", "address": "1441 Kapiolani Blvd #511, Honolulu, HI 96814", "city": "Honolulu", "phone": "+1 808-256-5900", "website": "http://www.drelizakim.com/", "rating": 5.0, "reviews": 3, "place_id": "ChIJR3vqd_NtAHwRelckXb7fQLA", "latitude": 21.291298, "longitude": -157.8433791, "care_type": "Chiropractor"}, {"name": "Foundation Spine & Posture", "address": "1150 S King St STE 408, Honolulu, HI 96814", "city": "Honolulu", "phone": "+1 808-376-8937", "website": "http://foundationspine.com/", "rating": 4.9, "reviews": 40, "place_id": "ChIJp0IUn-htAHwRM3jFQSaDVco", "latitude": 21.3005822, "longitude": -157.8447937, "care_type": "Chiropractor"}, {"name": "Mama Bear Chiropractic", "address": "1188 Bishop St STE 1509, Honolulu, HI 96813", "city": "Honolulu", "phone": "", "website": "https://www.mamabearchiro.com/", "rating": 5.0, "reviews": 4, "place_id": "ChIJfVnTr9NvAHwRhCe_R5DKvaY", "latitude": 21.3106261, "longitude": -157.8592065, "care_type": "Chiropractor"}, {"name": "Armando K. Garza, DC", "address": "1744 Liliha St #201, Honolulu, HI 96817", "city": "Honolulu", "phone": "+1 808-533-2425", "website": "", "rating": 5.0, "reviews": 7, "place_id": "ChIJ6fdRrXhuAHwRdEy0He94Jxo", "latitude": 21.3233854, "longitude": -157.8579154, "care_type": "Chiropractor"}, {"name": "Lee Family Chiropractic", "address": "725 Kapiolani Blvd #306, Honolulu, HI 96813", "city": "Honolulu", "phone": "+1 808-596-8090", "website": "", "rating": 5.0, "reviews": 6, "place_id": "ChIJv_f4HuJtAHwRIm_5ZkkzgQc", "latitude": 21.3010984, "longitude": -157.8547326, "care_type": "Chiropractor"}, {"name": "Nakasone Richard Y DC", "address": "1314 S King St STE 960, Honolulu, HI 96814", "city": "Honolulu", "phone": "+1 808-596-2273", "website": "", "rating": 5.0, "reviews": 2, "place_id": "ChIJhQlMJeltAHwRYWNnDN6wZFY", "latitude": 21.299329, "longitude": -157.8413349, "care_type": "Chiropractor"}, {"name": "Dr. Chris Lipat DC, Mind-Body Energy Medicine", "address": "1001 Waimanu St Unit D, Honolulu, HI 96814", "city": "Honolulu", "phone": "+1 808-670-5160", "website": "https://drchrislipat.com/", "rating": 5.0, "reviews": 14, "place_id": "ChIJHdL2gJBtAHwRTkqfxT4go7A", "latitude": 21.2968291, "longitude": -157.852044, "care_type": "Chiropractor"}, {"name": "Lifetime Family Wellness Centers", "address": "771 Amana St, Honolulu, HI 96814", "city": "Honolulu", "phone": "+1 808-943-2872", "website": "", "rating": 5.0, "reviews": 5, "place_id": "ChIJTSD7V-VtAHwRIYSZeljC8RU", "latitude": 21.2942864, "longitude": -157.8401302, "care_type": "Chiropractor"}, {"name": "William Kim Jr, DC", "address": "1221 Kapiolani Blvd, Honolulu, HI 96814", "city": "Honolulu", "phone": "+1 808-591-8000", "website": "", "rating": 5.0, "reviews": 4, "place_id": "ChIJiQVzIuVtAHwR4WUVhFk4KUk", "latitude": 21.295086, "longitude": -157.8476115, "care_type": "Chiropractor"}, {"name": "Beverly Bigbee, DC", "address": "1221 Kapiolani Blvd, Honolulu, HI 96814", "city": "Honolulu", "phone": "+1 808-591-8426", "website": "", "rating": 4.2, "reviews": 5, "place_id": "ChIJiQVzIuVtAHwRuGMnpLc6gfc", "latitude": 21.2950861, "longitude": -157.8476114, "care_type": "Chiropractor"}, {"name": "Bryan Luke", "address": "1314 S King St STE 425, Honolulu, HI 968141939", "city": "Honolulu", "phone": "+1 808-591-2400", "website": "", "rating": 1.0, "reviews": 1, "place_id": "ChIJxWJZLultAHwR7elwwaHJYXw", "latitude": 21.2990861, "longitude": -157.8414934, "care_type": "Chiropractor"}, {"name": "Michael J. Masters, DC", "address": "1010 S King St, Honolulu, HI 96814", "city": "Honolulu", "phone": "+1 808-591-0099", "website": "", "rating": 5.0, "reviews": 6, "place_id": "ChIJWdMF-eZtAHwRtccs7yVBwC8", "latitude": 21.3020985, "longitude": -157.8483857, "care_type": "Chiropractor"}, {"name": "Sandee Shanti, DC", "address": "Green St Suite 3, Honolulu, HI 96822", "city": "Honolulu", "phone": "+1 808-538-0944", "website": "http://docshanti.com/", "rating": 4.9, "reviews": 7, "place_id": "ChIJT2eOtMJtAHwR5MR4dtbE7Jk", "latitude": 21.305985, "longitude": -157.8446817, "care_type": "Chiropractor"}, {"name": "Dr. Dennis G Rhatigan, DC", "address": "2347 Makanani Dr, Honolulu, HI 96817", "city": "Honolulu", "phone": "+1 808-841-3456", "website": "https://www.naturalhealthhawaii.com/chiropractic", "rating": 5.0, "reviews": 1, "place_id": "ChIJcZxi74NuAHwRDfUEeRUUTXU", "latitude": 21.3359835, "longitude": -157.8622538, "care_type": "Chiropractor"}, {"name": "Sport Family Chiropractic", "address": "31 S Beretania St., Honolulu, HI 96813", "city": "Honolulu", "phone": "+1 808-524-8813", "website": "", "rating": 4.0, "reviews": 1, "place_id": "ChIJgW3YzHVuAHwRl97o5G4wfdI", "latitude": 21.3115687, "longitude": -157.8598699, "care_type": "Chiropractor"}, {"name": "Bruce Wong", "address": "1347 Kapiolani Blvd 3rd floor, Honolulu, HI 968144512", "city": "Honolulu", "phone": "+1 808-943-2872", "website": "", "rating": 5.0, "reviews": 1, "place_id": "ChIJgQhMVuVtAHwREXSdsluOStI", "latitude": 21.293993, "longitude": -157.845173, "care_type": "Chiropractor"}, {"name": "Hong Zeng J. Yuen-Schat, DC (Dr. Zen)", "address": "1188 Bishop St STE 3301, Honolulu, HI 96813", "city": "Honolulu", "phone": "+1 808-599-2700", "website": "http://thezencenter.com/", "rating": 5.0, "reviews": 2, "place_id": "ChIJY1-TuXVuAHwR5U09lyLKuDk", "latitude": 21.310485, "longitude": -157.858976, "care_type": "Chiropractor"}, {"name": "Holisticare Physical Therapy", "address": "1350 S King St #300, Honolulu, HI 96814", "city": "Honolulu", "phone": "+1 808-348-6336", "website": "http://holisticarephysicaltherapy.com/", "rating": 4.9, "reviews": 105, "place_id": "ChIJ8cSIq-RtAHwRMjZII27odhk", "latitude": 21.2990797, "longitude": -157.8408502, "care_type": "Chiropractor"}, {"name": "Yamauchi Chiropractic Inc", "address": "1221 Kapiolani Blvd #525, Honolulu, HI 96814", "city": "Honolulu", "phone": "+1 808-593-9941", "website": "", "rating": null, "reviews": 0, "place_id": "ChIJiQVzIuVtAHwRvu3Mf_JYOEU", "latitude": 21.2951208, "longitude": -157.8475074, "care_type": "Chiropractor"}, {"name": "Aina Haina Chiropractic @ The Waikiki Health Ctr", "address": "277 \u02bb\u014chua Ave, Honolulu, HI 96815", "city": "Honolulu", "phone": "+1 808-738-8825", "website": "", "rating": null, "reviews": 0, "place_id": "ChIJZ6w_0nlyAHwRh_rTratcwyU", "latitude": 21.2755933, "longitude": -157.8205314, "care_type": "Chiropractor"}, {"name": "Dr. Damian Smith", "address": "1314 S King St STE 1655, Honolulu, HI 96814", "city": "Honolulu", "phone": "+1 808-924-7246", "website": "", "rating": 5.0, "reviews": 1, "place_id": "ChIJke1eLultAHwRPWYugsayjEE", "latitude": 21.2989654, "longitude": -157.841115, "care_type": "Chiropractor"}, {"name": "The Arthritis Laser Treatment Center", "address": "1441 Kapiolani Blvd #513, Honolulu, HI 96814", "city": "Honolulu", "phone": "+1 808-596-4800", "website": "https://www.dralosa.com/", "rating": 4.9, "reviews": 19, "place_id": "ChIJiQVzIuVtAHwRhOnFJ8W5q9w", "latitude": 21.291298, "longitude": -157.8433791, "care_type": "Chiropractor"}, {"name": "Alosa Family Chiropractic", "address": "1221 Kapiolani Blvd # 201, Honolulu, HI 96814", "city": "Honolulu", "phone": "+1 808-596-4800", "website": "", "rating": null, "reviews": 0, "place_id": "ChIJiQVzIuVtAHwRO7NGJkrMtVI", "latitude": 21.2951208, "longitude": -157.8475074, "care_type": "Chiropractor"}, {"name": "Perfect Health Chiropractic", "address": "1221 Kapiolani Blvd, Honolulu, HI 96814", "city": "Honolulu", "phone": "+1 808-591-8426", "website": "", "rating": null, "reviews": 0, "place_id": "ChIJiQVzIuVtAHwR60PpNmnZukk", "latitude": 21.2951208, "longitude": -157.8475074, "care_type": "Chiropractor"}, {"name": "Elliott Hirai, DC", "address": "1010 S King St, Honolulu, HI 96814", "city": "Honolulu", "phone": "+1 808-591-0099", "website": "", "rating": null, "reviews": 0, "place_id": "ChIJWdMF-eZtAHwRsweOrtSmHHE", "latitude": 21.3020985, "longitude": -157.8483857, "care_type": "Chiropractor"}, {"name": "Dr. Anson Ho", "address": "100 N Beretania St #116, Honolulu, HI 96817", "city": "Honolulu", "phone": "+1 808-518-9807", "website": "https://www.holisticarephysicaltherapy.com/", "rating": 3.5, "reviews": 2, "place_id": "ChIJWRdmlXttAHwRNVt--B7f820", "latitude": 21.314431, "longitude": -157.8613099, "care_type": "Chiropractor"}, {"name": "Dr. Gary Bell", "address": "1525 Kal\u0101kaua Ave, Honolulu, HI 96814", "city": "Honolulu", "phone": "+1 808-942-1144", "website": "https://www.808doc.com/", "rating": 1.0, "reviews": 2, "place_id": "ChIJ4-01s2RtAHwRQxOGZijaXNU", "latitude": 21.2965491, "longitude": -157.8372082, "care_type": "Chiropractor"}, {"name": "Thomas Iwashita, DC", "address": "401 Kamakee St suit 320, Honolulu, HI 96814", "city": "Honolulu", "phone": "+1 808-295-4422", "website": "", "rating": null, "reviews": 0, "place_id": "ChIJQyyCz21tAHwRXruGBT0rWrs", "latitude": 21.2945666, "longitude": -157.8514363, "care_type": "Chiropractor"}, {"name": "Dr. Sarah Padrutt", "address": "677 Ala Moana Blvd #914, Honolulu, HI 96813", "city": "Honolulu", "phone": "+1 808-521-9686", "website": "https://www.globalhealthchiropractic.com/", "rating": null, "reviews": 0, "place_id": "ChIJQZWqzwhuAHwR21MTofS7SYs", "latitude": 21.2977963, "longitude": -157.8623749, "care_type": "Chiropractor"}, {"name": "Dr. Doo Hyun Kwak, DC (\uacfd\ub450\ud604)", "address": "1441 Kapiolani Blvd # 708, Honolulu, HI 96814", "city": "Honolulu", "phone": "+1 808-551-4548", "website": "http://www.hnlqsm3.com/", "rating": null, "reviews": 0, "place_id": "ChIJ6yfNTuVtAHwRA7LlWbDx3vM", "latitude": 21.2927076, "longitude": -157.8430104, "care_type": "Chiropractor"}, {"name": "Injury Care Clinic", "address": "1221 Kapiolani Blvd # 6G, Honolulu, HI 96814", "city": "Honolulu", "phone": "+1 808-591-8000", "website": "", "rating": 5.0, "reviews": 1, "place_id": "ChIJiQVzIuVtAHwRJV5gGJQELhM", "latitude": 21.2951208, "longitude": -157.8475074, "care_type": "Chiropractor"}, {"name": "McCully Chiropractic Center", "address": "1145 S King St # A, Honolulu, HI 96814", "city": "Honolulu", "phone": "+1 808-597-9160", "website": "", "rating": null, "reviews": 0, "place_id": "ChIJY17Jp-htAHwRS04KOXqsidE", "latitude": 21.2999457, "longitude": -157.8449055, "care_type": "Chiropractor"}, {"name": "Kylen K. IHA, DC", "address": "1314 S King St, Honolulu, HI 96814", "city": "Honolulu", "phone": "+1 808-589-2611", "website": "", "rating": null, "reviews": 0, "place_id": "ChIJhQlMJeltAHwRQC7d11JpHi8", "latitude": 21.2992951, "longitude": -157.8412056, "care_type": "Chiropractor"}, {"name": "Brewer Chiropractic", "address": "1150 S King St STE 604, Honolulu, HI 96814", "city": "Honolulu", "phone": "+1 808-593-0313", "website": "", "rating": null, "reviews": 0, "place_id": "ChIJf0s8n-htAHwRBn9Q5izyxm4", "latitude": 21.3005995, "longitude": -157.8447198, "care_type": "Chiropractor"}, {"name": "Gregory S. Shiu, DC", "address": "1314 S King St STE 1260, Honolulu, HI 96814", "city": "Honolulu", "phone": "+1 808-591-2622", "website": "http://akdocshiu.com/", "rating": null, "reviews": 0, "place_id": "ChIJhQlMJeltAHwRvu_hhlzoI3M", "latitude": 21.2993061, "longitude": -157.8412604, "care_type": "Chiropractor"}, {"name": "Advanced Family Chiropractic", "address": "1314 S King St Suite 1564, Honolulu, HI 96814", "city": "Honolulu", "phone": "+1 808-388-1208", "website": "", "rating": null, "reviews": 0, "place_id": "ChIJhQlMJeltAHwRMr6u2MbecQo", "latitude": 21.299366, "longitude": -157.841349, "care_type": "Chiropractor"}, {"name": "Mitchel T. Shimamura, DC", "address": "1451 S King St #201, Honolulu, HI 96814", "city": "Honolulu", "phone": "+1 808-847-8087", "website": "", "rating": null, "reviews": 0, "place_id": "ChIJF3Vb7WRuAHwRvuhBsSzDCkc", "latitude": 21.2977238, "longitude": -157.8391802, "care_type": "Chiropractor"}, {"name": "Lyons Reid DC", "address": "Honolulu, HI 96813", "city": "Honolulu", "phone": "+1 808-277-6828", "website": "", "rating": null, "reviews": 0, "place_id": "ChIJ_____9ptAHwR9fNXugmod40", "latitude": 21.3136654, "longitude": -157.8480155, "care_type": "Chiropractor"}, {"name": "William K. Watanabe Sr, DC", "address": "1145 S King St # A, Honolulu, HI 96814", "city": "Honolulu", "phone": "+1 808-597-9160", "website": "", "rating": null, "reviews": 0, "place_id": "ChIJLWj_puhtAHwRtQgBfrmxaoE", "latitude": 21.2999457, "longitude": -157.8449055, "care_type": "Chiropractor"},