[{"name": "Bloomington Wellness Center", "address": "5143 W 98th St, Bloomington, MN 55437", "city": "Bloomington", "phone": "+1 952-881-2800", "website": "http://www.wellbloomington.com/", "rating": 4.9, "reviews": 671, "place_id": "ChIJmfCL0Ggj9ocRSse8BgQfmvk", "latitude": 44.823995, "longitude": -93.347938, "care_type": "Chiropractor"}, {"name": "ChiroClub Chiropractic Bloomington", "address": "7700 W Old Shakopee Rd STE 180, Bloomington, MN 55438", "city": "Bloomington", "phone": "+1 952-955-9892", "website": "http://www.chiroclub.net/", "rating": 5.0, "reviews": 80, "place_id": "ChIJi5_tBZUi9ocRd1Cx3KP5Wfg", "latitude": 44.8091626, "longitude": -93.3852266, "care_type": "Chiropractor"}, {"name": "Dr. Brenda-Chiropractor", "address": "2934 W 66th St Ste 37, Edina, MN 55423", "city": "Edina", "phone": "+1 612-554-1290", "website": "https://www.drbchiropractor.com/%3Futm_source%3Dgmb%26utm_medium%3Dorganic", "rating": 4.9, "reviews": 278, "place_id": "ChIJj81GoWIl9ocR7rz2_Ym5UFc", "latitude": 44.884996, "longitude": -93.31764869999999, "care_type": "Chiropractor"}, {"name": "The Joint Chiropractic", "address": "7913 Southtown Ctr #308, Bloomington, MN 55431", "city": "Bloomington", "phone": "+1 651-362-4367", "website": "https://www.thejoint.com/minnesota/bloomington/bloomington-32008", "rating": 4.8, "reviews": 256, "place_id": "ChIJBaxiFTYk9ocRoY3ACGo1qUc", "latitude": 44.8605585, "longitude": -93.30674669999999, "care_type": "Chiropractor"}, {"name": "Bloomington Clinic at NWHSU", "address": "2501 W 84th St Door #1, Bloomington, MN 55431", "city": "Bloomington", "phone": "+1 952-885-5444", "website": "https://www.nwhealth.edu/clinics/health-clinic-bloomington/", "rating": 4.6, "reviews": 172, "place_id": "ChIJc5C5ww8l9ocRZ5xe5mXzR50", "latitude": 44.8512682, "longitude": -93.31246449999999, "care_type": "Chiropractor"}, {"name": "Hutchinson Chiropractic And Wellness", "address": "233 Hassan St SE, Hutchinson, MN 55350", "city": "Hutchinson", "phone": "+1 320-234-3584", "website": "https://hutchinsonchiropractic.com/", "rating": 5.0, "reviews": 78, "place_id": "ChIJjcS6OcqB9YcR7d9Y5v01lIE", "latitude": 44.88915069999999, "longitude": -94.3672632, "care_type": "Chiropractor"}, {"name": "ChiroCenter Chiropractic & Wellness Plymouth", "address": "3900 Vinewood Ln N SUITE 19, Plymouth, MN 55441", "city": "Plymouth", "phone": "+1 763-559-9236", "website": "https://chirocentermn.com/find-a-location/plymouth", "rating": 4.9, "reviews": 66, "place_id": "ChIJhx9oqPRJs1IRyxdsYy7jYp4", "latitude": 45.0269472, "longitude": -93.447058, "care_type": "Chiropractor"}, {"name": "Team Health Care Clinic, PC", "address": "12217 Champlin Dr, Champlin, MN 55316", "city": "Champlin", "phone": "+1 763-323-1492", "website": "https://teamhealthcareclinic.com/", "rating": 4.8, "reviews": 267, "place_id": "ChIJvRYuGc0-s1IR4ghnQvdmQRI", "latitude": 45.175433, "longitude": -93.393513, "care_type": "Chiropractor"}, {"name": "HealthSource Chiropractic of Champlin", "address": "11225 Commerce Dr N, Champlin, MN 55316", "city": "Champlin", "phone": "+1 763-421-8588", "website": "https://www.healthsourcechiro.com/location/champlin", "rating": 5.0, "reviews": 90, "place_id": "ChIJ9w7eQjs5s1IRyQCwVf_z0sg", "latitude": 45.15832, "longitude": -93.39341999999999, "care_type": "Chiropractor"}, {"name": "Achieve Health Chiropractic", "address": "11650 Winnetka Ave N, Champlin, MN 55316", "city": "Champlin", "phone": "+1 763-323-3456", "website": "https://www.champlinchiropractic.com/", "rating": 5.0, "reviews": 40, "place_id": "ChIJER7eMzw5s1IR01xG3r2LVFA", "latitude": 45.165654, "longitude": -93.380144, "care_type": "Chiropractor"}, {"name": "Advanced Wellness & Sports Rehab: Dr. Diane Smith", "address": "11132 Commerce Dr N, Champlin, MN 55316", "city": "Champlin", "phone": "+1 763-291-0202", "website": "https://www.advancedwellnessandsports.com/", "rating": 4.8, "reviews": 19, "place_id": "ChIJU3MNXko4s1IRFCa7KobE_Y4", "latitude": 45.1571211, "longitude": -93.39307889999999, "care_type": "Chiropractor"}, {"name": "Bammert Family Chiropractic", "address": "11583 Theatre Dr N, Champlin, MN 55316", "city": "Champlin", "phone": "+1 763-427-4300", "website": "https://bammertfamilychiropractic.com/%3Fschedule_source%3DGMB", "rating": 5.0, "reviews": 84, "place_id": "ChIJ3-Wcvjo5s1IRxwd55sZDUy8", "latitude": 45.1638357, "longitude": -93.394125, "care_type": "Chiropractor"}, {"name": "Summit Chiropractic", "address": "11030 Douglas Dr N, Champlin, MN 55316", "city": "Champlin", "phone": "+1 763-571-2115", "website": "http://champlinchiropractors.com/", "rating": 5.0, "reviews": 21, "place_id": "ChIJvzGvqd87s1IRrMA3sE6QFUU", "latitude": 45.1537425, "longitude": -93.3599916, "care_type": "Chiropractor"}, {"name": "Champlin-Dayton Chiropractic: Anderson Laurie J DC", "address": "11225 Commerce Dr N, Champlin, MN 55316", "city": "Champlin", "phone": "+1 763-421-8588", "website": "", "rating": 5.0, "reviews": 1, "place_id": "ChIJJ9ht0jw5s1IRsb7cir6ATWs", "latitude": 45.1583222, "longitude": -93.39333719999999, "care_type": "Chiropractor"}, {"name": "Dr. Alex Onsomu", "address": "11030 Douglas Dr N #3466, Champlin, MN 55316", "city": "Champlin", "phone": "+1 763-571-2115", "website": "https://www.summitchiromn.com/meet-the-staff", "rating": 5.0, "reviews": 1, "place_id": "ChIJVVVl_t47s1IRxmm8VSz5Tio", "latitude": 45.1537526, "longitude": -93.35991229999999, "care_type": "Chiropractor"}, {"name": "Lee David R DC", "address": "11650 Winnetka Ave N, Champlin, MN 55316", "city": "Champlin", "phone": "+1 763-323-3456", "website": "", "rating": 5.0, "reviews": 1, "place_id": "ChIJSc_hlEg5s1IR_ShErTEFbdg", "latitude": 45.1656538, "longitude": -93.38014369999999, "care_type": "Chiropractor"}, {"name": "Prior Lake Spine Health & Injury Center", "address": "15815 Franklin Trail SE #100, Prior Lake, MN 55372", "city": "Prior Lake", "phone": "+1 952-226-5100", "website": "https://www.priorlakespine.com/", "rating": 5.0, "reviews": 165, "place_id": "ChIJJXlZQ_cV9ocRwCZGtlPNzVE", "latitude": 44.72001299999999, "longitude": -93.4136333, "care_type": "Chiropractor"}, {"name": "Prior Lake Chiropractic Center", "address": "7447 Egan Dr Suite 120, Savage, MN 55378", "city": "Savage", "phone": "+1 952-447-8980", "website": "http://www.savagechiropractor.com/", "rating": 4.9, "reviews": 339, "place_id": "ChIJMW_MWbM99ocR2X8hNyjBYE8", "latitude": 44.745783, "longitude": -93.3742759, "care_type": "Chiropractor"}, {"name": "HealthSource Chiropractic of Prior Lake", "address": "6880 Boudin St NE STE 230, Prior Lake, MN 55372", "city": "Prior Lake", "phone": "+1 952-447-0985", "website": "https://www.healthsourcechiro.com/location/prior-lake", "rating": 4.9, "reviews": 78, "place_id": "ChIJT2JtCFUZ2YgRyKgwPHqJi3c", "latitude": 44.742147, "longitude": -93.38135799999999, "care_type": "Chiropractor"}, {"name": "Prior Lake Natural Health Clinic", "address": "Prior Lake Professional Building, 16228 Main Ave SE #105, Prior Lake, MN 55372", "city": "Prior Lake", "phone": "+1 952-226-1140", "website": "http://priorlakenaturalhealth.com/", "rating": 5.0, "reviews": 20, "place_id": "ChIJhd8ts_AV9ocR87CH9Dw9f5M", "latitude": 44.7142619, "longitude": -93.4243619, "care_type": "Chiropractor"}, {"name": "Lakeside Chiropractic", "address": "6885 Boudin St NE Suite 200, Prior Lake, MN 55372", "city": "Prior Lake", "phone": "+1 651-583-8971", "website": "http://www.lakesidechiromn.com/", "rating": 5.0, "reviews": 102, "place_id": "ChIJ_Y8xhFY99ocR6DKMs14YjUk", "latitude": 44.7400819, "longitude": -93.3823173, "care_type": "Chiropractor"}, {"name": "Chirohouse Clinic | Chiropractic, Massage and Injury Rehabilitation | Prior Lake", "address": "14070 Commerce Ave NE Suite 200, Prior Lake, MN 55372", "city": "Prior Lake", "phone": "+1 952-855-1230", "website": "https://www.chirohouseclinic.com/", "rating": 5.0, "reviews": 140, "place_id": "ChIJj4tLNuI99ocRzx0Q8MQPyAg", "latitude": 44.7452076, "longitude": -93.3812809, "care_type": "Chiropractor"}, {"name": "Pathways Chiropractic Center of Prior Lake (a Curis Functional Health Clinic)", "address": "16154 Main Ave SE #134, Prior Lake, MN 55372", "city": "Prior Lake", "phone": "+1 952-592-7146", "website": "https://gocuris.com/prior-lake/", "rating": 4.9, "reviews": 108, "place_id": "ChIJ1eJABPoV9ocRr6aDyMIT1BQ", "latitude": 44.7155183, "longitude": -93.4239405, "care_type": "Chiropractor"}, {"name": "Lemke Chiropractic", "address": "5116 Gateway St SE # 202, Prior Lake, MN 55372", "city": "Prior Lake", "phone": "+1 952-440-2225", "website": "", "rating": 5.0, "reviews": 4, "place_id": "ChIJATqtuQM-9ocR8JrcTktdBWo", "latitude": 44.7187838, "longitude": -93.4163975, "care_type": "Chiropractor"}, {"name": "Prior Lake Spinal Care | Dr. James Pietrek", "address": "8170 Old Carriage Ct, Shakopee, MN 55379", "city": "Shakopee", "phone": "+1 952-444-6030", "website": "http://www.priorlakespinalcare.com/", "rating": 4.8, "reviews": 32, "place_id": "ChIJE8hXe0w_9ocRSmdzGd9CZLA", "latitude": 44.78182049999999, "longitude": -93.4141922, "care_type": "Chiropractor"}, {"name": "Spratt Todd J DC", "address": "5116 Gateway St SE # 202, Prior Lake, MN 55372", "city": "Prior Lake", "phone": "+1 952-440-2225", "website": "", "rating": 5.0, "reviews": 40, "place_id": "ChIJATqtuQM-9ocR98ONnq8oiKs", "latitude": 44.7187793, "longitude": -93.41649749999999, "care_type": "Chiropractor"}, {"name": "Kuntz Bradley DC - Prior Lake Chiropractic", "address": "Backside of building, 7447 Egan Dr Suite 120, Savage, MN 55378", "city": "Savage", "phone": "+1 952-447-8980", "website": "http://www.savagechiropractor.com/", "rating": 5.0, "reviews": 6, "place_id": "ChIJQ2VhitA99ocRH633oT0KBgY", "latitude": 44.7457755, "longitude": -93.37427919999999, "care_type": "Chiropractor"}, {"name": "Domier Chiropractic", "address": "16180 Hastings Ave SE # 202, Prior Lake, MN 55372", "city": "Prior Lake", "phone": "+1 952-999-1353", "website": "http://www.domierchiropractic.com/", "rating": 5.0, "reviews": 32, "place_id": "ChIJVVUVA_oV9ocRo29x9V3viX4", "latitude": 44.7140448, "longitude": -93.4239221, "care_type": "Chiropractor"}, {"name": "Pivotal Family Chiropractic", "address": "16731 State Hwy 13 SUITE 107A, Prior Lake, MN 55372", "city": "Prior Lake", "phone": "+1 952-226-3993", "website": "http://pivotalfamilychiropractic.com/", "rating": 5.0, "reviews": 62, "place_id": "ChIJmY4yVSoV9ocR-GXwn-SqulQ", "latitude": 44.7070262, "longitude": -93.4284392, "care_type": "Chiropractor"}, {"name": "Advantage Chiropractic and Wellness", "address": "16197 Main Ave SE, Prior Lake, MN 55372", "city": "Prior Lake", "phone": "+1 952-688-9828", "website": "", "rating": 5.0, "reviews": 7, "place_id": "ChIJJXlZQ_cV9ocRf9kKKdblTwQ", "latitude": 44.7145499, "longitude": -93.423924, "care_type": "Chiropractor"}, {"name": "Vitality Chiropractic & Wellness Center", "address": "16670 Franklin Trail SE #260, Prior Lake, MN 55372", "city": "Prior Lake", "phone": "+1 952-479-0008", "website": "http://myvitalitychiroandwellness.com/%3Futm_source%3Dgmb%26utm_medium%3Dorganic", "rating": 5.0, "reviews": 4, "place_id": "ChIJBxVaxz8-9ocR6g6Bjtq7LNw", "latitude": 44.7092479, "longitude": -93.4246533, "care_type": "Chiropractor"}, {"name": "Johnson Spinal Care - Savage", "address": "8678 Eagle Creek Cir, Savage, MN 55378", "city": "Savage", "phone": "+1 952-432-3333", "website": "https://johnsonspinalcare.com/%3Futm_source%3DDirectories%26utm_medium%3DBusiness-Listings", "rating": 5.0, "reviews": 70, "place_id": "ChIJ30VL-zM99ocRwtiP_Y69M_M", "latitude": 44.7731941, "longitude": -93.3870481, "care_type": "Chiropractor"}, {"name": "Clearwater Chiropractic", "address": "14055 State Hwy 13, Savage, MN 55378", "city": "Savage", "phone": "+1 952-226-6800", "website": "https://www.clearwaterchiropracticmn.com/", "rating": 4.9, "reviews": 174, "place_id": "ChIJN67OrrQ99ocRbEcr7-vMU5U", "latitude": 44.7494115, "longitude": -93.37747859999999, "care_type": "Chiropractor"}, {"name": "The Chiro Edge", "address": "7447 Egan Dr # 201, Savage, MN 55378", "city": "Savage", "phone": "+1 952-447-3343", "website": "https://www.thechiroedgemn.com/", "rating": 5.0, "reviews": 28, "place_id": "ChIJjX17zsg99ocRRPpYRU_oGK0", "latitude": 44.745753, "longitude": -93.3742376, "care_type": "Chiropractor"}, {"name": "Pathways Chiropractic Health Center of Savage (a Curis Functional Health clinic)", "address": "14233 Oconnell Ct Suite 500, Savage, MN 55378", "city": "Savage", "phone": "+1 952-226-5502", "website": "https://www.pathwaysofsavage.com/", "rating": 5.0, "reviews": 36, "place_id": "ChIJ5biezBI89ocRmLbErzbiLsc", "latitude": 44.7457967, "longitude": -93.3498941, "care_type": "Chiropractor"}, {"name": "Dr. Joshua Rickert", "address": "15815 Franklin Trail SE #100, Prior Lake, MN 55372", "city": "Prior Lake", "phone": "+1 952-226-5100", "website": "https://www.priorlakespine.com/", "rating": 5.0, "reviews": 1, "place_id": "ChIJD1WVHQQ-9ocRoyc5L1ivIXM", "latitude": 44.72001299999999, "longitude": -93.4136333, "care_type": "Chiropractor"}, {"name": "Mission Chiropractic & Acupuncture", "address": "4109 Dean Lakes Blvd, Shakopee, MN 55379", "city": "Shakopee", "phone": "+1 612-767-2800", "website": "https://missionchiroacumn.com/", "rating": 4.9, "reviews": 103, "place_id": "ChIJA620bzUX9ocRHYab9cGoj1U", "latitude": 44.7795192, "longitude": -93.4687494, "care_type": "Chiropractor"}, {"name": "Lifeforce Family Chiropractic PA", "address": "8734 Egan Dr, Savage, MN 55378", "city": "Savage", "phone": "+1 952-746-4404", "website": "http://www.lifeforcefamilychiropractic.org/", "rating": 4.9, "reviews": 73, "place_id": "ChIJJZ6Bxbk99ocRbhibhIuZuT0", "latitude": 44.747148, "longitude": -93.390087, "care_type": "Chiropractor"}, {"name": "Bridge Chiropractic & Wellness", "address": "1755 17th Ave E, Shakopee, MN 55379", "city": "Shakopee", "phone": "+1 952-445-5250", "website": "https://bridgechiro.com/", "rating": 4.9, "reviews": 253, "place_id": "ChIJia5Gf8sQ9ocR9y6lokTAHPI", "latitude": 44.7741179, "longitude": -93.5007029, "care_type": "Chiropractor"}, {"name": "Spine & Sport Health", "address": "4203 Hwy 13 W, Savage, MN 55378", "city": "Savage", "phone": "+1 952-257-1436", "website": "https://www.spineandsporthealth.com/", "rating": 5.0, "reviews": 37, "place_id": "ChIJRZ1rnmY79ocR7J179IHQ1Qo", "latitude": 44.7780729, "longitude": -93.3328375, "care_type": "Chiropractor"}, {"name": "Thrive Healing Arts Center LLC", "address": "1751 Shoreline Blvd, Prior Lake, MN 55379", "city": "Prior Lake", "phone": "+1 952-226-2229", "website": "http://www.thrivehealingartscenter.com/contact-us.html", "rating": 5.0, "reviews": 1, "place_id": "ChIJVVWFgjk89ocRXI4EfZj8JzU", "latitude": 44.7045682, "longitude": -93.4850755, "care_type": "Chiropractor"}, {"name": "Beyond Wellness Chiropractic", "address": "5773 Egan Dr, Savage, MN 55378", "city": "Savage", "phone": "+1 952-652-3919", "website": "http://beyondwellnesschiromn.com/", "rating": 5.0, "reviews": 26, "place_id": "ChIJK_4EU_g99ocRhWXglwwiO7Q", "latitude": 44.7452362, "longitude": -93.35352499999999, "care_type": "Chiropractor"}, {"name": "Watkins Family Chiropractic", "address": "6001 Egan Dr Ste 120, Savage, MN 55378", "city": "Savage", "phone": "+1 952-440-4553", "website": "https://watkinsfamilychiropractic.com/", "rating": 5.0, "reviews": 223, "place_id": "ChIJzddkpwY-9ocRJFNSnjvxPD8", "latitude": 44.7460169, "longitude": -93.3560978, "care_type": "Chiropractor"}, {"name": "Tara L. Roman, DC", "address": "Prior Lake Professional Building, 16228 Main Ave SE, Prior Lake, MN 55372", "city": "Prior Lake", "phone": "+1 952-226-1140", "website": "http://www.priorlakenaturalhealth.com/", "rating": 5.0, "reviews": 2, "place_id": "ChIJhd8ts_AV9ocR9guBLIbBVqc", "latitude": 44.71429939999999, "longitude": -93.4246378, "care_type": "Chiropractor"}, {"name": "Caspers Chiropractic Center", "address": "1275 Ramsey St Suite 600, Shakopee, MN 55379", "city": "Shakopee", "phone": "+1 952-977-9933", "website": "https://www.casperschiropractic.com/", "rating": 5.0, "reviews": 99, "place_id": "ChIJF1PmXrQQ9ocRSlKHQT5S8u8", "latitude": 44.7815399, "longitude": -93.5031585, "care_type": "Chiropractor"}, {"name": "Anna Lano", "address": "15815 Franklin Trail SE #100, Prior Lake, MN 55372", "city": "Prior Lake", "phone": "+1 952-226-5100", "website": "", "rating": null, "reviews": 0, "place_id": "ChIJD1WVHQQ-9ocRbXuiUUZ2LhM", "latitude": 44.72001299999999, "longitude": -93.4136333, "care_type": "Chiropractor"}, {"name": "In Motion Chiropractic", "address": "14033 Commerce Ave NE suite 300-401, Prior Lake, MN 55372", "city": "Prior Lake", "phone": "+1 763-694-1974", "website": "", "rating": null, "reviews": 0, "place_id": "ChIJxQuNo2NLs1IRF3t6ZnMtzs0", "latitude": 44.7458576, "longitude": -93.3805258, "care_type": "Chiropractor"}, {"name": "Hidden Valley Chiropractic", "address": "4361 State Hwy 13, Savage, MN 55378", "city": "Savage", "phone": "+1 952-895-1120", "website": "https://hiddenvalleychiropractic.com/", "rating": 5.0, "reviews": 12, "place_id": "ChIJGUv_PW879ocR3dd84I1rUh8", "latitude": 44.77811579999999, "longitude": -93.33523199999999, "care_type": "Chiropractor"}, {"name": "Natural Living Chiropractic", "address": "4401 Egan Dr, Savage, MN 55378", "city": "Savage", "phone": "+1 952-239-4457", "website": "https://naturallivingchiropractic.com/", "rating": 5.0, "reviews": 18, "place_id": "ChIJv7QC2J089ocREdljNRqNfVE", "latitude": 44.74593, "longitude": -93.3351533, "care_type": "Chiropractor"}, {"name": "Healthy Life Chiropractic & Wellness, LLC", "address": "4078 County Rd 42 W, Savage, MN 55378", "city": "Savage", "phone": "+1 952-882-4654", "website": "", "rating": 5.0, "reviews": 7, "place_id": "ChIJ4UT0I3cq9ocRz_c-QCJ03J8", "latitude": 44.7474256, "longitude": -93.3316651, "care_type": "Chiropractor"}, {"name": "Finish Line Chiropractic", "address": "4401 Egan Dr Suite #100, Savage, MN 55378", "city": "Savage", "phone": "+1 952-746-4162", "website": "http://www.finishlinewellness.com/", "rating": 5.0, "reviews": 6, "place_id": "ChIJI3p8kcc79ocRwPQ2Uv64rAg", "latitude": 44.7459319, "longitude": -93.3351892, "care_type": "Chiropractor"}, {"name": "Benson Chiropractic", "address": "13677 Lynn Cir, Savage, MN 55378", "city": "Savage", "phone": "+1 952-890-2822", "website": "", "rating": 3.0, "reviews": 2, "place_id": "ChIJWyvKCIY79ocRpYrmBvAbhZw", "latitude": 44.7559506, "longitude": -93.3341487, "care_type": "Chiropractor"}, {"name": "Michael E. Novak, DC", "address": "Savage, MN 55378", "city": "Savage", "phone": "+1 952-895-1120", "website": "", "rating": null, "reviews": 0, "place_id": "ChIJGUv_PW879ocRT2kczOHL3Ac", "latitude": 44.7768513, "longitude": -93.32716579999999, "care_type": "Chiropractor"}, {"name": "Riverview Spine", "address": "5402 W Old Shakopee Rd, Bloomington, MN 55437", "city": "Bloomington", "phone": "+1 952-884-1507", "website": "https://www.riverviewspine.com/", "rating": 5.0, "reviews": 200, "place_id": "ChIJUWd_-04j9ocRGF92qWRfylg", "latitude": 44.8082388, "longitude": -93.3518941, "care_type": "Chiropractor"}, {"name": "Savage Chiropractic & Natural Cr", "address": "3000 County Rd 42 W, Burnsville, MN 55337", "city": "Burnsville", "phone": "+1 952-224-5448", "website": "", "rating": null, "reviews": 0, "place_id": "ChIJI0-06b879ocRsRRKZDuoc20", "latitude": 44.7469985, "longitude": -93.3179797, "care_type": "Chiropractor"}, {"name": "Body needs massage", "address": "Body needs massage, Savage, MN 55337", "city": "Savage", "phone": "", "website": "", "rating": null, "reviews": 0, "place_id": "ChIJGZqFQwA79ocRZEeZV4yPY_Q", "latitude": 44.7487259, "longitude": -93.3224587, "care_type": "Chiropractor"}, {"name": "Wade A. Lofton, DC", "address": "8734 Egan Dr, Savage, MN 55378", "city": "Savage", "phone": "+1 952-746-4404", "website": "https://www.lifeforcefamilychiropractic.org/page/doctor.html", "rating": 5.0, "reviews": 1, "place_id": "ChIJJZ6Bxbk99ocRIR982B2Intw", "latitude": 44.7468803, "longitude": -93.39054639999999, "care_type": "Chiropractor"}, {"name": "The Joint Chiropractic", "address": "722 County Rd 42 W, Burnsville, MN 55337", "city": "Burnsville", "phone": "+1 651-362-4228", "website": "https://www.thejoint.com/minnesota/burnsville/burnsville-32010", "rating": 4.8, "reviews": 227, "place_id": "ChIJH9_pnR479ocRPPegUJCw-n0", "latitude": 44.7474369, "longitude": -93.2887617, "care_type": "Chiropractor"}, {"name": "Valley Chiropractic Associates", "address": "2999 County Rd 42 W Suite 212, Burnsville, MN 55306", "city": "Burnsville", "phone": "+1 952-882-1965", "website": "https://www.valleychiroassoc.com/", "rating": 4.9, "reviews": 66, "place_id": "ChIJlRW1i8A79ocRfIjZtTzBlD4", "latitude": 44.7457284, "longitude": -93.3161224, "care_type": "Chiropractor"}, {"name": "HealthSource Chiropractic of Burnsville", "address": "278 E Travelers Trail, Burnsville, MN 55337", "city": "Burnsville", "phone": "+1 952-300-2050", "website": "https://www.healthsourcechiro.com/location/burnsville/", "rating": 4.9, "reviews": 64, "place_id": "ChIJCxOgCJI69ocRsB3U7Brullw", "latitude": 44.7769155, "longitude": -93.2758377, "care_type": "Chiropractor"}, {"name": "Amesbarry Chiropractic", "address": "Southcross Commons Building, 3000 County Rd 42 W # 100, Burnsville, MN 55337", "city": "Burnsville", "phone": "+1 952-894-9888", "website": "https://www.amesbarrychiro.com/%3FUTM_source%3DGBL", "rating": 4.9, "reviews": 200, "place_id": "ChIJlauFmrg79ocRo6NGAkyXXHA", "latitude": 44.7468738, "longitude": -93.3180113, "care_type": "Chiropractor"}, {"name": "Skyline Chiropractic", "address": "12940 Harriet Ave S #240, Burnsville, MN 55337", "city": "Burnsville", "phone": "+1 952-221-1047", "website": "https://www.skylinechiropractic.com/", "rating": 5.0, "reviews": 203, "place_id": "ChIJu3LFAPc69ocRTIQWALH_wrs", "latitude": 44.7684279, "longitude": -93.2861349, "care_type": "Chiropractor"}, {"name": "Paul W. Lemke, DC", "address": "5116 Gateway St SE, Prior Lake, MN 55372", "city": "Prior Lake", "phone": "+1 952-440-2225", "website": "http://www.priorlakechiropractors.com/", "rating": 5.0, "reviews": 2, "place_id": "ChIJATqtuQM-9ocRstngLUEh9kU", "latitude": 44.7187814, "longitude": -93.4164764, "care_type": "Chiropractor"}, {"name": "Breanna M. Seira Gonzalez, DC", "address": "Savage, MN 55378", "city": "Savage", "phone": "", "website": "http://www.savagechiropractor.com/", "rating": null, "reviews": 0, "place_id": "ChIJMW_MWbM99ocRIuz1-729mEU", "latitude": 44.7647329, "longitude": -93.35911469999999, "care_type": "Chiropractor"}, {"name": "Unite Chiropractic", "address": "8646 Eagle Creek Cir #113, Savage, MN 55378", "city": "Savage", "phone": "+1 612-564-0403", "website": "http://www.unitechiropractic.com/", "rating": null, "reviews": 0, "place_id": "ChIJjcdtw2w99ocRD05psMeFVqI", "latitude": 44.773248, "longitude": -93.3864637, "care_type": "Chiropractor"}, {"name": "Lance A. Zimney, DC", "address": "Savage, MN 55378", "city": "Savage", "phone": "+1 952-746-4404", "website": "", "rating": null, "reviews": 0, "place_id": "ChIJJZ6Bxbk99ocRVvGY_AVQKGI", "latitude": 44.7471138, "longitude": -93.39013639999999, "care_type": "Chiropractor"}, {"name": "Pura Vida Chiropractic & Wellness", "address": "403 W Burnsville Pkwy, Burnsville, MN 55337", "city": "Burnsville", "phone": "+1 952-895-4085", "website": "http://pura-vida-chiro.com/", "rating": 5.0, "reviews": 56, "place_id": "ChIJV0d0boY79ocRH3vR1VtHg3k", "latitude": 44.7693503, "longitude": -93.2842606, "care_type": "Chiropractor"}, {"name": "Peak Performance Chiropractic Center", "address": "12750 Nicollet Ave #303, Burnsville, MN 55337", "city": "Burnsville", "phone": "+1 952-807-9914", "website": "https://www.peakchiros.com/", "rating": 5.0, "reviews": 44, "place_id": "ChIJg_-8ul879ocRJX5glPAIlwg", "latitude": 44.77241189999999, "longitude": -93.2782467, "care_type": "Chiropractor"}, {"name": "White Chiropractic - DISC Centers of America Burnsville", "address": "14500 Burnhaven Dr #180, Burnsville, MN 55306", "city": "Burnsville", "phone": "+1 952-895-0660", "website": "https://whitechiropractic.net/appointment", "rating": 4.9, "reviews": 62, "place_id": "ChIJN3TwvOw69ocRczkZ1EnNQz8", "latitude": 44.7397689, "longitude": -93.28781359999999, "care_type": "Chiropractor"}, {"name": "James Midboe", "address": "4401 Egan Dr Suite #100, Savage, MN 55378", "city": "Savage", "phone": "+1 952-746-4162", "website": "", "rating": null, "reviews": 0, "place_id": "ChIJmbtyNYs79ocRYsoks3o5z40", "latitude": 44.7459319, "longitude": -93.3351892, "care_type": "Chiropractor"}, {"name": "Thrive Chiropractic & Health", "address": "511 County Rd 42 E, Burnsville, MN 55306", "city": "Burnsville", "phone": "+1 952-960-8120", "website": "https://www.thrivechiropracticandhealth.com/", "rating": 5.0, "reviews": 162, "place_id": "ChIJ2wOV0xM79ocRKC1AritL9Gs", "latitude": 44.73829569999999, "longitude": -93.26867, "care_type": "Chiropractor"}, {"name": "Sailer Chiropractic Center- Tonia M. Sailer, D.C.", "address": "403 W Burnsville Pkwy, Burnsville, MN 55337", "city": "Burnsville", "phone": "+1 952-895-4085", "website": "http://www.sailerchiropractic.com/", "rating": 5.0, "reviews": 13, "place_id": "ChIJH4KGp_Y69ocRh5f668CBZYw", "latitude": 44.76930189999999, "longitude": -93.2842799, "care_type": "Chiropractor"}, {"name": "Shakopee Family Chiropractic", "address": "8170 Old Carriage Ct suite 201, Shakopee, MN 55379", "city": "Shakopee", "phone": "+1 952-233-8040", "website": "http://www.shakopeefamilychiro.org/", "rating": 5.0, "reviews": 62, "place_id": "ChIJKzr1Z2E99ocR2xuDMjiEFh8", "latitude": 44.7818903, "longitude": -93.4142706, "care_type": "Chiropractor"}, {"name": "ChiroZone", "address": "9740 Irving Ave S, Bloomington, MN 55431", "city": "Bloomington", "phone": "+1 952-994-0988", "website": "http://www.chirozone.org/", "rating": 5.0, "reviews": 11, "place_id": "ChIJA2GpI-Ik9ocRlTNxKsG6NGs", "latitude": 44.8265229, "longitude": -93.3004369, "care_type": "Chiropractor"}, {"name": "Dr. Kenneth Barnett", "address": "14247 Oconnell Ct #275, Savage, MN 55378", "city": "Savage", "phone": "+1 952-226-5502", "website": "", "rating": null, "reviews": 0, "place_id": "ChIJH1w_zRI89ocRDbcR_3yYa3c", "latitude": 44.7453054, "longitude": -93.3507765, "care_type": "Chiropractor"}, {"name": "Dr. Ashley Hartman", "address": "4401 Egan Dr Suite #100, Savage, MN 55378", "city": "Savage", "phone": "+1 952-746-4162", "website": "", "rating": null, "reviews": 0, "place_id": "ChIJmbtyNYs79ocRJiAUSyStDjk", "latitude": 44.7459319, "longitude": -93.3351892, "care_type": "Chiropractor"}, {"name": "Oak Springs Chiropractic", "address": "1015 Helmo Ave N, Oakdale, MN 55128", "city": "Oakdale", "phone": "+1 651-739-2500", "website": "http://www.oschw.com/", "rating": 5.0, "reviews": 224, "place_id": "ChIJpZ3IHLPSslIRJgxH-B4v98w", "latitude": 44.9642867, "longitude": -92.95047609999999, "care_type": "Chiropractor"}, {"name": "Optimal Life Chiropractic", "address": "7591 9th St N #200, Oakdale, MN 55128", "city": "Oakdale", "phone": "+1 651-447-8811", "website": "http://www.optimallifemn.com/", "rating": 5.0, "reviews": 258, "place_id": "ChIJ9cHP8UDTslIR3pKBkR_3r0g", "latitude": 44.9604343, "longitude": -92.953075, "care_type": "Chiropractor"}, {"name": "Big Idea Chiropractic", "address": "7815 3rd St N STE 102, Oakdale, MN 55128", "city": "Oakdale", "phone": "+1 651-400-7777", "website": "https://www.bigideachiropractic.com/", "rating": 5.0, "reviews": 75, "place_id": "ChIJ__9PtfHX94cRjUIdPxWxTWQ", "latitude": 44.95041759999999, "longitude": -92.9462956, "care_type": "Chiropractor"}, {"name": "Parkview Chiropractic Clinic", "address": "968 Inwood Ave N, Oakdale, MN 55128", "city": "Oakdale", "phone": "+1 651-578-8588", "website": "https://www.parkviewchiro.com/%3FUTM_source%3DGBL", "rating": 5.0, "reviews": 124, "place_id": "ChIJVRAb1FTNslIRcpaxCqYGgH8", "latitude": 44.9627653, "longitude": -92.93486449999999, "care_type": "Chiropractor"}, {"name": "Beyond Chiropractic", "address": "7300 Hudson Blvd N Suite 210, Oakdale, MN 55128", "city": "Oakdale", "phone": "+1 651-288-1988", "website": "http://www.beyondchiropractic.com/", "rating": 5.0, "reviews": 33, "place_id": "ChIJuYouj5TX94cRgeiyUfrOiu8", "latitude": 44.9509737, "longitude": -92.9570141, "care_type": "Chiropractor"}, {"name": "St Croix Chiropractic Group", "address": "600 Inwood Ave N, Oakdale, MN 55128", "city": "Oakdale", "phone": "+1 651-735-1580", "website": "https://www.stcroixspine.com/", "rating": 5.0, "reviews": 7, "place_id": "ChIJR8XO_wLY94cRiQXkqPwNCU4", "latitude": 44.9555039, "longitude": -92.93515239999999, "care_type": "Chiropractor"}, {"name": "Oakdale Chiropractic", "address": "1399 Geneva Ave N, Oakdale, MN 55128", "city": "Oakdale", "phone": "+1 651-738-3499", "website": "http://www.drtoddwalker.com/", "rating": 5.0, "reviews": 3, "place_id": "ChIJKQulKS_TslIRA85dsKtIeqk", "latitude": 44.9682165, "longitude": -92.9844742, "care_type": "Chiropractor"}, {"name": "WellSpring Chiropractic", "address": "7029 10th St N, Oakdale, MN 55128", "city": "Oakdale", "phone": "+1 651-735-2201", "website": "https://www.wellspringchiropractic.com/", "rating": 5.0, "reviews": 4, "place_id": "ChIJk6Kt7szSslIRZ7RwpMQ9dlI", "latitude": 44.9625018, "longitude": -92.9635435, "care_type": "Chiropractor"}, {"name": "Vibrant Life Center", "address": "6070 50th St N, Oakdale, MN 55128", "city": "Oakdale", "phone": "+1 651-777-3611", "website": "https://www.vibrantlifecenter.com/", "rating": 4.7, "reviews": 95, "place_id": "ChIJeV3lYDPSslIRYQZ_-VR7SJA", "latitude": 45.0219828, "longitude": -92.9824672, "care_type": "Chiropractor"}, {"name": "The Clinic for Modern Wellness", "address": "5705 Hadley Ave N, Oakdale, MN 55128", "city": "Oakdale", "phone": "+1 651-538-4558", "website": "https://www.clinicformodernwellness.com/", "rating": 5.0, "reviews": 8, "place_id": "ChIJuabSvf3TslIRRpQBHukIi5c", "latitude": 45.0318181, "longitude": -92.983998, "care_type": "Chiropractor"}, {"name": "HealthSource Chiropractic of Elk River", "address": "18157 Carson Ct NW Suite C, Elk River, MN 55330", "city": "Elk River", "phone": "+1 763-441-0644", "website": "https://www.healthsourcechiro.com/location/elk-river", "rating": 5.0, "reviews": 364, "place_id": "ChIJ-zsVs0hps1IRU-aLJAmiI4o", "latitude": 45.3005005, "longitude": -93.5547603, "care_type": "Chiropractor"}, {"name": "Power Within Chiropractic of Elk River", "address": "630 Freeport Ave NW Suite 100, Elk River, MN 55330", "city": "Elk River", "phone": "+1 763-441-3830", "website": "https://www.powerwithinchiroofelkriver.com/", "rating": 5.0, "reviews": 153, "place_id": "ChIJ-zsVs0hps1IR8F7en23mlCs", "latitude": 45.3088805, "longitude": -93.5586094, "care_type": "Chiropractor"}, {"name": "Bodywise Chiropractic Center", "address": "19260 Evans St NW, Elk River, MN 55330", "city": "Elk River", "phone": "+1 763-441-7788", "website": "https://www.bodywisechiropractic.net/", "rating": 4.8, "reviews": 259, "place_id": "ChIJgaHHb7Rus1IRBmgcCDHytRg", "latitude": 45.3200958, "longitude": -93.5605911, "care_type": "Chiropractor"}, {"name": "Ideal Health", "address": "18322 Joplin St NW, Elk River, MN 55330", "city": "Elk River", "phone": "+1 763-441-0999", "website": "https://ihchiro.com/", "rating": 5.0, "reviews": 268, "place_id": "ChIJRTzzK79os1IRdVYrG6wSuKs", "latitude": 45.3037376, "longitude": -93.6087417, "care_type": "Chiropractor"}, {"name": "Healing Choices - Natural Healthcare Clinic", "address": "19021 Freeport St #500, Elk River, MN 55330", "city": "Elk River", "phone": "+1 763-241-5436", "website": "https://www.healingchoices.com/", "rating": 4.9, "reviews": 114, "place_id": "ChIJCWKxAUNps1IRiGEsffOFsUc", "latitude": 45.3138904, "longitude": -93.56020769999999, "care_type": "Chiropractor"}, {"name": "Lighthouse Chiropractic Health", "address": "578 Dodge Ave NW, Elk River, MN 55330", "city": "Elk River", "phone": "+1 763-441-1701", "website": "http://www.lhchiro.com/", "rating": 4.9, "reviews": 274, "place_id": "ChIJPRzNj09ps1IRTGO78eyjeAs", "latitude": 45.3084487, "longitude": -93.5555572, "care_type": "Chiropractor"}, {"name": "Collyard Chiropractic", "address": "815 US-10 Suite 201, Elk River, MN 55330", "city": "Elk River", "phone": "+1 763-274-0377", "website": "http://www.collyardchiro.com/", "rating": 5.0, "reviews": 52, "place_id": "ChIJ8fepiUZps1IRf7qASM3ns0k", "latitude": 45.3042668, "longitude": -93.56923619999999, "care_type": "Chiropractor"}, {"name": "Schomaker Chiropractic Clinic", "address": "19022 Freeport St suite d, Elk River, MN 55330", "city": "Elk River", "phone": "+1 763-253-2000", "website": "https://schomakerchiro.com/", "rating": 4.9, "reviews": 160, "place_id": "ChIJk579Wktps1IRv4J679Bfjd4", "latitude": 45.3138416, "longitude": -93.56179639999999, "care_type": "Chiropractor"}, {"name": "Hillside Chiropractic", "address": "19449 Evans St NW, Elk River, MN 55330", "city": "Elk River", "phone": "+1 763-241-5393", "website": "http://hillsidechiro.net/", "rating": 4.8, "reviews": 17, "place_id": "ChIJHTy8vLNus1IREhzfA7fsEno", "latitude": 45.324669, "longitude": -93.5596293, "care_type": "Chiropractor"}, {"name": "Landry Chiropractic, Inc.", "address": "586 Dodge Ave NW Ste. D, Elk River, MN 55330", "city": "Elk River", "phone": "+1 763-635-4429", "website": "http://www.dclandry.com/", "rating": 4.9, "reviews": 24, "place_id": "ChIJk6myG7Fus1IRmkq9I-KkhZw", "latitude": 45.3086433, "longitude": -93.5555725, "care_type": "Chiropractor"}, {"name": "Dr. Todd Anderson DC, MS - Functional Medicine & Applied Kinesiology", "address": "231 Main St NW Suite 2, Elk River, MN 55330", "city": "Elk River", "phone": "+1 763-760-9176", "website": "http://www.drtoddanderson.com/", "rating": 5.0, "reviews": 88, "place_id": "ChIJD35EyKQy34cRK_-SBci-ORY", "latitude": 45.3029518, "longitude": -93.5574314, "care_type": "Chiropractor"}, {"name": "iBackCheck Sport Therapy", "address": "1000 School St NW, Elk River, MN 55330", "city": "Elk River", "phone": "+1 763-400-7438", "website": "http://ibackcheck.com/", "rating": 4.9, "reviews": 29, "place_id": "ChIJDahRuBJps1IRLXrCviO8zis", "latitude": 45.3132603, "longitude": -93.5717597, "care_type": "Chiropractor"}, {"name": "Dr. Jordan Alberts", "address": "653 Main St NW, Elk River, MN 55330", "city": "Elk River", "phone": "+1 612-900-8546", "website": "https://elkriverchiropractic.com/", "rating": 5.0, "reviews": 2, "place_id": "ChIJJ2HsAz9ps1IRaIeovwUHp5Q", "latitude": 45.3028923, "longitude": -93.567073, "care_type": "Chiropractor"}, {"name": "Dr. Carrie Collyard-Glinsek", "address": "815 US-10 Ste F, Elk River, MN 55330", "city": "Elk River", "phone": "+1 763-274-0377", "website": "", "rating": 5.0, "reviews": 1, "place_id": "ChIJVVWFsD5ps1IRC8WWZThUmqw", "latitude": 45.3042668, "longitude": -93.56923619999999, "care_type": "Chiropractor"}, {"name": "Northwest Spine and Pain Center", "address": "13743 85th St NE, Otsego, MN 55330", "city": "Otsego", "phone": "+1 763-497-0899", "website": "http://www.nwspineandpain.com/", "rating": 5.0, "reviews": 51, "place_id": "ChIJqa4NNa5ds1IRRI-nLTuXysU", "latitude": 45.272976, "longitude": -93.6074008, "care_type": "Chiropractor"}, {"name": "Erick Thompson, DC", "address": "815 US-10 Suite 201, Elk River, MN 55330", "city": "Elk River", "phone": "+1 763-482-4187", "website": "http://collyardchiro.com/", "rating": 5.0, "reviews": 4, "place_id": "ChIJF_xX0bhos1IRtN3qAL7odME", "latitude": 45.3042794, "longitude": -93.5692455, "care_type": "Chiropractor"}, {"name": "Healing Hands Family Chiropractic", "address": "9125 Quaday Ave NE #102, Otsego, MN 55330", "city": "Otsego", "phone": "+1 763-274-0373", "website": "http://healinghandsfamilychiro.com/%3Futm_source%3DWebsite%26utm_medium%3DGMB", "rating": 5.0, "reviews": 377, "place_id": "ChIJR4pPWMJps1IRtZMSco2NESM", "latitude": 45.2829959, "longitude": -93.5649868, "care_type": "Chiropractor"}, {"name": "Dr. Jeff Schneider DC", "address": "19449 Evans St NW, Elk River, MN 55330", "city": "Elk River", "phone": "+1 763-241-5393", "website": "http://www.hillsidechiro.net/dr-jeff", "rating": null, "reviews": 0, "place_id": "ChIJu3X_CLNus1IRoYB0uHGASIU", "latitude": 45.3221769, "longitude": -93.5604978, "care_type": "Chiropractor"}, {"name": "Ripple Health Clinic", "address": "9000 Quantrelle Ave #240, Otsego, MN 55330", "city": "Otsego", "phone": "+1 763-432-9866", "website": "https://www.ripplehealthclinic.com/", "rating": 4.9, "reviews": 126, "place_id": "ChIJI6F9LcpDs1IRzRM-M2SXU6s", "latitude": 45.28220719999999, "longitude": -93.5574589, "care_type": "Chiropractor"}, {"name": "Great River Spine & Sport", "address": "751 Rose Dr Suite 108, Big Lake, MN 55309", "city": "Big Lake", "phone": "+1 763-207-8182", "website": "https://www.grssclinics.com/", "rating": 4.4, "reviews": 38, "place_id": "ChIJK33QK8hjs1IRBLR8nX7BcqU", "latitude": 45.3331892, "longitude": -93.7338723, "care_type": "Chiropractor"}, {"name": "Sandra L. Rebrovich, DC", "address": "18336 Joplin St NW, Elk River, MN 55330", "city": "Elk River", "phone": "+1 763-441-0999", "website": "", "rating": 5.0, "reviews": 1, "place_id": "ChIJRTzzK79os1IR3_Hgi0U7ToU", "latitude": 45.3041442, "longitude": -93.6087751, "care_type": "Chiropractor"}, {"name": "Martin O. Eng, DC", "address": "710 Dodge Ave NW F, Elk River, MN 55330", "city": "Elk River", "phone": "+1 763-441-1701", "website": "", "rating": null, "reviews": 0, "place_id": "ChIJPRzNj09ps1IRNLESa0WymPA", "latitude": 45.3108162, "longitude": -93.5567227, "care_type": "Chiropractor"}, {"name": "Dr. John Larson", "address": "200 5th St NW Suite J, Elk River, MN 55330", "city": "Elk River", "phone": "+1 763-241-5436", "website": "", "rating": 5.0, "reviews": 1, "place_id": "ChIJf5iHI1tps1IRqF68TOChijU", "latitude": 45.3072853, "longitude": -93.5543312, "care_type": "Chiropractor"}, {"name": "Otsego West Chiropractic", "address": "16201 90th St NE #110, Otsego, MN 55330", "city": "Otsego", "phone": "+1 763-633-9596", "website": "https://www.otsegowestchiro.com/", "rating": 5.0, "reviews": 10, "place_id": "ChIJ2RL01Z9ps1IRUKV-liSFU5Y", "latitude": 45.28190439999999, "longitude": -93.5586553, "care_type": "Chiropractor"}, {"name": "ChiroFix Acupuncture & Bodyworks", "address": "9175 Quaday Ave NE Suite #106, Otsego, MN 55330", "city": "Otsego", "phone": "+1 612-888-2353", "website": "http://www.thechirofix.com/", "rating": 5.0, "reviews": 98, "place_id": "ChIJQW8GAQtps1IRa7SPO1jS_4M", "latitude": 45.2837393, "longitude": -93.5648925, "care_type": "Chiropractor"}, {"name": "Howard Johnson", "address": "804 Freeport Ave NW SUITE 5, Elk River, MN 553302632", "city": "Elk River", "phone": "+1 763-441-3830", "website": "", "rating": 5.0, "reviews": 1, "place_id": "ChIJq6rqaU9ps1IRoWWlSTum-bw", "latitude": 45.31063779999999, "longitude": -93.5592379, "care_type": "Chiropractor"}, {"name": "AJ Linn Chiropractic", "address": "26144 3rd St E, Zimmerman, MN 55398", "city": "Zimmerman", "phone": "+1 763-856-8500", "website": "http://www.ajlinnchiro.com/", "rating": 4.8, "reviews": 27, "place_id": "ChIJCxDopBNxs1IRXNwllBPf2-w", "latitude": 45.4442525, "longitude": -93.5858056, "care_type": "Chiropractor"}, {"name": "Jennifer Dahlseid", "address": "200 5th St NW, Elk River, MN 55330", "city": "Elk River", "phone": "+1 763-241-5436", "website": "", "rating": null, "reviews": 0, "place_id": "ChIJn9foJVtps1IRwDxiE9lX6Us", "latitude": 45.3072853, "longitude": -93.5543313, "care_type": "Chiropractor"}, {"name": "Back Into Life Chiropractic", "address": "7533 Sunwood Dr NW #212A, Ramsey, MN 55303", "city": "Ramsey", "phone": "+1 763-712-5986", "website": "http://backintolifechiro.com/", "rating": 5.0, "reviews": 185, "place_id": "ChIJrYETrhNAs1IRY-QE71Iw3vA", "latitude": 45.23259909999999, "longitude": -93.4582252, "care_type": "Chiropractor"}, {"name": "Nelson Chiropractic Health Center", "address": "26065 Main St, Zimmerman, MN 55398", "city": "Zimmerman", "phone": "+1 763-856-2600", "website": "https://nelschiro.com/%3Fy_source%3D1_MjAxMzkwNzAxNi03MTUtbG9jYXRpb24ud2Vic2l0ZQ%253D%253D", "rating": 4.9, "reviews": 8, "place_id": "ChIJTej-9BFxs1IRi3O390CZglg", "latitude": 45.442847, "longitude": -93.5876705, "care_type": "Chiropractor"}, {"name": "Focused Health & Wellness Center: Eddy Michelle DC", "address": "18055 198th Ave, Big Lake, MN 55309", "city": "Big Lake", "phone": "+1 763-263-6287", "website": "", "rating": 5.0, "reviews": 9, "place_id": "ChIJaeazO5Vjs1IRqor617QpsAI", "latitude": 45.3317523, "longitude": -93.72775639999999, "care_type": "Chiropractor"}, {"name": "Seth S. Richter, DC", "address": "20965 S Diamond Lake Rd #108, Rogers, MN 55374", "city": "Rogers", "phone": "+1 763-424-5511", "website": "http://northerncommunitychiropractic.com/", "rating": 5.0, "reviews": 1, "place_id": "ChIJJ0QCPM9Ds1IR2P6bl71Upjo", "latitude": 45.1989826, "longitude": -93.54568569999999, "care_type": "Chiropractor"}, {"name": "Northstar Chiropractic", "address": "690 Humbolt Dr NW Suite C, Big Lake, MN 55309", "city": "Big Lake", "phone": "+1 763-263-8433", "website": "", "rating": 5.0, "reviews": 7, "place_id": "ChIJlUjme8Bjs1IRn9vfxGvAnEc", "latitude": 45.3316744, "longitude": -93.7346961, "care_type": "Chiropractor"}, {"name": "Animal & Exotic Wellness Center", "address": "19276 Evans St NW, Elk River, MN 55330", "city": "Elk River", "phone": "+1 763-633-7387", "website": "http://www.animalandexotic.com/", "rating": 3.7, "reviews": 64, "place_id": "ChIJ4fNNCLNus1IRX2CjDp6YpBI", "latitude": 45.3203495, "longitude": -93.5607156, "care_type": "Chiropractor"}, {"name": "HealthSource Chiropractic of Rogers", "address": "21418 Church Ave, Rogers, MN 55374", "city": "Rogers", "phone": "+1 763-428-1105", "website": "https://www.healthsourcechiro.com/location/rogers", "rating": 5.0, "reviews": 270, "place_id": "ChIJhY3l2LVDs1IRwvA2gjLiIrk", "latitude": 45.1890267, "longitude": -93.5523231, "care_type": "Chiropractor"}, {"name": "True Movement Chiropractic & Wellness", "address": "21151 John Milless Dr Suite C, Rogers, MN 55374", "city": "Rogers", "phone": "+1 763-496-6172", "website": "https://truemovementchiro.com/", "rating": 5.0, "reviews": 4, "place_id": "ChIJVbgkPvlDs1IRSbMmXSXg7VU", "latitude": 45.190301, "longitude": -93.5480886, "care_type": "Chiropractor"}, {"name": "Restore Chiropractic", "address": "15507 Grove Cir N, Maple Grove, MN 55369", "city": "Maple Grove", "phone": "+1 612-516-3090", "website": "https://www.restorechiro.life/", "rating": 4.9, "reviews": 234, "place_id": "ChIJNfQnVAdHs1IR_tZAeYsUBnY", "latitude": 45.1342793, "longitude": -93.47710769999999, "care_type": "Chiropractor"}, {"name": "Anchor Chiropractic", "address": "20965 S Diamond Lake Rd #108, Rogers, MN 55374", "city": "Rogers", "phone": "+1 763-424-5511", "website": "https://www.anchorchiromn.com/", "rating": 5.0, "reviews": 239, "place_id": "ChIJJ0QCPM9Ds1IRi-5zQXjjYf0", "latitude": 45.1989002, "longitude": -93.5455808, "care_type": "Chiropractor"}, {"name": "Polaris Chiropractic", "address": "1539 7th St E, Monticello, MN 55362", "city": "Monticello", "phone": "+1 763-296-4340", "website": "https://www.polaris-chiro.com/", "rating": 5.0, "reviews": 173, "place_id": "ChIJx9XfDWZhs1IRfpcDif5h_jw", "latitude": 45.2931649, "longitude": -93.7711605, "care_type": "Chiropractor"}, {"name": "TEAM Chiropractic & Wellness Center", "address": "355 Broadway St E, Monticello, MN 55362", "city": "Monticello", "phone": "+1 763-295-0303", "website": "http://monticellomnchiropractors.com/", "rating": 5.0, "reviews": 38, "place_id": "ChIJdT1unP1hs1IR9EwtDm7wwfY", "latitude": 45.304457, "longitude": -93.78939199999999, "care_type": "Chiropractor"}, {"name": "Mychaela Harp Koehler", "address": "804 Freeport Ave NW suite a, Elk River, MN 55330", "city": "Elk River", "phone": "+1 763-441-3830", "website": "https://weence.com/medical/doctors/elk-river/mychaela-harp-koehler/", "rating": null, "reviews": 0, "place_id": "ChIJq6rqaU9ps1IRNOmDrY2K7iM", "latitude": 45.31063779999999, "longitude": -93.5592379, "care_type": "Chiropractor"}, {"name": "The New Art Of Chiropractic - Maple Grove", "address": "16334 County Rd 30, Maple Grove, MN 55311", "city": "Maple Grove", "phone": "+1 763-416-1799", "website": "https://www.famchiropractic.com/maple-grove-mn/", "rating": 4.9, "reviews": 60, "place_id": "ChIJX1xaDVJGs1IRbJsmy2OALXo", "latitude": 45.126345, "longitude": -93.48803799999999, "care_type": "Chiropractor"}, {"name": "Dr. Jeremy Rebrovich", "address": "18322 Joplin St NW, Elk River, MN 55330", "city": "Elk River", "phone": "+1 763-441-0999", "website": "https://ihchiro.com/about-us/dr-jeremy/", "rating": null, "reviews": 0, "place_id": "ChIJfcu4Lrlos1IRgLMvVk2gRN4", "latitude": 45.3037376, "longitude": -93.6087417, "care_type": "Chiropractor"}, {"name": "Chaska Lakes Chiropractic", "address": "564 Bavaria Ln Suite 100, Chaska, MN 55318", "city": "Chaska", "phone": "+1 952-479-7297", "website": "https://www.chaskalakeschiro.com/", "rating": 4.9, "reviews": 60, "place_id": "ChIJi1LkxXEF9ocR3UFliRAj9-o", "latitude": 44.806441, "longitude": -93.612633, "care_type": "Chiropractor"}, {"name": "Lake Life Chiropractic - Chaska - Pediatric, Prenatal & Family Care", "address": "3650 N Chestnut St Suite 101A, Chaska, MN 55318", "city": "Chaska", "phone": "+1 612-562-8384", "website": "http://www.lakelifechiro.com/", "rating": 4.9, "reviews": 289, "place_id": "ChIJb8CAcx8F9ocR7znWMmoi8Ko", "latitude": 44.84249, "longitude": -93.5985046, "care_type": "Chiropractor"}, {"name": "Peak Chiropractic", "address": "1107 Hazeltine Blvd, Chaska, MN 55318", "city": "Chaska", "phone": "+1 952-600-5584", "website": "https://peak-chiro.com/appointment", "rating": 5.0, "reviews": 14, "place_id": "ChIJ-zgyKMoF9ocRqvIjyC2-a6M", "latitude": 44.835869, "longitude": -93.5989077, "care_type": "Chiropractor"}, {"name": "Sebenaler Chiropractic Center", "address": "119 W 4th St #3, Chaska, MN 55318", "city": "Chaska", "phone": "+1 952-448-9908", "website": "http://sebenalerchiropractic.com/", "rating": 5.0, "reviews": 15, "place_id": "ChIJx7MD1IwP9ocR_-F9CyLZOQU", "latitude": 44.7868139, "longitude": -93.6019163, "care_type": "Chiropractor"}, {"name": "Discover Chiropractic", "address": "1107 Hazeltine Blvd #100, Chaska, MN 55318", "city": "Chaska", "phone": "+1 952-368-4700", "website": "https://www.discoverchiropracticmn.com/%3Futm_medium%3DClick%26utm_source%3DGoogleMyBusiness", "rating": 4.9, "reviews": 122, "place_id": "ChIJAYXQRGgF9ocRej6R9ESkf_I", "latitude": 44.8358923, "longitude": -93.5990375, "care_type": "Chiropractor"}, {"name": "HealthSource Chiropractic of Chaska", "address": "1475 White Oak Dr, Chaska, MN 55318", "city": "Chaska", "phone": "+1 952-361-4844", "website": "https://www.healthsourcechiro.com/location/chaska", "rating": 5.0, "reviews": 57, "place_id": "ChIJ16dHsSEF9ocRLxlOnhCUL2g", "latitude": 44.804745, "longitude": -93.60338999999999, "care_type": "Chiropractor"}, {"name": "Enhanced Living Chiropractic", "address": "207 N Chestnut St Ste 130, Chaska, MN 55318", "city": "Chaska", "phone": "+1 952-426-1583", "website": "http://www.enhancedlivingchiropractic.com/", "rating": 5.0, "reviews": 39, "place_id": "ChIJj5V62gUP9ocRG8Dmi2w2PLo", "latitude": 44.7856791, "longitude": -93.6008086, "care_type": "Chiropractor"}, {"name": "Sugar Creek Chiropractic", "address": "112 W 2nd St A, Chaska, MN 55318", "city": "Chaska", "phone": "+1 952-448-2722", "website": "https://www.sugarcreekchiro.com/", "rating": 4.8, "reviews": 39, "place_id": "ChIJxRkrsPIP9ocRf6KrXsKHW58", "latitude": 44.7852839, "longitude": -93.60114519999999, "care_type": "Chiropractor"}, {"name": "Riesgraf Chiropractic Clinic", "address": "1476 White Oak Dr, Chaska, MN 55318", "city": "Chaska", "phone": "+1 952-448-3900", "website": "https://riesgrafchiroclinic.com/", "rating": 4.5, "reviews": 17, "place_id": "ChIJw2rVj2gF9ocRMLHWdtD51K8", "latitude": 44.80390389999999, "longitude": -93.6047036, "care_type": "Chiropractor"}, {"name": "Sutcliffe Chiropractic Center", "address": "424 N Chestnut St, Chaska, MN 55318", "city": "Chaska", "phone": "+1 952-448-4222", "website": "http://www.sutcliffechiropractic.com/", "rating": 5.0, "reviews": 4, "place_id": "ChIJtzM7SvMP9ocRX-ICA_bvG34", "latitude": 44.7881812, "longitude": -93.60119519999999, "care_type": "Chiropractor"}, {"name": "Heil Chiropractic Center Andover MN", "address": "13849 Round Lake Blvd NW, Andover, MN 55304", "city": "Andover", "phone": "+1 763-323-4855", "website": "https://andovermnchiropractor.com/", "rating": 5.0, "reviews": 75, "place_id": "ChIJZ9U3ds49s1IRXyratDapKl4", "latitude": 45.2222379, "longitude": -93.35655249999999, "care_type": "Chiropractor"}, {"name": "Andover Family Chiropractic", "address": "1573 154th Ave NW, Andover, MN 55304", "city": "Andover", "phone": "+1 763-413-0032", "website": "http://andoverfamilychiropractic.com/", "rating": 5.0, "reviews": 41, "place_id": "ChIJM8FB-lg9s1IRPBiJ9rxpx_M", "latitude": 45.2498654, "longitude": -93.3050921, "care_type": "Chiropractor"}, {"name": "City Chiropractic and Massage", "address": "15190 Bluebird St NW #108, Andover, MN 55304", "city": "Andover", "phone": "+1 763-706-8900", "website": "https://andoverdoc.com/", "rating": 5.0, "reviews": 111, "place_id": "ChIJN3L7Jgc9s1IRZNCS4HcsOVU", "latitude": 45.2462142, "longitude": -93.30564489999999, "care_type": "Chiropractor"}, {"name": "Health and Healing Family Chiropractic", "address": "2705 Bunker Lake Blvd NW #100, Andover, MN 55304", "city": "Andover", "phone": "+1 763-323-0061", "website": "https://www.healthandhealingchiro.com/", "rating": 4.9, "reviews": 282, "place_id": "ChIJZVvngB49s1IRL1VM9ktVjCw", "latitude": 45.2200116, "longitude": -93.3348094, "care_type": "Chiropractor"}, {"name": "Essentials of Life Chiropractic", "address": "1777 Bunker Lake Blvd NW #200, Andover, MN 55304", "city": "Andover", "phone": "+1 763-413-6934", "website": "https://www.elcmn.com/", "rating": 5.0, "reviews": 383, "place_id": "ChIJ-dxtxFs9s1IRcuN4AYu1BEk", "latitude": 45.2198951, "longitude": -93.3105928, "care_type": "Chiropractor"}, {"name": "Pratt Chiropractic", "address": "13750 Crosstown Dr NW #204, Andover, MN 55304", "city": "Andover", "phone": "+1 763-767-1800", "website": "http://www.doctorpratt.com/", "rating": 5.0, "reviews": 22, "place_id": "ChIJT7bs1qg9s1IRuYyaGMpyP5M", "latitude": 45.220578, "longitude": -93.3345136, "care_type": "Chiropractor"}, {"name": "Anoka Andover Chiropractic", "address": "3722 N 7th Ave, Anoka, MN 55303", "city": "Anoka", "phone": "+1 763-427-7122", "website": "https://www.anokaandoverchiro.com/", "rating": 5.0, "reviews": 23, "place_id": "ChIJb29Zeno-s1IRY9_O2TvFfNE", "latitude": 45.2207371, "longitude": -93.3773396, "care_type": "Chiropractor"}, {"name": "Essentials of Life Chiropractic: Anthony G. Lawther, DC", "address": "1777 Bunker Lake Blvd NW #200, Andover, MN 55304", "city": "Andover", "phone": "+1 763-413-6934", "website": "http://www.elcmn.com/", "rating": 5.0, "reviews": 2, "place_id": "ChIJxaD3uFs9s1IR4u_8ZjZ3Ll4", "latitude": 45.2198276, "longitude": -93.31070969999999, "care_type": "Chiropractor"}, {"name": "Wayne E. Pratt, DC", "address": "13750 Crosstown Dr NW, Andover, MN 55304", "city": "Andover", "phone": "+1 763-767-1800", "website": "", "rating": 5.0, "reviews": 6, "place_id": "ChIJT7bs1qg9s1IR66KO_nqISfI", "latitude": 45.2206074, "longitude": -93.33448059999999, "care_type": "Chiropractor"}, {"name": "Rhythm of Life Animal Chiropractic", "address": "1574 154th Ave NW Suite 108, Andover, MN 55304", "city": "Andover", "phone": "+1 651-278-8940", "website": "http://www.rhythmoflifechiro.com/", "rating": 4.3, "reviews": 23, "place_id": "ChIJY7mZNmois1IReq8r3x4GG-w", "latitude": 45.2483818, "longitude": -93.305387, "care_type": "Chiropractor"}, {"name": "Crosstown Chiropractic, PA", "address": "2330 Crosstown Blvd NE, Andover, MN 55304", "city": "Andover", "phone": "+1 763-434-5714", "website": "https://crosstownclinic.com/", "rating": 5.0, "reviews": 228, "place_id": "ChIJgcVXlS0fs1IR4vF7VyTKqWU", "latitude": 45.2839203, "longitude": -93.2107056, "care_type": "Chiropractor"}, {"name": "Abeler Chiropractic Clinic", "address": "600 E Main St, Anoka, MN 55303", "city": "Anoka", "phone": "+1 763-421-3722", "website": "http://www.abeler.mn/", "rating": 4.8, "reviews": 69, "place_id": "ChIJ656S05Y-s1IRnY2hwAnO6Es", "latitude": 45.1976129, "longitude": -93.38090729999999, "care_type": "Chiropractor"}, {"name": "Anoka Chiropractic", "address": "646 E River Rd #4, Anoka, MN 55303", "city": "Anoka", "phone": "+1 763-421-1410", "website": "http://anokachiropractic.com/", "rating": 5.0, "reviews": 86, "place_id": "ChIJCUkfnrs-s1IRL6JXS55DGLU", "latitude": 45.1874711, "longitude": -93.37940329999999, "care_type": "Chiropractor"}, {"name": "Brooklyn Chiropractic", "address": "7086 Brooklyn Blvd, Brooklyn Center, MN 55429", "city": "Brooklyn Center", "phone": "+1 763-533-3800", "website": "https://injuryhelpchiro.com/", "rating": 5.0, "reviews": 5, "place_id": "ChIJcYk7tbgws1IRji7q5OnJqOU", "latitude": 45.0832894, "longitude": -93.3388927, "care_type": "Chiropractor"}, {"name": "Brookdale Health", "address": "5740 Brooklyn Blvd 100 Suite 100, Minneapolis, MN 55429", "city": "Minneapolis", "phone": "+1 763-298-2930", "website": "https://www.brookdalehealth.com/", "rating": 4.8, "reviews": 156, "place_id": "ChIJYeLw_7Axs1IRo7KS0fMnNVY", "latitude": 45.05963149999999, "longitude": -93.32397379999999, "care_type": "Chiropractor"}, {"name": "Kinetic Health & Injury Specialists | Brooklyn Center", "address": "6040 Earle Brown Dr Suite# 312, Brooklyn Center, MN 55430", "city": "Brooklyn Center", "phone": "+1 763-283-8321", "website": "https://kinetichealthandinjury.com/", "rating": 5.0, "reviews": 57, "place_id": "ChIJf7Tk6eAxs1IR-JbpuyfLIT8", "latitude": 45.0652231, "longitude": -93.3008481, "care_type": "Chiropractor"}, {"name": "Shingle Creek Medical Group", "address": "2781 Freeway Blvd #160, Brooklyn Center, MN 55430", "city": "Brooklyn Center", "phone": "+1 763-244-8022", "website": "http://www.shinglecreekmedicalgroup.com/", "rating": 5.0, "reviews": 17, "place_id": "ChIJxVcDJ_cws1IRf3yiEk50lpQ", "latitude": 45.0755664, "longitude": -93.31708429999999, "care_type": "Chiropractor"}, {"name": "Brook West Chiropractic Clinic", "address": "6800 78th Ave N #107, Brooklyn Park, MN 55445", "city": "Brooklyn Park", "phone": "+1 763-566-1042", "website": "https://brookwestchiro.com/", "rating": 4.9, "reviews": 130, "place_id": "ChIJX3p921s3s1IRBtIh0q3E9eE", "latitude": 45.0950834, "longitude": -93.3691365, "care_type": "Chiropractor"}, {"name": "Inner Light Chiropractic", "address": "4630 Oak Grove Pkwy, Brooklyn Park, MN 55443", "city": "Brooklyn Park", "phone": "+1 763-486-3945", "website": "http://www.innerlightchiro.com/", "rating": 4.8, "reviews": 76, "place_id": "ChIJPcuQNUg6s1IR0BQ8iwGqS70", "latitude": 45.131147, "longitude": -93.3382278, "care_type": "Chiropractor"}, {"name": "Living Well Chiropractic, P.C.", "address": "7100 Northland Cir N #214, Brooklyn Park, MN 55428", "city": "Brooklyn Park", "phone": "+1 763-230-7333", "website": "http://www.livingwellmn.com/%3Futm_source%3Dgmb%26utm_medium%3Dorganic", "rating": 4.9, "reviews": 122, "place_id": "ChIJ38gIKyxKs1IR2tj_9pIbTbo", "latitude": 45.0830326, "longitude": -93.38895339999999, "care_type": "Chiropractor"}, {"name": "Optimum Chiropractic", "address": "7827 Brooklyn Blvd, Brooklyn Park, MN 55445", "city": "Brooklyn Park", "phone": "+1 763-566-5888", "website": "https://www.optimum-chiropractic.com/", "rating": 5.0, "reviews": 18, "place_id": "ChIJ0W5kFVo3s1IREHdBN7O9vR0", "latitude": 45.0941712, "longitude": -93.3670745, "care_type": "Chiropractor"}, {"name": "Soli Chiropractic", "address": "7240 Brooklyn Blvd #200, Brooklyn Park, MN 55429", "city": "Brooklyn Park", "phone": "+1 763-560-0750", "website": "https://www.solichiropractic.com/", "rating": 5.0, "reviews": 83, "place_id": "ChIJWXq1I7ows1IRQXHXJnALxWI", "latitude": 45.0871652, "longitude": -93.3433937, "care_type": "Chiropractor"}, {"name": "Lachinski Chiropractic, P.A.", "address": "9580 Noble Pkwy, Brooklyn Park, MN 55443", "city": "Brooklyn Park", "phone": "+1 763-443-1840", "website": "https://lachinskichiro.com/", "rating": 5.0, "reviews": 51, "place_id": "ChIJ00CKdQY7s1IRUsoTW99EJOo", "latitude": 45.1280235, "longitude": -93.33527149999999, "care_type": "Chiropractor"}, {"name": "Robert R. Martin, DC", "address": "6832 N Humboldt Ave, Minneapolis, MN 55430", "city": "Minneapolis", "phone": "+1 763-560-6360", "website": "", "rating": 5.0, "reviews": 1, "place_id": "ChIJEctkeEQws1IRYekpufS5Dvs", "latitude": 45.0792368, "longitude": -93.2990878, "care_type": "Chiropractor"}, {"name": "ChiroCenter Chiropractic & Wellness Robbinsdale", "address": "4926 N 42nd Ave, Robbinsdale, MN 55422", "city": "Robbinsdale", "phone": "+1 763-537-3927", "website": "https://www.chirocentermn.com/find-a-location/robbinsdale", "rating": 4.9, "reviews": 204, "place_id": "ChIJx-D1QlExs1IR63lMVN55xV4", "latitude": 45.0315923, "longitude": -93.3425287, "care_type": "Chiropractor"}, {"name": "Elite Care Chiropractic P.A.", "address": "3300 County Rd 10 Ste 220, Brooklyn Center, MN 55429", "city": "Brooklyn Center", "phone": "+1 651-706-3082", "website": "", "rating": null, "reviews": 0, "place_id": "ChIJvWxr5osxs1IR6Xo6GYsQpdc", "latitude": 45.06081469999999, "longitude": -93.3238737, "care_type": "Chiropractor"}, {"name": "Minnetonka Family Chiropractic", "address": "11349 MN-7, Minnetonka, MN 55305", "city": "Minnetonka", "phone": "+1 952-229-8750", "website": "https://maxliving.com/chiropractor/us/mn/minnetonka/minnetonka-family-chiropractic/%3Fschedule_source%3DGMB", "rating": 4.9, "reviews": 307, "place_id": "ChIJKx7JdPQf9ocROhdIwpMqA0o", "latitude": 44.9339154, "longitude": -93.4250775, "care_type": "Chiropractor"}, {"name": "HealthSource Chiropractic of Minnetonka", "address": "14413 Excelsior Blvd, Minnetonka, MN 55345", "city": "Minnetonka", "phone": "+1 952-746-1506", "website": "https://www.healthsourcechiro.com/location/minnetonka", "rating": 5.0, "reviews": 235, "place_id": "ChIJU3cUJfwe9ocRA90p-rPa6Y0", "latitude": 44.905275, "longitude": -93.46292299999999, "care_type": "Chiropractor"}, {"name": "The Glen Chiropractic & Acupuncture", "address": "11000 Cedar Lk Rd S, Minnetonka, MN 55305", "city": "Minnetonka", "phone": "+1 763-670-1175", "website": "http://theglenchiro.com/%3Futm_source%3Dgoogle-map%26utm_campaign%3Dgmb%26utm_medium%3Dorganic", "rating": 4.9, "reviews": 203, "place_id": "ChIJvdMPF-Qf9ocR8Kh-okik-R0", "latitude": 44.9534512, "longitude": -93.4167372, "care_type": "Chiropractor"}, {"name": "Connection Chiropractic", "address": "5101 Thimsen Ave #106, Minnetonka, MN 55345", "city": "Minnetonka", "phone": "+1 952-232-4700", "website": "https://www.connectionchiromn.com/", "rating": 4.9, "reviews": 202, "place_id": "ChIJ_QA6Ltwd9ocRK4dAkjSpd9c", "latitude": 44.9115018, "longitude": -93.5045701, "care_type": "Chiropractor"}, {"name": "Family Health Trust Chiropractic Center", "address": "12321 Minnetonka Blvd, Minnetonka, MN 55305", "city": "Minnetonka", "phone": "+1 952-933-4427", "website": "https://familyhealthtrust.com/%3FUTM_source%3DGBL", "rating": 4.9, "reviews": 135, "place_id": "ChIJNTGRweYf9ocRNNd0dgkinn8", "latitude": 44.94272369999999, "longitude": -93.436235, "care_type": "Chiropractor"}, {"name": "Thrive Chiropractic", "address": "14525 MN-7 Suite 115, Minnetonka, MN 55345", "city": "Minnetonka", "phone": "+1 952-746-5612", "website": "https://thrivechiromn.com/", "rating": 5.0, "reviews": 77, "place_id": "ChIJA181jdcd9ocRE3srbGI0m0s", "latitude": 44.9215434, "longitude": -93.4656926, "care_type": "Chiropractor"}, {"name": "SuNu Wellness Center - Minnetonka", "address": "12455 Ridgedale Dr #203, Minnetonka, MN 55305", "city": "Minnetonka", "phone": "+1 952-314-7035", "website": "http://sunuwellness.com/", "rating": 5.0, "reviews": 212, "place_id": "ChIJSzljQb5Ks1IRrgBGvH4IivM", "latitude": 44.9648653, "longitude": -93.4365886, "care_type": "Chiropractor"}, {"name": "Dynamic Family Chiropractic", "address": "4739 County Rd 101, Minnetonka, MN 55345", "city": "Minnetonka", "phone": "+1 952-933-2695", "website": "https://www.dfchiro.com/", "rating": 5.0, "reviews": 131, "place_id": "ChIJQUIwjdcd9ocRuME1U0aRxoM", "latitude": 44.9179931, "longitude": -93.5016155, "care_type": "Chiropractor"}, {"name": "Health In Hands Family Chiropractic", "address": "13911 Ridgedale Dr #160, Minnetonka, MN 55305", "city": "Minnetonka", "phone": "+1 952-324-5117", "website": "https://www.healthinhandsfamilychiro.com/", "rating": 5.0, "reviews": 49, "place_id": "ChIJd32vjeZKs1IRtIOoCXTEVLI", "latitude": 44.9701415, "longitude": -93.4555771, "care_type": "Chiropractor"}, {"name": "Peak Potential Family Chiropractic", "address": "16190 MN-7, Minnetonka, MN 55345", "city": "Minnetonka", "phone": "+1 952-582-1172", "website": "https://www.peakpotentialfamilychiro.com/", "rating": 5.0, "reviews": 114, "place_id": "ChIJVX4Lv2ge9ocRVo1zcXA4-Lc", "latitude": 44.9198923, "longitude": -93.4847231, "care_type": "Chiropractor"}, {"name": "Sundial Chiropractic", "address": "5757 Sanibel Dr #11, Minnetonka, MN 55343", "city": "Minnetonka", "phone": "+1 952-939-0297", "website": "http://sundialchiro.com/", "rating": 5.0, "reviews": 42, "place_id": "ChIJ_9PDGmMf9ocRZriGEoFx7Zc", "latitude": 44.8998707, "longitude": -93.4222593, "care_type": "Chiropractor"}, {"name": "Relief Plus Chiropractic", "address": "5810 Baker Rd #200, Minnetonka, MN 55345", "city": "Minnetonka", "phone": "+1 952-681-2863", "website": "http://reliefplusmn.com/", "rating": 5.0, "reviews": 121, "place_id": "ChIJ_50Tt_0d9ocRRQ92bzIgohQ", "latitude": 44.8952351, "longitude": -93.451925, "care_type": "Chiropractor"}, {"name": "Levin and Chellen Chiropractic", "address": "4144 County Rd 101, Minnetonka, MN 55345", "city": "Minnetonka", "phone": "+1 952-474-1777", "website": "https://www.levinchellenchiropractic.com/", "rating": 4.9, "reviews": 33, "place_id": "ChIJT6HIYeAd9ocRhSkOty3isEs", "latitude": 44.9281284, "longitude": -93.50325629999999, "care_type": "Chiropractor"}, {"name": "The Arne Clinic", "address": "12991 Ridgedale Dr, Minnetonka, MN 55305", "city": "Minnetonka", "phone": "+1 952-541-0200", "website": "https://www.arneclinic.com/%3Futm_source%3Dgoogle%26utm_medium%3Dorganic%26utm_campaign%3Dgbp_listing", "rating": 5.0, "reviews": 151, "place_id": "ChIJrYGw8OpKs1IRIkeZQs5ADsg", "latitude": 44.965952, "longitude": -93.4450859, "care_type": "Chiropractor"}, {"name": "Boulevard Chiropractic Clinic, PA", "address": "7200 Minnetonka Blvd, Minneapolis, MN 55426", "city": "Minneapolis", "phone": "+1 952-925-4847", "website": "http://www.blvdchiro.com/", "rating": 5.0, "reviews": 82, "place_id": "ChIJLw00joIg9ocRtUxipUVRmD4", "latitude": 44.949708, "longitude": -93.37106399999999, "care_type": "Chiropractor"}, {"name": "AGADA Chiropractic & Integrative Health Center", "address": "3311 County Rd 101, Wayzata, MN 55391", "city": "Wayzata", "phone": "+1 952-405-6263", "website": "http://www.agadachiropractic.com/", "rating": 5.0, "reviews": 22, "place_id": "ChIJ69ggbv4d9ocRM9dOSVllswU", "latitude": 44.9426126, "longitude": -93.5013719, "care_type": "Chiropractor"}, {"name": "Minnesota Chiropractic and Rehabilitation - Minnesota Disc and Spine", "address": "1025 Evergreen Ln N, Plymouth, MN 55441", "city": "Plymouth", "phone": "+1 763-390-1323", "website": "https://mnchiroandrehab.com/", "rating": 4.9, "reviews": 181, "place_id": "ChIJpz8g0X5Ks1IRlTcfYxgYK0Y", "latitude": 44.9902179, "longitude": -93.427528, "care_type": "Chiropractor"}, {"name": "Minnesota Movement | Chiropractic | Sport & Spine", "address": "261 School Ave Ste 310, Excelsior, MN 55331", "city": "Excelsior", "phone": "+1 651-447-8898", "website": "http://www.minnesota-movement.com/", "rating": 5.0, "reviews": 110, "place_id": "ChIJp-ter1Ic9ocR4u1iUa7aRuk", "latitude": 44.9014754, "longitude": -93.5647814, "care_type": "Chiropractor"}, {"name": "Maverick Chiropractic", "address": "1133 Wayzata Blvd B, Wayzata, MN 55391", "city": "Wayzata", "phone": "+1 952-737-1046", "website": "http://www.maverickchiropractic.com/", "rating": 5.0, "reviews": 166, "place_id": "ChIJPYAjWFpLs1IR1zhUi1eCsAQ", "latitude": 44.9723653, "longitude": -93.5012333, "care_type": "Chiropractor"}, {"name": "Lake Minnetonka Chiropractic & Functional Medicine", "address": "3701 Shoreline Dr #100, Wayzata, MN 55391", "city": "Wayzata", "phone": "+1 612-442-5349", "website": "https://lakeminnetonkachiro.wixsite.com/lakeminnetonkachiro", "rating": 5.0, "reviews": 29, "place_id": "ChIJcalVZKYh9ocRoyPVYzshKXQ", "latitude": 44.9343164, "longitude": -93.61627349999999, "care_type": "Chiropractor"}, {"name": "CHIRO FOR MOMS | Chiropractic & Physical Therapy Specialty Care for Women & Children in West Metro MN", "address": "600 Twelve Oaks Center Dr #640, Wayzata, MN 55391", "city": "Wayzata", "phone": "+1 952-378-1085", "website": "https://www.chiroformoms.com/", "rating": 5.0, "reviews": 398, "place_id": "ChIJ2SIDO2JLs1IRGWygElipw1Y", "latitude": 44.9734304, "longitude": -93.4753281, "care_type": "Chiropractor"}, {"name": "Kelly J. Sheehan, DC", "address": "12321 Minnetonka Blvd, Minnetonka, MN 55305", "city": "Minnetonka", "phone": "+1 952-933-4427", "website": "https://www.familyhealthtrust.com/dr-kelly-sheehan/", "rating": 5.0, "reviews": 3, "place_id": "ChIJNTGRweYf9ocRngDrgo8gw7U", "latitude": 44.9427156, "longitude": -93.4363123, "care_type": "Chiropractor"}, {"name": "Deephaven Chiropractic", "address": "18281 Minnetonka Blvd, Wayzata, MN 55391", "city": "Wayzata", "phone": "+1 952-475-0079", "website": "http://www.deephavenchiropractic.com/", "rating": 5.0, "reviews": 12, "place_id": "ChIJCe1_Jfcd9ocRs0cYZhxEvwo", "latitude": 44.94159579999999, "longitude": -93.5106381, "care_type": "Chiropractor"}, {"name": "Dr. Breanna Tivy, DC", "address": "14525 MN-7 Suite 115, Minnetonka, MN 55345", "city": "Minnetonka", "phone": "+1 952-746-5612", "website": "http://www.thrivechiromn.com/", "rating": 5.0, "reviews": 1, "place_id": "ChIJVVWVZE4e9ocRo-z2jcLiTec", "latitude": 44.9215434, "longitude": -93.4656926, "care_type": "Chiropractor"}, {"name": "Excelsior Chiropractic", "address": "21450 MN-7, Excelsior, MN 55331", "city": "Excelsior", "phone": "+1 952-474-9393", "website": "http://www.excelsiorchiropractic.com/", "rating": 4.9, "reviews": 110, "place_id": "ChIJBZr6suQc9ocRQqWCUhB49_w", "latitude": 44.9024468, "longitude": -93.5515712, "care_type": "Chiropractor"}, {"name": "Dr. Justin Lee", "address": "11349 MN-7, Minnetonka, MN 55305", "city": "Minnetonka", "phone": "+1 612-470-9210", "website": "https://drjustinlee.com/", "rating": 5.0, "reviews": 2, "place_id": "ChIJtUbq8fMf9ocR7iueXTjkm5s", "latitude": 44.9339824, "longitude": -93.42516409999999, "care_type": "Chiropractor"}, {"name": "Roots Chiropractic", "address": "8112 Minnetonka Blvd, St Louis Park, MN 55426", "city": "St Louis Park", "phone": "+1 952-229-4520", "website": "http://rootschiropracticmn.com/", "rating": 5.0, "reviews": 14, "place_id": "ChIJLUFSX-gh9ocRjzJIxPImpj8", "latitude": 44.9497808, "longitude": -93.38274829999999, "care_type": "Chiropractor"}, {"name": "Vaida Wellness Center", "address": "101 Lake St W STE 210, Wayzata, MN 55391", "city": "Wayzata", "phone": "+1 952-473-1773", "website": "http://vaidawellness.com/", "rating": 5.0, "reviews": 108, "place_id": "ChIJVwsAMZNMs1IRONidANgR4bQ", "latitude": 44.9707336, "longitude": -93.5231555, "care_type": "Chiropractor"}, {"name": "Jason Strandberg, DC", "address": "14604 Woodhaven Rd, Minnetonka, MN 55345", "city": "Minnetonka", "phone": "+1 952-222-7886", "website": "https://www.lakeminnetonkamobilewellness.com/meet-our-wellness-team", "rating": 5.0, "reviews": 2, "place_id": "ChIJrRN7WMVLs1IRqRsZxxQ9Vh4", "latitude": 44.932853, "longitude": -93.4649548, "care_type": "Chiropractor"}, {"name": "Marty Chiropractic Hopkins", "address": "17 10th Ave S, Hopkins, MN 55343", "city": "Hopkins", "phone": "+1 952-927-6639", "website": "http://www.martychirohopkins.com/", "rating": 5.0, "reviews": 10, "place_id": "ChIJpRkTUyQg9ocRw_1h2RVnDlI", "latitude": 44.9235936, "longitude": -93.4126221, "care_type": "Chiropractor"}, {"name": "Vitality Chiropractic: Dr. Nicholas Froehling", "address": "319 Barry Ave S Suite 115A, Wayzata, MN 55391", "city": "Wayzata", "phone": "+1 952-746-5351", "website": "https://www.vitalityoflifechiro.com/", "rating": 5.0, "reviews": 82, "place_id": "ChIJuY_Aq51Ms1IR8yHBkkrh25w", "latitude": 44.9711197, "longitude": -93.5175598, "care_type": "Chiropractor"}, {"name": "Avid Health and Wellness Chiropractic", "address": "700 Twelve Oaks Center Dr #711, Wayzata, MN 55391", "city": "Wayzata", "phone": "+1 952-215-9411", "website": "http://www.avidhealthandwellnesschiropractic.com/", "rating": 5.0, "reviews": 57, "place_id": "ChIJZSzKVRBLs1IRxUDuEfEWzww", "latitude": 44.9729886, "longitude": -93.476227, "care_type": "Chiropractor"}, {"name": "Life Chiropractic", "address": "319 Barry Ave S Suite 115A, Wayzata, MN 55391", "city": "Wayzata", "phone": "+1 952-746-5352", "website": "http://vitalityoflifechiro.com/", "rating": 4.8, "reviews": 30, "place_id": "ChIJd8nI1mVLs1IRRrAjZ01YZ00", "latitude": 44.9711197, "longitude": -93.5175598, "care_type": "Chiropractor"}, {"name": "Rejuva Medical and Wellness PLLC", "address": "10653 Wayzata Blvd STE 200, Minnetonka, MN 55305", "city": "Minnetonka", "phone": "+1 952-236-7610", "website": "http://www.rejuvamn.com/", "rating": 5.0, "reviews": 3, "place_id": "ChIJ22DyOGY1s1IRXw8jXqn3Wpg", "latitude": 44.9717074, "longitude": -93.41388339999999, "care_type": "Chiropractor"}, {"name": "Hopkins Chiropractic", "address": "17 10th Ave S, Hopkins, MN 55343", "city": "Hopkins", "phone": "+1 952-927-0019", "website": "https://www.hopkins-chiro.com/%3Futm_source%3DGBP%26utm_medium%3Dorganic", "rating": 4.9, "reviews": 50, "place_id": "ChIJpRkTUyQg9ocR8ZuTtNzrt3Y", "latitude": 44.92360799999999, "longitude": -93.412385, "care_type": "Chiropractor"}, {"name": "Blake Chiropractic", "address": "1593 MN-7, Hopkins, MN 55305", "city": "Hopkins", "phone": "+1 952-933-6235", "website": "http://www.blakechiropractic.com/", "rating": 4.7, "reviews": 25, "place_id": "ChIJ96fOjVsg9ocRJqcrd0N3Uqw", "latitude": 44.9338253, "longitude": -93.42005669999999, "care_type": "Chiropractor"}, {"name": "Natalie L. Gianforte, DC", "address": "11349 MN-7, Minnetonka, MN 55343", "city": "Minnetonka", "phone": "+1 952-229-8750", "website": "", "rating": 5.0, "reviews": 1, "place_id": "ChIJxR8IX_Qf9ocRhgQ4qFKO45E", "latitude": 44.9325418, "longitude": -93.423152, "care_type": "Chiropractor"}, {"name": "Natural Chiropractic Center", "address": "12805 Hwy 55 Suite 310, Plymouth, MN 55441", "city": "Plymouth", "phone": "+1 763-476-4770", "website": "https://www.naturalchirocenter.com/%3Futm_source%3DGBP%26utm_medium%3Dorganic", "rating": 5.0, "reviews": 53, "place_id": "ChIJz_vNFn1Js1IRu_1xOXy-csw", "latitude": 44.9996556, "longitude": -93.44302669999999, "care_type": "Chiropractor"}, {"name": "Melinda L. Morgan, DC", "address": "10505 Wayzata Blvd Suite #102, Minnetonka, MN 55305", "city": "Minnetonka", "phone": "+1 952-236-7610", "website": "https://www.backtobalancehealing.com/about", "rating": 5.0, "reviews": 2, "place_id": "ChIJJYImbuZKs1IR6--RZRnoBwg", "latitude": 44.9718599, "longitude": -93.41276839999999, "care_type": "Chiropractor"}, {"name": "Nels H. Chellen, DC", "address": "4144 County Rd 101, Minnetonka, MN 55345", "city": "Minnetonka", "phone": "+1 952-474-1777", "website": "http://www.levinchellenchiropractic.com/", "rating": 5.0, "reviews": 2, "place_id": "ChIJT6HIYeAd9ocRd5kz7PLN9-Y", "latitude": 44.9281116, "longitude": -93.5032457, "care_type": "Chiropractor"}, {"name": "GameDay Sport and Spine", "address": "11545 K-Tel Dr, Minnetonka, MN 55343", "city": "Minnetonka", "phone": "+1 952-222-7743", "website": "https://gamedaysportandspine.com/", "rating": 5.0, "reviews": 5, "place_id": "ChIJ8Zj0IsiIxE4R1UkGw-YuKi0", "latitude": 44.9123148, "longitude": -93.42410699999999, "care_type": "Chiropractor"}, {"name": "Ultimate Health Chiropractic", "address": "6640 Shady Oak Rd #325, Eden Prairie, MN 55344", "city": "Eden Prairie", "phone": "+1 952-541-0148", "website": "http://uhealthchiro.com/", "rating": 5.0, "reviews": 113, "place_id": "ChIJyWpxz8FKs1IRyVdlzjPbTUA", "latitude": 44.8814364, "longitude": -93.4143608, "care_type": "Chiropractor"}, {"name": "Apex Performance Clinic", "address": "13911 Ridgedale Dr #150, Minnetonka, MN 55305", "city": "Minnetonka", "phone": "+1 763-400-3674", "website": "https://www.officialapexpc.com/", "rating": 5.0, "reviews": 15, "place_id": "ChIJ-bmaXiNLs1IRqLlkRh5aOs4", "latitude": 44.9701332, "longitude": -93.4556697, "care_type": "Chiropractor"}, {"name": "Minnesota Chiro Health of St. Louis Park", "address": "1660 MN-100 Ste. 146-B, St Louis Park, MN 55416", "city": "St Louis Park", "phone": "+1 952-900-2225", "website": "https://minnesotachiropractichealthstlouispark.com/", "rating": 5.0, "reviews": 228, "place_id": "ChIJ3fYrZk01s1IRtWJT3xvh4hc", "latitude": 44.9644262, "longitude": -93.3456709, "care_type": "Chiropractor"}, {"name": "Redbird Wellness", "address": "7900 Excelsior Blvd Suite 100, Hopkins, MN 55343", "city": "Hopkins", "phone": "+1 952-931-9867", "website": "http://www.redbirdwellness.org/", "rating": 5.0, "reviews": 100, "place_id": "ChIJ2ylXdFsg9ocRg8kt62QTbHg", "latitude": 44.9266035, "longitude": -93.379581, "care_type": "Chiropractor"}, {"name": "Peak Performance Chiropractic", "address": "3311 County Rd 101 #2, Wayzata, MN 55391", "city": "Wayzata", "phone": "+1 952-641-0207", "website": "http://www.peakperformancemn.com/", "rating": 4.9, "reviews": 15, "place_id": "ChIJIT3vVeAd9ocRR1kfO5qkO-M", "latitude": 44.9427433, "longitude": -93.5014959, "care_type": "Chiropractor"}, {"name": "Dr. Sara Edwards, DC", "address": "5810 Baker Rd #200, Minnetonka, MN 55345", "city": "Minnetonka", "phone": "+1 952-681-2863", "website": "https://reliefplusmn.com/About", "rating": null, "reviews": 0, "place_id": "ChIJMU8y3Wcf9ocRCMWZ9IDWDjQ", "latitude": 44.8952351, "longitude": -93.451925, "care_type": "Chiropractor"}, {"name": "Reconnect Brain and Body", "address": "6133 Blue Cir Dr #100, Minnetonka, MN 55343", "city": "Minnetonka", "phone": "+1 612-888-5538", "website": "", "rating": 5.0, "reviews": 4, "place_id": "ChIJjUzx-uch9ocRy3tJ5fssWis", "latitude": 44.8924452, "longitude": -93.4086298, "care_type": "Chiropractor"}, {"name": "Hopkins Health & Wellness Center", "address": "15 8th Ave N, Hopkins, MN 55343", "city": "Hopkins", "phone": "+1 952-933-5085", "website": "https://www.hopkinswellness.com/", "rating": 4.4, "reviews": 167, "place_id": "ChIJLVVqtCQg9ocRmaADZONA524", "latitude": 44.9251157, "longitude": -93.409857, "care_type": "Chiropractor"}, {"name": "MotherBaby Wellness Co. | Perinatal & Pediatric Chiropractic & Midwifery", "address": "11 10th Ave S ste d, Hopkins, MN 55343", "city": "Hopkins", "phone": "+1 952-452-9712", "website": "https://www.motherbabywellness.co/%3Futm_source%3Dgoogle%26utm_medium%3Dorganic%26utm_campaign%3Dgmb%26utm_id%3Dgmb", "rating": 5.0, "reviews": 80, "place_id": "ChIJv1ffUoIh9ocRe9PnfOH855U", "latitude": 44.9238366, "longitude": -93.41241869999999, "care_type": "Chiropractor"}, {"name": "Sundial Chiropractic", "address": "5657 Sanibel Dr, Minnetonka, MN 55343", "city": "Minnetonka", "phone": "+1 952-270-8161", "website": "http://sundialchiro.com/", "rating": null, "reviews": 0, "place_id": "ChIJ3-AsBGMf9ocRx1XApOeDbF8", "latitude": 44.900537, "longitude": -93.42231199999999, "care_type": "Chiropractor"}, {"name": "Zen Chiropractic", "address": "6400 Flying Cloud Dr #213, Eden Prairie, MN 55344", "city": "Eden Prairie", "phone": "+1 952-500-8733", "website": "https://www.zenchiropracticinc.com/", "rating": 5.0, "reviews": 64, "place_id": "ChIJo3wrPfYj9ocR-ZKZ4flmvrU", "latitude": 44.8877658, "longitude": -93.4009572, "care_type": "Chiropractor"}, {"name": "The Brost Clinic", "address": "1421 Wayzata Blvd #100, Wayzata, MN 55391", "city": "Wayzata", "phone": "+1 952-473-9637", "website": "https://thebrostclinic.com/", "rating": 4.7, "reviews": 220, "place_id": "ChIJ3brQyWVLs1IR2BwBiDK-ml8", "latitude": 44.97164249999999, "longitude": -93.4943493, "care_type": "Chiropractor"}, {"name": "Andrashko Chiropractic Plus of Golden Valley", "address": "7900 Excelsior Blvd #2700, Hopkins, MN 55343", "city": "Hopkins", "phone": "+1 952-253-3880", "website": "http://www.andrashko.com/", "rating": 5.0, "reviews": 2, "place_id": "ChIJjZxDsx41s1IRsZKhRjSnV-I", "latitude": 44.9270903, "longitude": -93.380151, "care_type": "Chiropractor"}, {"name": "Vibrant Health Center", "address": "8441 Wayzata Blvd Suite 125, Golden Valley, MN 55426", "city": "Golden Valley", "phone": "+1 612-208-3839", "website": "http://www.vibranthealthmn.com/", "rating": 4.9, "reviews": 60, "place_id": "ChIJgaI41go3s1IRY8dvkvn2kJM", "latitude": 44.97273029999999, "longitude": -93.38810439999999, "care_type": "Chiropractor"}, {"name": "Prairie Spine", "address": "7525 Mitchell Rd STE 300, Eden Prairie, MN 55344", "city": "Eden Prairie", "phone": "+1 952-974-2091", "website": "https://www.edenprairiespine.com/", "rating": 4.9, "reviews": 87, "place_id": "ChIJY_kCXdYY9ocRVXDASPVyWqY", "latitude": 44.8671914, "longitude": -93.4572982, "care_type": "Chiropractor"}, {"name": "Jennifer L. Heerdt, DC", "address": "11300 Minnetonka Mills Rd, Minnetonka, MN 55305", "city": "Minnetonka", "phone": "+1 952-303-9507", "website": "", "rating": null, "reviews": 0, "place_id": "ChIJjbRrMfQf9ocRRzLEjEhSXJI", "latitude": 44.93432929999999, "longitude": -93.4224007, "care_type": "Chiropractor"}, {"name": "Peter J. Gianforte, DC", "address": "11349 MN-7, Minnetonka, MN 55343", "city": "Minnetonka", "phone": "+1 952-229-8750", "website": "", "rating": null, "reviews": 0, "place_id": "ChIJxR8IX_Qf9ocRgPqEzyAJzz0", "latitude": 44.9325418, "longitude": -93.423152, "care_type": "Chiropractor"}, {"name": "Paul S. Nash, DC", "address": "17 10th Ave S, Hopkins, MN 55343", "city": "Hopkins", "phone": "+1 952-541-5669", "website": "", "rating": 4.5, "reviews": 8, "place_id": "ChIJpRkTUyQg9ocRaOUHvcW6qHQ", "latitude": 44.9236179, "longitude": -93.41241869999999, "care_type": "Chiropractor"}, {"name": "Advanced Care Chiropractic", "address": "14001 Ridgedale Dr #390, Minnetonka, MN 55305", "city": "Minnetonka", "phone": "+1 952-893-8900", "website": "", "rating": null, "reviews": 0, "place_id": "ChIJ8dpkx-ZKs1IRxMsjA7JtYCo", "latitude": 44.9699594, "longitude": -93.4567146, "care_type": "Chiropractor"}, {"name": "Back To Balance", "address": "10505 Wayzata Blvd Suite #102, Minnetonka, MN 55305", "city": "Minnetonka", "phone": "+1 952-236-7610", "website": "http://backtobalancehealing.com/", "rating": 4.8, "reviews": 22, "place_id": "ChIJ6V6rb2Y1s1IReEHZ2r0_tEE", "latitude": 44.971869, "longitude": -93.412786, "care_type": "Chiropractor"}, {"name": "Apple Valley Chiropractic & Rehab", "address": "7600 147th St W #100, Apple Valley, MN 55124", "city": "Apple Valley", "phone": "+1 952-431-3003", "website": "http://www.applevalleychiropractic.com/", "rating": 5.0, "reviews": 57, "place_id": "ChIJpz-Metcw9ocR6QZX7SpF_BE", "latitude": 44.7349445, "longitude": -93.2204998, "care_type": "Chiropractor"}, {"name": "The Joint Chiropractic", "address": "15050 Cedar Ave Suite #104, Apple Valley, MN 55124", "city": "Apple Valley", "phone": "+1 651-362-4276", "website": "https://www.thejoint.com/minnesota/apple-valley/apple-valley-32007", "rating": 4.8, "reviews": 237, "place_id": "ChIJ7aWx3iox9ocRtKfZGPZY6ZA", "latitude": 44.7313196, "longitude": -93.2158527, "care_type": "Chiropractor"}, {"name": "Johnson Spinal Care - Apple Valley", "address": "14859 Energy Way, Apple Valley, MN 55124", "city": "Apple Valley", "phone": "+1 952-432-3333", "website": "https://johnsonspinalcare.com/", "rating": 4.9, "reviews": 152, "place_id": "ChIJhxscwFQx9ocRQPKCBCWJvhU", "latitude": 44.7325893, "longitude": -93.1817155, "care_type": "Chiropractor"}, {"name": "Lifeway Chiropractic and Wellness", "address": "7300 147th St W Suite 101, Apple Valley, MN 55124", "city": "Apple Valley", "phone": "+1 612-508-2454", "website": "https://www.lifewaychiro.com/%3Futm_source%3DGBP%26utm_medium%3Dorganic", "rating": 5.0, "reviews": 95, "place_id": "ChIJSUNlYdYx9ocRVA9xtOySPao", "latitude": 44.7339838, "longitude": -93.2138131, "care_type": "Chiropractor"}, {"name": "East Valley Chiropractic", "address": "14050 Pilot Knob Rd # 120, Apple Valley, MN 55124", "city": "Apple Valley", "phone": "+1 952-423-5050", "website": "https://eastvalleychiro.com/%3Futm_campaign%3Dgmb", "rating": 4.9, "reviews": 189, "place_id": "ChIJo6OULOIz9ocR6zBpuhwxJMo", "latitude": 44.7451022, "longitude": -93.17558819999999, "care_type": "Chiropractor"}, {"name": "Hands on Health Family Chiropractic", "address": "7275 147th St W, Apple Valley, MN 55124", "city": "Apple Valley", "phone": "+1 952-431-3133", "website": "http://www.hohfc.com/", "rating": 4.9, "reviews": 54, "place_id": "ChIJC1__Dyox9ocRo2Wgv1kDjp4", "latitude": 44.735045, "longitude": -93.212884, "care_type": "Chiropractor"}, {"name": "Cedar South Chiropractic", "address": "14135 Cedar Ave #400, Apple Valley, MN 55124", "city": "Apple Valley", "phone": "+1 952-432-5550", "website": "http://applevalley-chiro.com/", "rating": 5.0, "reviews": 173, "place_id": "ChIJu47Nq9gw9ocRfLYMtwGg2Fc", "latitude": 44.744512, "longitude": -93.2184185, "care_type": "Chiropractor"}, {"name": "Apex Family Chiropractic", "address": "15678 Pilot Knob Rd Suite 120, Apple Valley, MN 55124", "city": "Apple Valley", "phone": "+1 651-456-8744", "website": "https://www.goapexchiro.com/", "rating": 4.8, "reviews": 166, "place_id": "ChIJGQTXHgI09ocRor-UP_3IM0I", "latitude": 44.7212884, "longitude": -93.1745536, "care_type": "Chiropractor"}, {"name": "Dakota Chiropractic", "address": "14665 Galaxie Ave Ste 110, Apple Valley, MN 55124", "city": "Apple Valley", "phone": "+1 612-562-6694", "website": "http://dakotachiroclinic.com/", "rating": 5.0, "reviews": 122, "place_id": "ChIJr_DfLs8t9ocRUNiCYMpOrmg", "latitude": 44.73602899999999, "longitude": -93.2084884, "care_type": "Chiropractor"}, {"name": "Cedar South Chiropractic and Injury Center", "address": "14135 Cedar Ave #400, Apple Valley, MN 55124", "city": "Apple Valley", "phone": "+1 952-432-5550", "website": "https://www.chiropractorapplevalley.com/", "rating": null, "reviews": 0, "place_id": "ChIJA6g34Csx9ocRU984N5qUv04", "latitude": 44.7443965, "longitude": -93.2184522, "care_type": "Chiropractor"}, {"name": "Zeiszler Chiropractic Clinic", "address": "14635 Pennock Ave Ste 200, Apple Valley, MN 55124", "city": "Apple Valley", "phone": "+1 952-432-0700", "website": "http://www.z-chiro.com/", "rating": 4.7, "reviews": 37, "place_id": "ChIJR1pzNtEw9ocRFd8xME5Kpp8", "latitude": 44.7362043, "longitude": -93.2237224, "care_type": "Chiropractor"}, {"name": "ABLE Chiropractic", "address": "13335 Palomino Dr #101, Apple Valley, MN 55124", "city": "Apple Valley", "phone": "+1 952-953-9898", "website": "https://myablechiro.com/", "rating": 4.9, "reviews": 212, "place_id": "ChIJh_SON5Aw9ocRXq9L4-JLEl4", "latitude": 44.7565421, "longitude": -93.24635699999999, "care_type": "Chiropractor"}, {"name": "Discover Family Chiropractic", "address": "5920 148th St W, Apple Valley, MN 55124", "city": "Apple Valley", "phone": "+1 952-431-5655", "website": "http://www.discoverfamilychiro.com/", "rating": 4.8, "reviews": 23, "place_id": "ChIJjR6dR1Ix9ocRQDf789M3iu0", "latitude": 44.7346745, "longitude": -93.1865031, "care_type": "Chiropractor"}, {"name": "Dr. Tony Felten, D.C.", "address": "15322 Galaxie Ave Suite 110, Apple Valley, MN 55124", "city": "Apple Valley", "phone": "+1 952-953-0990", "website": "http://www.shiftspine.com/", "rating": 5.0, "reviews": 1, "place_id": "ChIJa5BWY0w39ocRIs2KUtYRn7A", "latitude": 44.7267154, "longitude": -93.2070787, "care_type": "Chiropractor"}, {"name": "Shift Chiropractic", "address": "15322 Galaxie Ave Suite 110, Apple Valley, MN 55124", "city": "Apple Valley", "phone": "+1 952-953-0990", "website": "https://www.shiftspine.com/", "rating": 5.0, "reviews": 76, "place_id": "ChIJcyZG5M029ocRVPkcRhjgFGM", "latitude": 44.72654, "longitude": -93.20702, "care_type": "Chiropractor"}, {"name": "Lifespan Chiropractic", "address": "7493 147th St W, Apple Valley, MN 55124", "city": "Apple Valley", "phone": "+1 952-432-4222", "website": "https://lifespanchiropractic.net/", "rating": 5.0, "reviews": 5, "place_id": "ChIJi5C9gCkx9ocRwfHl8yEDjMo", "latitude": 44.7353189, "longitude": -93.21625259999999, "care_type": "Chiropractor"}, {"name": "Family Chiropractic and Wellness", "address": "17502 Dodd Blvd, Lakeville, MN 55044", "city": "Lakeville", "phone": "+1 952-431-7400", "website": "https://www.familychiropractorwellness.com/%3Futm_source%3DGBP%26utm_medium%3Dorganic", "rating": 5.0, "reviews": 454, "place_id": "ChIJfdtxBP829ocRl5VJp7O55GQ", "latitude": 44.6951648, "longitude": -93.2149877, "care_type": "Chiropractor"}, {"name": "Alpha Spine Health & Injury Center - Lakeville", "address": "7644 160th St W, Lakeville, MN 55044", "city": "Lakeville", "phone": "+1 952-985-5444", "website": "https://www.absolutehealthmn.com/", "rating": 5.0, "reviews": 504, "place_id": "ChIJg8BXjX9H9ocR2cWxkiOKNGc", "latitude": 44.7165461, "longitude": -93.2208522, "care_type": "Chiropractor"}, {"name": "Advanced Chiropractic", "address": "14501 Granada Dr #101, Apple Valley, MN 55124", "city": "Apple Valley", "phone": "+1 952-953-6100", "website": "http://chiroapplevalley.com/", "rating": 4.0, "reviews": 4, "place_id": "ChIJ1V9CRNcw9ocRgBEhjwTms2E", "latitude": 44.7388275, "longitude": -93.22179039999999, "care_type": "Chiropractor"}, {"name": "Mama & Me Chiropractic", "address": "7600 143rd St W Suite 401, Apple Valley, MN 55124", "city": "Apple Valley", "phone": "+1 952-222-8307", "website": "http://mamaandmechiro.com/", "rating": 5.0, "reviews": 3, "place_id": "ChIJQW0v7Jcx9ocRVKXpP8mhzQE", "latitude": 44.7409958, "longitude": -93.21967099999999, "care_type": "Chiropractor"}, {"name": "Scott Chiropractic Clinic", "address": "15067 Crestone Ave, Rosemount, MN 55068", "city": "Rosemount", "phone": "+1 952-322-4440", "website": "https://www.scottchiroclinic.com/", "rating": 4.9, "reviews": 146, "place_id": "ChIJ7wDV-ng09ocR-rjcoEsG7Ek", "latitude": 44.730108, "longitude": -93.144852, "care_type": "Chiropractor"}, {"name": "Rapp Chiropractic", "address": "15170 Chippendale Ave W #200, Rosemount, MN 55068", "city": "Rosemount", "phone": "+1 651-423-2900", "website": "https://www.rosemountchiropractor.com/", "rating": 4.9, "reviews": 74, "place_id": "ChIJPUOsxoA09ocR_BaR4cPybM0", "latitude": 44.7289395, "longitude": -93.135719, "care_type": "Chiropractor"}, {"name": "Advanced Chiropractic", "address": "11208 Radisson Dr, Burnsville, MN 55337", "city": "Burnsville", "phone": "+1 952-953-6100", "website": "https://www.chiroapplevalley.com/about-us.html", "rating": 5.0, "reviews": 1, "place_id": "ChIJ___j5R4w9ocRFng3jXTVisM", "latitude": 44.8014979, "longitude": -93.2413606, "care_type": "Chiropractor"}, {"name": "Genesis Chiropractic Health Center", "address": "4678 Slater Rd, Eagan, MN 55122", "city": "Eagan", "phone": "+1 651-905-0330", "website": "https://www.genesischiropractic.com/", "rating": 4.8, "reviews": 218, "place_id": "ChIJ-aKJ0OEx9ocRb7C4rZdurmo", "latitude": 44.786569, "longitude": -93.22174, "care_type": "Chiropractor"}, {"name": "HealthPro Chiropractic and Physical Therapy", "address": "2930 146th St W #110, Rosemount, MN 55068", "city": "Rosemount", "phone": "+1 651-463-8222", "website": "https://healthproclinic.com/", "rating": 5.0, "reviews": 189, "place_id": "ChIJ8fo3Uv019ocRLYqqeTJy2kg", "latitude": 44.7376216, "longitude": -93.1259305, "care_type": "Chiropractor"}, {"name": "Eagle Trace Spine & Sport", "address": "12002 Co Rd 11, Burnsville, MN 55337", "city": "Burnsville", "phone": "+1 952-808-2922", "website": "https://www.eagletracespineandsport.com/", "rating": 4.9, "reviews": 618, "place_id": "ChIJhVI5oBIw9ocRs_4stdZPnFU", "latitude": 44.7862904, "longitude": -93.2486789, "care_type": "Chiropractor"}, {"name": "Dr. Ty Hall", "address": "14050 Pilot Knob Rd # 120, Apple Valley, MN 55124", "city": "Apple Valley", "phone": "+1 952-423-5050", "website": "https://eastvalleychiro.com/", "rating": null, "reviews": 0, "place_id": "ChIJAQAAPOIz9ocRmGjhHlPSplQ", "latitude": 44.7451022, "longitude": -93.17558819999999, "care_type": "Chiropractor"}, {"name": "Helping Hands Chiropractic", "address": "4660 Slater Rd # 140, Eagan, MN 55122", "city": "Eagan", "phone": "+1 651-452-3900", "website": "https://www.eaganmnchiropractor.com/", "rating": 5.0, "reviews": 30, "place_id": "ChIJy__u3DUw9ocRhhZ5JFNMe4A", "latitude": 44.7878112, "longitude": -93.22236629999999, "care_type": "Chiropractor"}, {"name": "MARTY CHIROPRACTIC | Personalized Care in Burnsville MN", "address": "2424 E 117th St, Burnsville, MN 55337", "city": "Burnsville", "phone": "+1 952-894-5108", "website": "https://www.martychiroclinic.com/", "rating": 4.9, "reviews": 134, "place_id": "ChIJxQxXchcw9ocRNHVh2m_92F4", "latitude": 44.7943417, "longitude": -93.2412751, "care_type": "Chiropractor"}, {"name": "Burnsville Family Chiropractic: Renwick Chad DC", "address": "13786 Frontier Ct # 100, Burnsville, MN 55337", "city": "Burnsville", "phone": "+1 952-891-1955", "website": "http://burnsvillefamilychiropractic.com/", "rating": 4.9, "reviews": 29, "place_id": "ChIJU6hKkZsw9ocR2RceW8-RM_Y", "latitude": 44.7542947, "longitude": -93.25190429999999, "care_type": "Chiropractor"}, {"name": "Symmetry Chiropractic & Physical Therapy", "address": "14450 S Robert Trail #208, Rosemount, MN 55068", "city": "Rosemount", "phone": "+1 651-946-7770", "website": "https://symmetrychiropracticandphysicaltherapy.com/our-locations/rosemount-mn/", "rating": 4.9, "reviews": 116, "place_id": "ChIJMWNw_mQz9ocRFp_MvkPJRp4", "latitude": 44.7398185, "longitude": -93.12590019999999, "care_type": "Chiropractor"}, {"name": "Dr. Katy Heilman", "address": "7493 147th St W Ste 203, Apple Valley, MN 55124", "city": "Apple Valley", "phone": "+1 952-432-4222", "website": "https://lifespanchiropractic.net/meet-dr-katy-2/", "rating": null, "reviews": 0, "place_id": "ChIJVVXRhykx9ocR5TfojdhgkjU", "latitude": 44.735307, "longitude": -93.21626049999999, "care_type": "Chiropractor"}, {"name": "Nicholas J. Rapp, DC", "address": "15170 Chippendale Ave W #200, Rosemount, MN 55068", "city": "Rosemount", "phone": "+1 651-423-2900", "website": "", "rating": 5.0, "reviews": 2, "place_id": "ChIJPUOsxoA09ocRKCrgJCIU6VM", "latitude": 44.7289508, "longitude": -93.135868, "care_type": "Chiropractor"}, {"name": "McCombs Chiropractic Clinic, Ltd.", "address": "2550 Horizon Dr, Burnsville, MN 55337", "city": "Burnsville", "phone": "+1 952-846-4149", "website": "http://www.mccombschiro.com/", "rating": 4.6, "reviews": 18, "place_id": "ChIJW_NqaRYw9ocROdSKSpfDHSg", "latitude": 44.7919198, "longitude": -93.24009869999999, "care_type": "Chiropractor"}, {"name": "LifeClinic Chiropractic & Rehabilitation - Eagan, MN", "address": "1565 Thomas Center Dr, Eagan, MN 55122", "city": "Eagan", "phone": "+1 651-734-6959", "website": "https://www.lifeclinics.us/", "rating": 5.0, "reviews": 117, "place_id": "ChIJE0qr1vUx9ocReriPGL-85Cs", "latitude": 44.7924038, "longitude": -93.1795149, "care_type": "Chiropractor"}, {"name": "Dr. Tad Norris", "address": "14859 Energy Way, Apple Valley, MN 55124", "city": "Apple Valley", "phone": "+1 952-432-3333", "website": "https://johnsonspinalcare.com/team/dr-tad-norris/", "rating": null, "reviews": 0, "place_id": "ChIJq6oawFQx9ocRAjNnddmwvrU", "latitude": 44.7325893, "longitude": -93.1817155, "care_type": "Chiropractor"}, {"name": "Cornerstone Family Chiropractic | Dr. Natasha Walters, DC", "address": "1590 Thomas Center Dr #110, Eagan, MN 55122", "city": "Eagan", "phone": "+1 651-209-9710", "website": "https://www.cornerstonefamilychiropractic.com/", "rating": 4.9, "reviews": 182, "place_id": "ChIJg-V7EPQx9ocRkoVKM5i33wY", "latitude": 44.7916631, "longitude": -93.18226299999999, "care_type": "Chiropractor"}, {"name": "Mankato Chiropractic Center & Healing Touch", "address": "31 Navaho Ave, Mankato, MN 56001", "city": "Mankato", "phone": "+1 507-345-4035", "website": "https://www.mankatochiro.com/", "rating": 4.7, "reviews": 377, "place_id": "ChIJb38cwm069IcRgrT7D8XYTS4", "latitude": 44.1685302, "longitude": -93.9637784, "care_type": "Chiropractor"}, {"name": "HealthSource Chiropractic of Mankato", "address": "1400 Madison Ave Suite 700, Mankato, MN 56001", "city": "Mankato", "phone": "+1 507-594-9139", "website": "https://www.healthsourcechiro.com/location/mankato", "rating": 4.9, "reviews": 43, "place_id": "ChIJNb2ZCHs79IcRlWjU4rUAu9I", "latitude": 44.1685733, "longitude": -93.96986059999999, "care_type": "Chiropractor"}, {"name": "Anderson Family Chiropractic", "address": "500 S Broad St #102, Mankato, MN 56001", "city": "Mankato", "phone": "+1 507-388-5315", "website": "http://www.andersonfamchiro.com/", "rating": 4.9, "reviews": 35, "place_id": "ChIJF_JYhSI69IcRTD2JiuKAe0A", "latitude": 44.1624246, "longitude": -94.0041334, "care_type": "Chiropractor"}, {"name": "RiverRidge Chiropractic", "address": "921 Madison Ave #102, Mankato, MN 56001", "city": "Mankato", "phone": "+1 507-387-7463", "website": "http://www.riverridge-chiropractic.com/", "rating": 5.0, "reviews": 177, "place_id": "ChIJo4rmy4A59IcRwa1Ys43kFoM", "latitude": 44.16653729999999, "longitude": -93.9813226, "care_type": "Chiropractor"}, {"name": "Discover Chiropractic", "address": "1601 N Riverfront Dr, Mankato, MN 56001", "city": "Mankato", "phone": "+1 507-720-0742", "website": "https://www.mankatochiropractor.com/%3Futm_source%3DGBP%26utm_medium%3Dorganic", "rating": 4.9, "reviews": 251, "place_id": "ChIJf4GjTIIw9IcRtOiFM9sMePE", "latitude": 44.1822211, "longitude": -93.98809179999999, "care_type": "Chiropractor"}, {"name": "Aurora Chiropractic, LLC", "address": "1051 Madison Ave # 2, Mankato, MN 56001", "city": "Mankato", "phone": "+1 507-625-1085", "website": "http://www.aurorachiropractic.org/", "rating": 5.0, "reviews": 75, "place_id": "ChIJ0xvxZho69IcRtV9725ADhcg", "latitude": 44.1664342, "longitude": -93.9787071, "care_type": "Chiropractor"}, {"name": "Advantage Chiropractic, PLLC", "address": "430 S Broad St Ste 130, Mankato, MN 56001", "city": "Mankato", "phone": "+1 507-387-5591", "website": "https://www.advantagechiromn.com/", "rating": 4.9, "reviews": 97, "place_id": "ChIJY_Gx8-s59IcRGfAhAx6QLIU", "latitude": 44.1627657, "longitude": -94.0037899, "care_type": "Chiropractor"}, {"name": "Andrews Family Chiropractic", "address": "285 St Andrews Dr # 300, Mankato, MN 56001", "city": "Mankato", "phone": "+1 507-345-1926", "website": "https://www.andrewschiro.net/", "rating": 4.9, "reviews": 176, "place_id": "ChIJhazzrYIw9IcRn85f90wo-Ug", "latitude": 44.1805759, "longitude": -93.956088, "care_type": "Chiropractor"}, {"name": "Kinetic Spine & Sport", "address": "1219 Caledonia St, Mankato, MN 56001", "city": "Mankato", "phone": "+1 507-345-7836", "website": "http://www.kinetic-chiro.com/", "rating": 5.0, "reviews": 130, "place_id": "ChIJS2mQzhM69IcRFlaUA6PhDeg", "latitude": 44.1677428, "longitude": -93.975168, "care_type": "Chiropractor"}, {"name": "Hello Wellness + Chiropractic Co", "address": "816 S Front St, Mankato, MN 56001", "city": "Mankato", "phone": "+1 507-479-2052", "website": "http://www.hellowellnesschiro.com/", "rating": 5.0, "reviews": 25, "place_id": "ChIJ2aFYbxo69IcRzKXK8_c4tiM", "latitude": 44.1613596, "longitude": -94.01060919999999, "care_type": "Chiropractor"}, {"name": "Advanced Chiropractic of Mankato PC", "address": "1712 James Dr, North Mankato, MN 56003", "city": "North Mankato", "phone": "+1 507-385-2000", "website": "http://www.advancedchiropracticofmankato.com/%3Futm_source%3Dgoogle%26utm_medium%3Dwix_google_business_profile%26utm_campaign%3D13697235637675217989", "rating": 4.7, "reviews": 41, "place_id": "ChIJB31skWA39IcR3j8R4mah4qw", "latitude": 44.1772941, "longitude": -94.0342604, "care_type": "Chiropractor"}, {"name": "TOV Chiropractic", "address": "1813 Adams St, Mankato, MN 56001", "city": "Mankato", "phone": "+1 507-322-4040", "website": "http://www.tovchiropractic.com/", "rating": 5.0, "reviews": 156, "place_id": "ChIJ5bIsxTQ79IcRBzq-gHnUDHs", "latitude": 44.1696783, "longitude": -93.9540304, "care_type": "Chiropractor"}, {"name": "Rignell Family Chiropractic", "address": "1351 Madison Ave # D, Mankato, MN 56001", "city": "Mankato", "phone": "+1 507-779-7313", "website": "https://rignellfamilychiropractic.com/%3Futm_source%3Dgmb%26utm_medium%3Dorganic", "rating": 4.9, "reviews": 112, "place_id": "ChIJoYrSZhE69IcRWzj-WmRZqc0", "latitude": 44.1660209, "longitude": -93.97357389999999, "care_type": "Chiropractor"}, {"name": "Stenzel Chiropractic Clinic - Mankato", "address": "1704 N Riverfront Dr #101, Mankato, MN 56001", "city": "Mankato", "phone": "+1 507-387-1222", "website": "http://www.stenzelchiropractic.com/", "rating": 5.0, "reviews": 11, "place_id": "ChIJwSnE__s59IcRWCiJT1youEM", "latitude": 44.1834972, "longitude": -93.98760709999999, "care_type": "Chiropractor"}, {"name": "Schugel Family Chiropractic", "address": "816 S Front St, Mankato, MN 56001", "city": "Mankato", "phone": "+1 507-385-1015", "website": "https://www.schugelfamilychiro.com/", "rating": 5.0, "reviews": 18, "place_id": "ChIJ5yIL3u059IcRqEcIBGQiZOA", "latitude": 44.1613413, "longitude": -94.0105768, "care_type": "Chiropractor"}, {"name": "Pivotal Chiropractic & Wellness", "address": "1600 Madison Ave suite 106, Mankato, MN 56001", "city": "Mankato", "phone": "+1 507-401-2650", "website": "https://www.pivotalchiro.com/", "rating": 4.9, "reviews": 100, "place_id": "ChIJ59dANkg79IcRuEFUHuw1-7g", "latitude": 44.1676905, "longitude": -93.9636757, "care_type": "Chiropractor"}, {"name": "Saggau Chiropractic Ltd", "address": "83 Navaho Ave # 26, Mankato, MN 56001", "city": "Mankato", "phone": "+1 507-625-9060", "website": "http://www.drsaggau.com/", "rating": 4.8, "reviews": 5, "place_id": "ChIJ5yIL3u059IcR9pwRrQ2J_qU", "latitude": 44.1691505, "longitude": -93.963746, "care_type": "Chiropractor"}, {"name": "Kato Family Chiropractic", "address": "99 Navaho Ave Suite 110, Mankato, MN 56001", "city": "Mankato", "phone": "+1 507-594-9100", "website": "http://www.katofamilychiro.com/", "rating": 4.9, "reviews": 14, "place_id": "ChIJ5YAbwm069IcRxy7KjNkYvWg", "latitude": 44.1696163, "longitude": -93.96385099999999, "care_type": "Chiropractor"}, {"name": "Skrien Chiropractic Clinic P.A.", "address": "315 Webster Ave, North Mankato, MN 56003", "city": "North Mankato", "phone": "+1 507-344-8300", "website": "https://skrien-chiropractic.webflow.io/", "rating": 5.0, "reviews": 36, "place_id": "ChIJn1TxA4gw9IcRiKO_zqC9K9o", "latitude": 44.1807808, "longitude": -94.00922399999999, "care_type": "Chiropractor"}, {"name": "Giebel Chiropractic, L.L.C.", "address": "103 N Broad St, Mankato, MN 56001", "city": "Mankato", "phone": "+1 507-387-8979", "website": "http://giebelchiro.com/", "rating": 4.9, "reviews": 19, "place_id": "ChIJn-E0OO859IcRMqsDZixMbrI", "latitude": 44.1662373, "longitude": -93.99962699999999, "care_type": "Chiropractor"}, {"name": "Barnett Chiropractic & Acupuncture Clinic", "address": "360 Pierce Ave # 204, North Mankato, MN 56003", "city": "North Mankato", "phone": "+1 507-382-4997", "website": "http://barnettchiropracticclinic.com/", "rating": 5.0, "reviews": 11, "place_id": "ChIJaQ3592A39IcR-w9JS24yH50", "latitude": 44.180355, "longitude": -94.01059719999999, "care_type": "Chiropractor"},