[{"name": "El Dorado Springs Family Chiropractic", "address": "605 E Hospital Rd, El Dorado Springs, MO 64744", "city": "El Dorado Springs", "phone": "+1 417-876-0541", "website": "", "rating": 5.0, "reviews": 24, "place_id": "ChIJ3YwsXQ5hxocR3rKjbCgm2Mc", "latitude": 37.8595215, "longitude": -94.0144596, "care_type": "Chiropractor"}, {"name": "Total Chiropractic", "address": "719 US-54, El Dorado Springs, MO 64744", "city": "El Dorado Springs", "phone": "+1 417-876-3940", "website": "", "rating": 5.0, "reviews": 17, "place_id": "ChIJaawKQ4BgxocRTc6B4foxkpc", "latitude": 37.8630913, "longitude": -94.0128019, "care_type": "Chiropractor"}, {"name": "Clayton Chiropractic Center", "address": "7921 Clayton Rd, Clayton, MO 63117", "city": "Clayton", "phone": "+1 314-802-7195", "website": "http://claytonchiropracticstl.com/", "rating": 4.9, "reviews": 179, "place_id": "ChIJkToKSCfL2IcREvV9RqHxF70", "latitude": 38.637859, "longitude": -90.34081049999999, "care_type": "Chiropractor"}, {"name": "Lafayette Square Chiropractic Centre, LLC", "address": "1013 S 18th St, St. Louis, MO 63104", "city": "St. Louis", "phone": "+1 314-436-3050", "website": "http://www.lafayettesquarechiropractic.com/", "rating": 5.0, "reviews": 197, "place_id": "ChIJk1L59HGz2IcRw0W0Ny1Mhuw", "latitude": 38.6200494, "longitude": -90.2102379, "care_type": "Chiropractor"}, {"name": "Winfield Chiropractic + Pain Relief Center", "address": "10 Eagle Ave, Winfield, MO 63389", "city": "Winfield", "phone": "+1 636-566-8888", "website": "http://www.winfieldchiropracticcare.com/", "rating": 4.9, "reviews": 99, "place_id": "ChIJC96ubQHo3ocRhd-0Qb8nmIY", "latitude": 38.98867, "longitude": -90.757009, "care_type": "Chiropractor"}, {"name": "All Star Chiropractic", "address": "12929 State Line Rd, Kansas City, MO 64145", "city": "Kansas City", "phone": "+1 816-942-6066", "website": "http://www.allstarchiropractickc.com/", "rating": 5.0, "reviews": 117, "place_id": "ChIJ_aCQ4eTowIcRFVoi4wvn0Ss", "latitude": 38.8923222, "longitude": -94.6073629, "care_type": "Chiropractor"}, {"name": "Presence Chiropractic", "address": "7817 Wornall Rd, Kansas City, MO 64114", "city": "Kansas City", "phone": "+1 816-560-3501", "website": "https://presencechirokc.com/", "rating": 5.0, "reviews": 65, "place_id": "ChIJq6qaBn7uwIcRRmtrsPpX5VI", "latitude": 38.9862031, "longitude": -94.5942831, "care_type": "Chiropractor"}, {"name": "Raintree Health Center", "address": "8301 State Line Rd Suite 108, Kansas City, MO 64114", "city": "Kansas City", "phone": "+1 816-623-3020", "website": "https://www.raintreechiro.com/", "rating": 5.0, "reviews": 77, "place_id": "ChIJ35NL1C3pwIcRrPE5u9matj4", "latitude": 38.9784588, "longitude": -94.6079613, "care_type": "Chiropractor"}, {"name": "Prime Movement Chiropractic + Rehab", "address": "7611 State Line Rd Suite 130, Kansas City, MO 64114", "city": "Kansas City", "phone": "+1 816-226-8582", "website": "http://www.primemovementkc.com/", "rating": 5.0, "reviews": 9, "place_id": "ChIJbS0M-FrvwIcRZg60R7r133E", "latitude": 38.9898707, "longitude": -94.60751409999999, "care_type": "Chiropractor"}, {"name": "Waldo Wellness Group", "address": "7210 Wornall Rd, Kansas City, MO 64114", "city": "Kansas City", "phone": "+1 816-333-2533", "website": "https://www.waldochiropracticgroup.com/", "rating": 5.0, "reviews": 263, "place_id": "ChIJT_LQRCPvwIcRe920cW92vVU", "latitude": 38.9971737, "longitude": -94.5941531, "care_type": "Chiropractor"}, {"name": "Kansas City Chiropractic", "address": "4510 Belleview Ave STE 100, Kansas City, MO 64111", "city": "Kansas City", "phone": "+1 816-753-4600", "website": "http://www.kansascitychiropractic.com/", "rating": 4.9, "reviews": 152, "place_id": "ChIJ72O8f8nvwIcRWl5XwNiIo7Y", "latitude": 39.045597, "longitude": -94.59869379999999, "care_type": "Chiropractor"}, {"name": "KC Spine & Wellness", "address": "1010 Carondelet Dr Building A, Suite #204, Kansas City, MO 64114", "city": "Kansas City", "phone": "+1 816-384-2300", "website": "https://www.kcspineandwellness.com/", "rating": 5.0, "reviews": 23, "place_id": "ChIJLVNyIavpwIcRrwSRLXmUWa8", "latitude": 38.9359995, "longitude": -94.6048941, "care_type": "Chiropractor"}, {"name": "Redefine Healing", "address": "8080 Ward Pkwy Suite 205, Kansas City, MO 64114", "city": "Kansas City", "phone": "+1 816-569-6115", "website": "http://redefinehealing.com/", "rating": 5.0, "reviews": 10, "place_id": "ChIJ3yeA4RbdwIcRwbIn7xn3hBA", "latitude": 38.9824527, "longitude": -94.6069091, "care_type": "Chiropractor"}, {"name": "Truman Chiropractic", "address": "9237 Ward Pkwy #104, Kansas City, MO 64114", "city": "Kansas City", "phone": "+1 816-226-7949", "website": "https://trumanchiropractic.com/", "rating": 5.0, "reviews": 60, "place_id": "ChIJFVAKBxDpwIcR1HIl6G6Kjt8", "latitude": 38.9598221, "longitude": -94.5963819, "care_type": "Chiropractor"}, {"name": "Chiropractic Wellness Center", "address": "3611 Main St #103, Kansas City, MO 64111", "city": "Kansas City", "phone": "+1 816-561-7035", "website": "https://www.cwc-familychiro.com/", "rating": 4.9, "reviews": 333, "place_id": "ChIJV1av-N7vwIcRsLJW57HTjj8", "latitude": 39.0615235, "longitude": -94.58548619999999, "care_type": "Chiropractor"}, {"name": "Restoration Health Chiropractic - Kansas City", "address": "7021 Oak St, Kansas City, MO 64113", "city": "Kansas City", "phone": "+1 816-800-4343", "website": "https://www.rhchiropractic.org/", "rating": 5.0, "reviews": 35, "place_id": "ChIJ09Xm7zbvwIcRVX8frVMbSpg", "latitude": 38.9994334, "longitude": -94.58437029999999, "care_type": "Chiropractor"}, {"name": "My Chiropractor KC", "address": "900 W 17 St, Kansas City, MO 64108", "city": "Kansas City", "phone": "+1 816-946-8957", "website": "http://www.mychiropractorkc.com/", "rating": 5.0, "reviews": 42, "place_id": "ChIJP9F1-kTwwIcRmyPV5anTCQk", "latitude": 39.0931794, "longitude": -94.5947717, "care_type": "Chiropractor"}, {"name": "Crossroads Chiropractic & Wellness Inc.", "address": "1808 McGee St, Kansas City, MO 64108", "city": "Kansas City", "phone": "+1 816-471-7330", "website": "https://crossroadschiropractickc.com/", "rating": 4.9, "reviews": 266, "place_id": "ChIJIWtCEGjwwIcR-D4pbK3Tt5U", "latitude": 39.0914319, "longitude": -94.5803992, "care_type": "Chiropractor"}, {"name": "Chiro One Chiropractic & Wellness Center of Park Hill", "address": "6000 NW 63rd Terrace Suite 40, Kansas City, MO 64151", "city": "Kansas City", "phone": "+1 816-788-6707", "website": "https://www.chiroone.com/locations/missouri/park-hill-missouri/%3Futm_source%3Dgmb%26utm_medium%3Dorganic-search%26utm_campaign%3D7013a000001rxGc", "rating": 4.8, "reviews": 80, "place_id": "ChIJlQRv2HT1wIcR_VmaYVBifP0", "latitude": 39.2091369, "longitude": -94.6499187, "care_type": "Chiropractor"}, {"name": "Body In Balance Chiropractic", "address": "1111 W 39th St, Kansas City, MO 64111", "city": "Kansas City", "phone": "+1 816-591-0728", "website": "http://www.kcbackdoc.com/", "rating": 4.9, "reviews": 101, "place_id": "ChIJhRtDVk_wwIcRrMOtK5grSwc", "latitude": 39.0563245, "longitude": -94.6005031, "care_type": "Chiropractor"}, {"name": "The Joint Chiropractic", "address": "8946 NW Skyview Ave, Kansas City, MO 64154", "city": "Kansas City", "phone": "+1 816-408-3363", "website": "https://www.thejoint.com/missouri/kansas-city/tiffany-springs-24021", "rating": 4.9, "reviews": 458, "place_id": "ChIJ_QJsaQpfwIcRginWXz2fY1E", "latitude": 39.2578287, "longitude": -94.6519368, "care_type": "Chiropractor"}, {"name": "Downtown Chiropractic", "address": "2627 Burlington St Ste A, North Kansas City, MO 64116", "city": "North Kansas City", "phone": "+1 816-268-1004", "website": "https://www.downtownchirokc.com/", "rating": 5.0, "reviews": 59, "place_id": "ChIJe8C4vJFZwIcRaUr1K_P6B1M", "latitude": 39.1484237, "longitude": -94.57974039999999, "care_type": "Chiropractor"}, {"name": "KC Chiro (Located Inside of KC Rehab)", "address": "123 NE 91 St, Kansas City, MO 64155", "city": "Kansas City", "phone": "+1 913-888-4845", "website": "https://www.thekcchiro.com/", "rating": 5.0, "reviews": 3, "place_id": "ChIJ8eFub-VZwIcRlwsFfEzhZhI", "latitude": 39.259322, "longitude": -94.5786378, "care_type": "Chiropractor"}, {"name": "AllCare Chiropractic", "address": "1600 Genessee St # 960, Kansas City, MO 64102", "city": "Kansas City", "phone": "+1 913-488-5636", "website": "http://www.allcarechirokc.com/%3Futm_source%3Dgoogle%26utm_medium%3Dwix_google_business_profile%26utm_campaign%3D5506036317663266518", "rating": 5.0, "reviews": 122, "place_id": "ChIJ7_8ElujxwIcRCKg91eohVyM", "latitude": 39.0945888, "longitude": -94.6052534, "care_type": "Chiropractor"}, {"name": "Active Chiropractic", "address": "7010 NW 83 Terrace #110, Kansas City, MO 64152", "city": "Kansas City", "phone": "+1 816-436-8200", "website": "http://www.activechiropractickc.com/", "rating": 5.0, "reviews": 186, "place_id": "ChIJa7dtR0FfwIcRnubS_-_kjwA", "latitude": 39.2444206, "longitude": -94.66161319999999, "care_type": "Chiropractor"}, {"name": "MyoCore - Downtown Kansas City", "address": "2310 Holmes St #704, Kansas City, MO 64108", "city": "Kansas City", "phone": "+1 816-404-6489", "website": "https://www.myocore.com/", "rating": 4.9, "reviews": 183, "place_id": "ChIJ_zdLFhPwwIcRG-wx8W2W0nU", "latitude": 39.0842183, "longitude": -94.576005, "care_type": "Chiropractor"}, {"name": "La Paz Family Chiropractic", "address": "1111 W 39th St Floor 2- room 224, Kansas City, MO 64111", "city": "Kansas City", "phone": "+1 913-730-6746", "website": "https://www.lapazfamilychiro.com/", "rating": 5.0, "reviews": 24, "place_id": "ChIJNRyLvRHvwIcRbhrUWtCOGP8", "latitude": 39.0564325, "longitude": -94.60023319999999, "care_type": "Chiropractor"}, {"name": "Kc Inclusive chiropractic", "address": "1111 W 39th St STE G03, Kansas City, MO 64111", "city": "Kansas City", "phone": "+1 870-293-8996", "website": "https://www.kcinclusivechiropractic.center/", "rating": 5.0, "reviews": 9, "place_id": "ChIJ-16EuenvwIcR790Ncjs5iDs", "latitude": 39.0564325, "longitude": -94.60023319999999, "care_type": "Chiropractor"}, {"name": "Emmanuel Chiropractic Clinic", "address": "6301 Rockhill Rd # 105, Kansas City, MO 64131", "city": "Kansas City", "phone": "+1 816-523-4023", "website": "http://www.emmanuelchiropracticclinic.com/", "rating": 4.9, "reviews": 135, "place_id": "ChIJHWun2HHvwIcRUzJzcSnqXgg", "latitude": 39.0129053, "longitude": -94.5762396, "care_type": "Chiropractor"}, {"name": "Chiromed Family Health", "address": "214 W 39th St, Kansas City, MO 64111", "city": "Kansas City", "phone": "+1 816-561-4444", "website": "", "rating": 5.0, "reviews": 18, "place_id": "ChIJC0AVnNvvwIcRr8aYeE6tZ1Q", "latitude": 39.0568241, "longitude": -94.5891168, "care_type": "Chiropractor"}, {"name": "Fountain of Life Family Chiropractic", "address": "8335 N Congress Ave, Kansas City, MO 64152", "city": "Kansas City", "phone": "+1 816-741-4711", "website": "https://www.fountainoflifechiro.com/", "rating": 4.9, "reviews": 286, "place_id": "ChIJC7myj2pfwIcROHQvXySZxoo", "latitude": 39.2460932, "longitude": -94.6664847, "care_type": "Chiropractor"}, {"name": "Frank Siraguso, DC \u2013 Formerly Revive Chiropractic", "address": "9574 N McGee St, Kansas City, MO 64155", "city": "Kansas City", "phone": "+1 816-272-3580", "website": "https://revivechiropractickc.com/", "rating": 4.9, "reviews": 139, "place_id": "ChIJjzbv5R6twYcRf-dSEJ-xvDE", "latitude": 39.2664921, "longitude": -94.57734599999999, "care_type": "Chiropractor"}, {"name": "North Kansas City Chiropractic", "address": "3721 N Oak Trafficway, Kansas City, MO 64116", "city": "Kansas City", "phone": "+1 816-453-8130", "website": "", "rating": 5.0, "reviews": 5, "place_id": "ChIJawJ88kP3wIcRGxqVNxBeY6k", "latitude": 39.1617094, "longitude": -94.5762826, "care_type": "Chiropractor"}, {"name": "Global Health Chiropractic", "address": "751 E 63rd St #213, Kansas City, MO 64110", "city": "Kansas City", "phone": "+1 816-844-7944", "website": "http://www.globalhealthchirokc.com/", "rating": 5.0, "reviews": 127, "place_id": "ChIJPQULAnLvwIcR2VOXtPDvoTQ", "latitude": 39.0131304, "longitude": -94.57739509999999, "care_type": "Chiropractor"}, {"name": "Kansas City Pain and Mobility Center", "address": "1800 Genessee St Suite 203, Kansas City, MO 64102", "city": "Kansas City", "phone": "+1 816-446-9210", "website": "http://kcpainandmobilitycenter.com/", "rating": 5.0, "reviews": 13, "place_id": "ChIJF-h-jOrxwIcRaBsd6W27qQY", "latitude": 39.0920045, "longitude": -94.6057956, "care_type": "Chiropractor"}, {"name": "Dohrmann Chiropractic", "address": "9576 N McGee St, Kansas City, MO 64155", "city": "Kansas City", "phone": "+1 816-436-5520", "website": "https://www.dohrmannchiropractic.com/", "rating": 4.9, "reviews": 781, "place_id": "ChIJXXnoQjFYwIcRe3rf9RzrHoA", "latitude": 39.2664348, "longitude": -94.5774081, "care_type": "Chiropractor"}, {"name": "Kobler Chiropractic and Acupuncture LLC", "address": "500 NW Englewood Rd, Kansas City, MO 64118", "city": "Kansas City", "phone": "+1 816-569-6577", "website": "https://www.koblerchiro.com/", "rating": 4.9, "reviews": 284, "place_id": "ChIJHRfzWjDuwIcR1ZcTEgA_AbY", "latitude": 39.1971808, "longitude": -94.5869783, "care_type": "Chiropractor"}, {"name": "Accident & Injury Chiropractic", "address": "7208 Wornall Rd suite b, Kansas City, MO 64114", "city": "Kansas City", "phone": "+1 816-756-1711", "website": "https://carwreckchiropractic.com/", "rating": 4.8, "reviews": 59, "place_id": "ChIJb4CaBN_vwIcRbzSodvP9I0M", "latitude": 38.9973427, "longitude": -94.5943274, "care_type": "Chiropractor"}, {"name": "Knudson Don L DC", "address": "5008 NE 45th Terrace, Kansas City, MO 64117", "city": "Kansas City", "phone": "+1 816-452-4250", "website": "", "rating": 5.0, "reviews": 11, "place_id": "ChIJOxp_-Qn5wIcRUyN7OjGuRtE", "latitude": 39.1767373, "longitude": -94.52048769999999, "care_type": "Chiropractor"}, {"name": "Watts Chiropractic", "address": "441 E 19th St Ste 940, Kansas City, MO 64108", "city": "Kansas City", "phone": "+1 816-200-0105", "website": "https://www.wattschiro.com/", "rating": 5.0, "reviews": 11, "place_id": "ChIJFeSktfLxwIcRkguv95o1SxA", "latitude": 39.0901424, "longitude": -94.57850049999999, "care_type": "Chiropractor"}, {"name": "Fountain City Family Chiropractic Kansas City", "address": "8640 N Green Hills Rd, Kansas City, MO 64154", "city": "Kansas City", "phone": "+1 816-587-0400", "website": "", "rating": 4.8, "reviews": 142, "place_id": "ChIJI5RHU8ZYwIcRZkpZMfOHkVU", "latitude": 39.2513501, "longitude": -94.63252519999999, "care_type": "Chiropractor"}, {"name": "KC Performance Chiropractic & Rehab", "address": "2104 Swift St, North Kansas City, MO 64116", "city": "North Kansas City", "phone": "+1 816-988-0185", "website": "https://www.kcperformancechiro.com/", "rating": 5.0, "reviews": 107, "place_id": "ChIJN26I5ATxwIcRNAgbwzyy54A", "latitude": 39.1441062, "longitude": -94.5775362, "care_type": "Chiropractor"}, {"name": "Tiller Chiropractic", "address": "1620 Locust St #100, Kansas City, MO 64108", "city": "Kansas City", "phone": "+1 816-363-3500", "website": "http://www.tillerchiropractic.com/", "rating": 5.0, "reviews": 30, "place_id": "ChIJrY95jnLvwIcRwlL9P95qxsc", "latitude": 39.0936865, "longitude": -94.5782253, "care_type": "Chiropractor"}, {"name": "True Vitality KC", "address": "4444 N Belleview Ave Suite 204, Kansas City, MO 64116", "city": "Kansas City", "phone": "+1 816-866-0708", "website": "http://www.kansascityfamilychiropractic.com/%3Futm_source%3Dgmb_auth", "rating": 4.9, "reviews": 111, "place_id": "ChIJZwQIZbhYwIcRdQfKqzaF_hQ", "latitude": 39.1759376, "longitude": -94.5909271, "care_type": "Chiropractor"}, {"name": "Leath Chiropractic", "address": "6537 N Cosby Ave, Kansas City, MO 64151", "city": "Kansas City", "phone": "+1 816-587-7711", "website": "https://www.leathclinic.com/", "rating": 4.8, "reviews": 56, "place_id": "ChIJoz8NZAn2wIcRNNXtnctBS-4", "latitude": 39.2138169, "longitude": -94.64492349999999, "care_type": "Chiropractor"}, {"name": "OM Chiropractic LLC", "address": "1620 Locust St #100, Kansas City, MO 64108", "city": "Kansas City", "phone": "+1 816-561-1185", "website": "https://www.omchirokc.com/", "rating": 5.0, "reviews": 19, "place_id": "ChIJS81ixNrvwIcR2vTZBw_4-LE", "latitude": 39.093684, "longitude": -94.57802, "care_type": "Chiropractor"}, {"name": "KC Wellness and Physiotherapy, PA", "address": "1815 Grand Blvd, Kansas City, MO 64108", "city": "Kansas City", "phone": "+1 913-424-2410", "website": "http://kcwellnessphysiotherapy.com/", "rating": 5.0, "reviews": 36, "place_id": "ChIJ7QEWw2nwwIcRoXJiaSGprls", "latitude": 39.0911732, "longitude": -94.5809625, "care_type": "Chiropractor"}, {"name": "I Got Your Back Chiropractic", "address": "8359 N Congress Ave, Kansas City, MO 64152", "city": "Kansas City", "phone": "+1 816-468-9990", "website": "http://www.drhudak.com/", "rating": 5.0, "reviews": 130, "place_id": "ChIJeRbIlBZYwIcRg47r7wwcoy0", "latitude": 39.2461194, "longitude": -94.6677272, "care_type": "Chiropractor"}, {"name": "Lynn L. Mcintosh, DC", "address": "4510 Belleview Ave STE 100, Kansas City, MO 64111", "city": "Kansas City", "phone": "+1 816-753-4600", "website": "", "rating": 5.0, "reviews": 3, "place_id": "ChIJvzVL4bXvwIcR30Sb8I74LQY", "latitude": 39.045535, "longitude": -94.59870699999999, "care_type": "Chiropractor"}, {"name": "Healing Well Chiropractic", "address": "125 NE 91 St, Kansas City, MO 64155", "city": "Kansas City", "phone": "+1 816-436-7500", "website": "https://hwckc.com/", "rating": 4.8, "reviews": 344, "place_id": "ChIJddbv1NJXwIcRwFz7-naubVs", "latitude": 39.2590279, "longitude": -94.578431, "care_type": "Chiropractor"}, {"name": "Delta Chiropractic", "address": "616 E 63rd St #101, Kansas City, MO 64110", "city": "Kansas City", "phone": "+1 816-200-1543", "website": "https://www.deltachirokc.com/", "rating": 5.0, "reviews": 75, "place_id": "ChIJpdptK7HvwIcRfpGyIrGirEY", "latitude": 39.01367949999999, "longitude": -94.58053579999999, "care_type": "Chiropractor"}, {"name": "Advanced Health Chiropractic, Inc.", "address": "307 US-69, Kansas City, MO 64119", "city": "Kansas City", "phone": "+1 816-453-1198", "website": "http://www.ahckc.com/", "rating": 4.9, "reviews": 88, "place_id": "ChIJj2itn934wIcRP0Q6Z_bRd0w", "latitude": 39.1992418, "longitude": -94.4990897, "care_type": "Chiropractor"}, {"name": "Klinginsmith Chiropractic", "address": "9229 Ward Pkwy Suite 105, Kansas City, MO 64114", "city": "Kansas City", "phone": "+1 816-333-3331", "website": "http://klinginsmithchiro.com/", "rating": 5.0, "reviews": 24, "place_id": "ChIJU6-vNMjowIcReODpR5LA4zg", "latitude": 38.9606094, "longitude": -94.5989913, "care_type": "Chiropractor"}, {"name": "Davis Chiropractic & Auto Injury Clinic", "address": "7000 NW Prairie View Rd #150, Kansas City, MO 64151", "city": "Kansas City", "phone": "+1 816-741-4040", "website": "http://davischiropractickc.com/", "rating": 5.0, "reviews": 84, "place_id": "ChIJN5Pl-_v1wIcRJLhTs9XSsBI", "latitude": 39.2224788, "longitude": -94.6506452, "care_type": "Chiropractor"}, {"name": "Integrative Health Center", "address": "213 Delaware St #602, Kansas City, MO 64105", "city": "Kansas City", "phone": "+1 816-714-8630", "website": "https://www.integrativehealthcenterkc.com/", "rating": 5.0, "reviews": 3, "place_id": "ChIJC0YI96vxwIcRfcZ0bNJXopo", "latitude": 39.1101816, "longitude": -94.58442559999999, "care_type": "Chiropractor"}, {"name": "Ben Dohrmann, DC", "address": "9576 N McGee St, Kansas City, MO 64155", "city": "Kansas City", "phone": "+1 816-436-5520", "website": "https://dohrmannchiropractic.com/about-us/dr-ben-dohrmann/", "rating": 5.0, "reviews": 8, "place_id": "ChIJPwb0ZzFYwIcRGdS5-tYrjeA", "latitude": 39.2663797, "longitude": -94.5774555, "care_type": "Chiropractor"}, {"name": "KCMO Chiropractic", "address": "10607 Blue Ridge Blvd, Kansas City, MO 64134", "city": "Kansas City", "phone": "+1 816-462-9994", "website": "https://www.kcmochiropractic.com/%3Futm_source%3Dgmb%26utm_medium%3Dreferral", "rating": 1.0, "reviews": 1, "place_id": "ChIJVTolX8TnwIcRUHaFu53J3n8", "latitude": 38.9316842, "longitude": -94.5074521, "care_type": "Chiropractor"}, {"name": "Spencer Chiropractic Clinic, P.C.", "address": "1414 NW Vivion Rd, Kansas City, MO 64118", "city": "Kansas City", "phone": "+1 816-746-8300", "website": "http://spencerclinic.com/", "rating": 5.0, "reviews": 51, "place_id": "ChIJf1QmGgT3wIcRtInBoYGc4TE", "latitude": 39.1833491, "longitude": -94.5985008, "care_type": "Chiropractor"}, {"name": "Marvin's Midtown Chiropractic Clinic", "address": "811 Linwood Blvd, Kansas City, MO 64109", "city": "Kansas City", "phone": "+1 816-756-2500", "website": "https://marvinschirokc.com/", "rating": 4.0, "reviews": 29, "place_id": "ChIJicWT8xzwwIcRHWz-7PlgQkM", "latitude": 39.0686002, "longitude": -94.5749936, "care_type": "Chiropractor"}, {"name": "Hygge Chiropractic + Acupuncture", "address": "1509 Walnut St Suite 102, Kansas City, MO 64108", "city": "Kansas City", "phone": "+1 816-490-6879", "website": "http://www.hyggechiropractic.com/", "rating": 5.0, "reviews": 42, "place_id": "ChIJ38m82hfxwIcRqZnrtLFSOkI", "latitude": 39.095416, "longitude": -94.58199049999999, "care_type": "Chiropractor"}, {"name": "Dr. Katrina Rounkles, DC- Chiropractic Kinesiology Clinic", "address": "420 Armour Rd, North Kansas City, MO 64116", "city": "North Kansas City", "phone": "+1 816-221-9804", "website": "http://www.drkatrinarounkles.com/", "rating": 4.9, "reviews": 214, "place_id": "ChIJYbJggbHwwIcRuj9fdODsxlo", "latitude": 39.1426454, "longitude": -94.575138, "care_type": "Chiropractor"}, {"name": "Dr. Kowin Casey DC", "address": "1815 Grand Blvd, Kansas City, MO 64108", "city": "Kansas City", "phone": "+1 913-424-2410", "website": "", "rating": 5.0, "reviews": 3, "place_id": "ChIJ7QEWw2nwwIcRPB8n76_-5vY", "latitude": 39.0911732, "longitude": -94.5809625, "care_type": "Chiropractor"}, {"name": "Quiro Rehab", "address": "1806 Swift St suite 102, North Kansas City, MO 64116", "city": "North Kansas City", "phone": "+1 913-308-6221", "website": "http://www.quirorehab.com/", "rating": 5.0, "reviews": 10, "place_id": "ChIJs0hwn9rtwIcRS388Ah1NjFo", "latitude": 39.1407177, "longitude": -94.57755929999999, "care_type": "Chiropractor"}, {"name": "Chirocare Wellness Center", "address": "3700 Broadway Blvd #320, Kansas City, MO 64111", "city": "Kansas City", "phone": "+1 816-561-4448", "website": "http://chirocarekc.com/", "rating": 4.5, "reviews": 15, "place_id": "ChIJqT6x8NjvwIcRRX2CzuLyocE", "latitude": 39.0610065, "longitude": -94.5907546, "care_type": "Chiropractor"}, {"name": "Jeffrey S Driskell, D.C.", "address": "3721 N Oak Trafficway, Kansas City, MO 64116", "city": "Kansas City", "phone": "+1 816-453-8130", "website": "http://www.jeffreysdriskell.com/", "rating": 5.0, "reviews": 13, "place_id": "ChIJOQWq80P3wIcR_z5owMkU_A0", "latitude": 39.1617091, "longitude": -94.5762821, "care_type": "Chiropractor"}, {"name": "UnBroken Chiropractic - Dr Heather Bourdon", "address": "2540 W Pennway St, Kansas City, MO 64108", "city": "Kansas City", "phone": "+1 816-718-2505", "website": "https://www.unbrokenchiropractic.com/", "rating": 5.0, "reviews": 39, "place_id": "ChIJCyq7UjvvwIcRHtgMbUoR07U", "latitude": 39.0807431, "longitude": -94.591926, "care_type": "Chiropractor"}, {"name": "Healing Hands Family Chiropractor", "address": "616 E 63rd St Ste# 106, Kansas City, MO 64110", "city": "Kansas City", "phone": "+1 816-333-3290", "website": "http://www.hhfchiropractor.com/", "rating": 5.0, "reviews": 2, "place_id": "ChIJde32gdPvwIcRCSmAUc8C_Xk", "latitude": 39.0137326, "longitude": -94.58070049999999, "care_type": "Chiropractor"}, {"name": "Northland Spine And Rehabilitation", "address": "8002 N Oak Trafficway #112, Kansas City, MO 64118", "city": "Kansas City", "phone": "+1 816-569-5079", "website": "http://www.northlandspine.com/", "rating": 5.0, "reviews": 46, "place_id": "ChIJWfaQWg5YwIcRdNZ_-vK846M", "latitude": 39.239639, "longitude": -94.576844, "care_type": "Chiropractor"}, {"name": "F.I.T. Muscle & Joint Clinic Crossroads District (Chiropractic)", "address": "1800 Wyandotte St #201, Kansas City, MO 64108", "city": "Kansas City", "phone": "+1 816-605-1644", "website": "http://fitmjc.com/location/chiropractor-in-the-crossroads-district/", "rating": 5.0, "reviews": 189, "place_id": "ChIJuSDxt0PwwIcRz-wqf7F_FF4", "latitude": 39.0916966, "longitude": -94.58609469999999, "care_type": "Chiropractor"}, {"name": "Phamily Chiropractic & Acupuncture", "address": "2014 Swift St, North Kansas City, MO 64116", "city": "North Kansas City", "phone": "+1 816-221-7426", "website": "http://www.phamilychiropractic.org/", "rating": 5.0, "reviews": 44, "place_id": "ChIJ7bNx-bPwwIcRFKNUxZHX_S4", "latitude": 39.14315, "longitude": -94.5775664, "care_type": "Chiropractor"}, {"name": "Easley Chiropractic", "address": "7703 NW Prairie View Rd, Kansas City, MO 64151", "city": "Kansas City", "phone": "+1 816-841-2600", "website": "http://www.dreasleychiropractic.com/", "rating": 4.9, "reviews": 34, "place_id": "ChIJLySnKLVYwIcR46Y9YFN-I8g", "latitude": 39.23441529999999, "longitude": -94.6581872, "care_type": "Chiropractor"}, {"name": "Northtown Chiropractic and Nutrition", "address": "2627 Burlington St, North Kansas City, MO 64116", "city": "North Kansas City", "phone": "+1 816-268-1000", "website": "https://www.northtownchiropractic.com/%3Futm_source%3Dgmb%26utm_medium%3Dorganic", "rating": 4.9, "reviews": 49, "place_id": "ChIJz3aQMEv3wIcRDrqpLzaG6gc", "latitude": 39.1483525, "longitude": -94.5795936, "care_type": "Chiropractor"}, {"name": "Redefining Wellness Center", "address": "925 Charlotte St, Kansas City, MO 64106", "city": "Kansas City", "phone": "+1 816-889-9801", "website": "http://www.redefiningwellnesscenter.com/", "rating": 4.8, "reviews": 97, "place_id": "ChIJK0oMTUPxwIcRO35q2dYFO9Y", "latitude": 39.1024452, "longitude": -94.5735888, "care_type": "Chiropractor"}, {"name": "Carey Chiropractic", "address": "7611 State Line Rd Suite #150, Kansas City, MO 64114", "city": "Kansas City", "phone": "+1 816-783-5000", "website": "https://careychiropractickc.com/", "rating": 5.0, "reviews": 93, "place_id": "ChIJB-hNInHrwIcRFMVEWRbti18", "latitude": 38.9898707, "longitude": -94.60751409999999, "care_type": "Chiropractor"}, {"name": "Jeffrey D. Spencer, DC", "address": "1414 NW Vivion Rd, Kansas City, MO 64118", "city": "Kansas City", "phone": "+1 816-746-8300", "website": "https://spencerclinic.com/", "rating": 5.0, "reviews": 1, "place_id": "ChIJf1QmGgT3wIcR7FM4lbiTwAg", "latitude": 39.1833491, "longitude": -94.5985008, "care_type": "Chiropractor"}, {"name": "Horizon Chiropractic and Acupuncture", "address": "10015 N Ambassador Dr Ste 200, Kansas City, MO 64153", "city": "Kansas City", "phone": "+1 816-237-7088", "website": "http://www.horizonchironkc.com/", "rating": 5.0, "reviews": 33, "place_id": "ChIJvYhEOGFfwIcRuAUOoyzYEnY", "latitude": 39.2765541, "longitude": -94.66845699999999, "care_type": "Chiropractor"}, {"name": "Tiller Chiropractic LLC", "address": "1620 Locust St Sutie 100, Kansas City, MO 64108", "city": "Kansas City", "phone": "+1 816-262-5802", "website": "", "rating": null, "reviews": 0, "place_id": "ChIJ41XqUee7CQARqqgOmJKf8oY", "latitude": 39.0936993, "longitude": -94.57802249999999, "care_type": "Chiropractor"}, {"name": "Dr. Tyler Smith", "address": "600 Broadway Blvd Suite 170, Kansas City, MO 64105", "city": "Kansas City", "phone": "+1 816-673-1188", "website": "https://www.formchiropractickc.com/about-us", "rating": null, "reviews": 0, "place_id": "ChIJ__-_AfbwwIcRah8mjATmSSc", "latitude": 39.1059304, "longitude": -94.5884674, "care_type": "Chiropractor"}, {"name": "F.I.T. Muscle & Joint Clinic Kansas City (Chiropractic)", "address": "5000 Bannister Rd, Kansas City, MO 64137", "city": "Kansas City", "phone": "+1 816-763-1419", "website": "https://fitmjc.com/location/chiropractor-in-kansas-city/", "rating": 4.8, "reviews": 17, "place_id": "ChIJtfI0gRXnwIcRMf6IxwdmR48", "latitude": 38.9544672, "longitude": -94.5321598, "care_type": "Chiropractor"}, {"name": "L\u00e9k", "address": "813 W 17 St, Kansas City, MO 64108", "city": "Kansas City", "phone": "+1 816-219-5072", "website": "http://www.thelekkc.com/", "rating": 5.0, "reviews": 5, "place_id": "ChIJMQeZmynxwIcRci0BW0-IvrI", "latitude": 39.0929175, "longitude": -94.59392419999999, "care_type": "Chiropractor"}, {"name": "Ark Animal Chiropractic", "address": "5901 NW 72nd St, Kansas City, MO 64151", "city": "Kansas City", "phone": "+1 678-471-1491", "website": "http://www.arkanimalchiropractic.com/", "rating": 5.0, "reviews": 3, "place_id": "ChIJsd-SQB_1wIcR2eFs-JGn5Dg", "latitude": 39.2243514, "longitude": -94.6483849, "care_type": "Chiropractor"}, {"name": "Whitney K. Shoults, DC", "address": "1600 Genessee St # 960, Kansas City, MO 64102", "city": "Kansas City", "phone": "+1 913-488-5636", "website": "https://www.allcarechirokc.com/%3Futm_source%3Dgoogle%26utm_medium%3Dwix_google_business_profile%26utm_campaign%3D9774681631443397501", "rating": 5.0, "reviews": 2, "place_id": "ChIJwzbYIXzxwIcR7FeIDu9skts", "latitude": 39.0945888, "longitude": -94.6052534, "care_type": "Chiropractor"}, {"name": "Lohan Chiropractic and Acupuncture Clinic", "address": "404 Bannister Rd # B, Kansas City, MO 64131", "city": "Kansas City", "phone": "+1 816-444-1218", "website": "https://www.lohanchiro.com/", "rating": 4.8, "reviews": 54, "place_id": "ChIJA6r7hOvowIcRY2Wy8QyJWrM", "latitude": 38.9561967, "longitude": -94.5856783, "care_type": "Chiropractor"}, {"name": "Affolter Michelle M DC", "address": "8101 N Oak Trafficway, Kansas City, MO 64118", "city": "Kansas City", "phone": "+1 816-436-5300", "website": "", "rating": 4.6, "reviews": 9, "place_id": "ChIJRzKGKA5YwIcRTz7LtLkVuFM", "latitude": 39.2405999, "longitude": -94.575434, "care_type": "Chiropractor"}, {"name": "Dr. Brandi Whitaker", "address": "2627 Burlington St, North Kansas City, MO 64116", "city": "North Kansas City", "phone": "+1 816-268-1000", "website": "https://www.northtownchiropractic.com/", "rating": 5.0, "reviews": 3, "place_id": "ChIJkYOEGQT3wIcRse1swkXCJjg", "latitude": 39.1484762, "longitude": -94.579815, "care_type": "Chiropractor"}, {"name": "Functional Chiropractic", "address": "5722 N Broadway, Kansas City, MO 64118", "city": "Kansas City", "phone": "+1 816-200-1788", "website": "http://functionalchirokc.com/", "rating": 5.0, "reviews": 21, "place_id": "ChIJ9YYphPf3wIcR2VdGOMjOZ-Q", "latitude": 39.19762, "longitude": -94.586604, "care_type": "Chiropractor"}, {"name": "Midwest Chiropractic & Sports", "address": "Kansas City, MO 64108", "city": "Kansas City", "phone": "+1 816-522-4343", "website": "", "rating": null, "reviews": 0, "place_id": "ChIJVVVVVUHwwIcR0j7RrWS7lJI", "latitude": 39.0795392, "longitude": -94.5985613, "care_type": "Chiropractor"}, {"name": "Alex Miller", "address": "2014 Swift St, Kansas City, MO 64116", "city": "Kansas City", "phone": "+1 816-988-0185", "website": "https://kcperformancechiro.com/", "rating": 5.0, "reviews": 1, "place_id": "ChIJ___P-7PwwIcR_4aDhBSgWHw", "latitude": 39.1431521, "longitude": -94.5775563, "care_type": "Chiropractor"}, {"name": "ATLAS Chiropractic", "address": "1534 Burlington St Suite 105, North Kansas City, MO 64116", "city": "North Kansas City", "phone": "+1 816-719-9186", "website": "https://www.atlaschiropractickc.com/contact-us", "rating": 5.0, "reviews": 9, "place_id": "ChIJB7HI2rnwwIcR3bKPI5lYGK0", "latitude": 39.1372164, "longitude": -94.58098269999999, "care_type": "Chiropractor"}, {"name": "Dr. Julian Giles", "address": "4444 N Belleview Ave, Kansas City, MO 64116", "city": "Kansas City", "phone": "+1 816-866-0708", "website": "https://www.kansascityfamilychiropractic.com/", "rating": 5.0, "reviews": 2, "place_id": "ChIJ__-_VBD3wIcRJaMfew6eARw", "latitude": 39.1761681, "longitude": -94.5909002, "care_type": "Chiropractor"}, {"name": "Injury Treatment Centers of Kansas City", "address": "1622 Westport Rd, Kansas City, MO 64111", "city": "Kansas City", "phone": "+1 816-886-9005", "website": "https://www.injurytreatmentcentersofkc.com/", "rating": 4.9, "reviews": 369, "place_id": "ChIJH_OXorzvwIcRS_T9pnE21GE", "latitude": 39.0503319, "longitude": -94.604973, "care_type": "Chiropractor"}, {"name": "Divine Spine At KC Salt Mine", "address": "17000 E US Hwy 40 #7, Independence, MO 64055", "city": "Independence", "phone": "+1 816-533-7014", "website": "http://kansascitysaltmine.com/", "rating": 4.9, "reviews": 85, "place_id": "ChIJ-RUrXXsewYcRJHRRbj-GtVQ", "latitude": 39.0349368, "longitude": -94.38026599999999, "care_type": "Chiropractor"}, {"name": "Living Balance Chiropractic and Acupuncture", "address": "5775 NW 64th Terrace Ste 101, Kansas City, MO 64151", "city": "Kansas City", "phone": "+1 816-216-1218", "website": "http://www.livingbalancekc.com/", "rating": 5.0, "reviews": 28, "place_id": "ChIJkQt_axP2wIcRMWFbi6JwvYo", "latitude": 39.211272, "longitude": -94.6481529, "care_type": "Chiropractor"}, {"name": "Bone Works Chiropractic", "address": "4218 Roanoke Rd, Kansas City, MO 64111", "city": "Kansas City", "phone": "+1 816-877-4124", "website": "", "rating": null, "reviews": 0, "place_id": "ChIJfSYRAEXvwIcRONRRz3trKD4", "latitude": 39.051687, "longitude": -94.59757259999999, "care_type": "Chiropractor"}, {"name": "Dr. Halima Farah", "address": "751 E 63rd St #213, Kansas City, MO 64110", "city": "Kansas City", "phone": "+1 816-844-7944", "website": "", "rating": 5.0, "reviews": 1, "place_id": "ChIJq6p6-3HvwIcR94wmPD3BllQ", "latitude": 39.0131304, "longitude": -94.57739509999999, "care_type": "Chiropractor"}, {"name": "David Jennings", "address": "900 W 17 St, Kansas City, MO 64108", "city": "Kansas City", "phone": "+1 816-656-1535", "website": "", "rating": 5.0, "reviews": 1, "place_id": "ChIJVVWFok_wwIcRFv-GppqbqFU", "latitude": 39.0932149, "longitude": -94.59473009999999, "care_type": "Chiropractor"}, {"name": "Kevin S. Coffman, DC", "address": "6009 NW 68 Terrace, Kansas City, MO 64151", "city": "Kansas City", "phone": "+1 816-741-3800", "website": "", "rating": 5.0, "reviews": 7, "place_id": "ChIJuVrQr_z1wIcRNLfdvj_s3Ck", "latitude": 39.2184092, "longitude": -94.6497318, "care_type": "Chiropractor"}, {"name": "Sportsman Chiropractic", "address": "2909 NE Brooktree Ln, Kansas City, MO 64119", "city": "Kansas City", "phone": "+1 816-455-1414", "website": "", "rating": 4.8, "reviews": 33, "place_id": "ChIJramoBzn4wIcRGAE_lA-CmKk", "latitude": 39.2038059, "longitude": -94.54509859999999, "care_type": "Chiropractor"}, {"name": "Kansas City Health & Wellness Clinic", "address": "2336 Armour Rd, Kansas City, MO 64116", "city": "Kansas City", "phone": "+1 816-393-2222", "website": "http://www.kchealthclinic.com/", "rating": 5.0, "reviews": 1, "place_id": "ChIJ55YYAgP6wIcRU7RpEHdRsfU", "latitude": 39.1465323, "longitude": -94.55467589999999, "care_type": "Chiropractor"}, {"name": "Fray Chiropractic", "address": "10803 E State Rte 350 STE B, Raytown, MO 64138", "city": "Raytown", "phone": "+1 816-356-9313", "website": "https://asfca.com/clinic-locations/raytown-mo-chiropractors/", "rating": 4.5, "reviews": 21, "place_id": "ChIJKXutsWbhwIcRSUOK0b37lOE", "latitude": 38.9806122, "longitude": -94.4550938, "care_type": "Chiropractor"}, {"name": "Advanced Sports & Family Chiropractic & Acupuncture: Raytown Location", "address": "10803 E State Rte 350 STE B, Raytown, MO 64138", "city": "Raytown", "phone": "+1 816-356-9313", "website": "https://asfca.com/clinic-locations/raytown-mo-chiropractors/", "rating": 4.8, "reviews": 60, "place_id": "ChIJTW8Ix2bhwIcRYXTSfRNC6vs", "latitude": 38.9806122, "longitude": -94.4550938, "care_type": "Chiropractor"}, {"name": "Chira Chiropractic & Wellness Center", "address": "6124 Blue Ridge Blvd, Raytown, MO 64133", "city": "Raytown", "phone": "+1 816-886-7261", "website": "", "rating": 5.0, "reviews": 22, "place_id": "ChIJbVFKM5TjwIcRl7mYVHgIydA", "latitude": 39.01111, "longitude": -94.46194799999999, "care_type": "Chiropractor"}, {"name": "Revma Chiropractic Health Center", "address": "6220 Arlington Ave, Raytown, MO 64133", "city": "Raytown", "phone": "+1 816-237-0102", "website": "", "rating": 4.6, "reviews": 12, "place_id": "ChIJVVW5iNzjwIcRl1oeF4oVKOQ", "latitude": 39.0094511, "longitude": -94.4683038, "care_type": "Chiropractor"}, {"name": "Thomas M. Murray, D.C.", "address": "10803 E State Rte 350 STE B, Raytown, MO 64138", "city": "Raytown", "phone": "+1 816-325-9137", "website": "http://www.murrayhelps.com/", "rating": 4.6, "reviews": 11, "place_id": "ChIJXa2d1GDhwIcRa7W6ygWU5aw", "latitude": 38.980619, "longitude": -94.4550993, "care_type": "Chiropractor"}, {"name": "Raytown Chiropractor - Revma Health Center - Mary Jo Wiley, DC", "address": "6220 Arlington Ave, Raytown, MO 64133", "city": "Raytown", "phone": "+1 816-237-0102", "website": "", "rating": 4.9, "reviews": 15, "place_id": "ChIJYzPfQunjwIcRt80Wr0_ygbM", "latitude": 39.0094749, "longitude": -94.4682766, "care_type": "Chiropractor"}, {"name": "David E. Fray, DC", "address": "10803 E State Rte 350, Raytown, MO 64138", "city": "Raytown", "phone": "+1 816-356-9313", "website": "", "rating": 5.0, "reviews": 1, "place_id": "ChIJKXutsWbhwIcRu-H9TF4tfVg", "latitude": 38.980619, "longitude": -94.4550993, "care_type": "Chiropractor"}, {"name": "Liberty Chiropractic Center", "address": "257 W Mill St, Liberty, MO 64068", "city": "Liberty", "phone": "+1 816-781-8810", "website": "http://www.thelibertychiropracticcenter.com/", "rating": 5.0, "reviews": 75, "place_id": "ChIJvZ9wNWRVwIcR45JrU75wiaQ", "latitude": 39.2444627, "longitude": -94.4245813, "care_type": "Chiropractor"}, {"name": "Advanced Sports & Family Chiropractic & Acupuncture: Liberty Location", "address": "1520 N Church Rd suite c, Liberty, MO 64068", "city": "Liberty", "phone": "+1 816-831-3600", "website": "https://asfca.com/clinic-locations/liberty-missouri-chiropractic-clinic/", "rating": 4.9, "reviews": 441, "place_id": "ChIJpWQiNtdVwIcR3kRFNwV_Ke4", "latitude": 39.2676449, "longitude": -94.4460182, "care_type": "Chiropractor"}, {"name": "Chiropractic Care Center", "address": "935 W Liberty Dr, Liberty, MO 64068", "city": "Liberty", "phone": "+1 816-781-6556", "website": "http://www.timmerchiropractic.com/", "rating": 4.9, "reviews": 150, "place_id": "ChIJlxGZ7n5VwIcRQAzfB2mkt44", "latitude": 39.2385306, "longitude": -94.435035, "care_type": "Chiropractor"}, {"name": "Chiropractic Healthcare Plus, PC", "address": "601 Rte 291 ste b, Liberty, MO 64068", "city": "Liberty", "phone": "+1 816-429-6598", "website": "http://www.spinedocliberty.com/", "rating": 4.9, "reviews": 165, "place_id": "ChIJbbWN80H1wIcREcNktjq4zW4", "latitude": 39.2407341, "longitude": -94.43878169999999, "care_type": "Chiropractor"}, {"name": "Chiro One Chiropractic & Wellness Center of Liberty", "address": "9040 NE Barry Rd, Kansas City, MO 64157", "city": "Kansas City", "phone": "+1 816-912-0492", "website": "https://www.chiroone.com/locations/missouri/liberty-missouri/%3Futm_source%3Dgmb%26utm_medium%3Dorganic-search%26utm_campaign%3D7013a000001rqD6", "rating": 4.8, "reviews": 93, "place_id": "ChIJYSPfRW9VwIcRpKVrgijh63o", "latitude": 39.2454397, "longitude": -94.46755449999999, "care_type": "Chiropractor"}, {"name": "Liberty Park Chiropractic", "address": "1512 NE 96th St A, Liberty, MO 64068", "city": "Liberty", "phone": "+1 816-407-7200", "website": "http://libertyparkchiropractic.com/", "rating": 5.0, "reviews": 209, "place_id": "ChIJdQE2rbBVwIcRk9NNgbwPZT0", "latitude": 39.2676696, "longitude": -94.4540176, "care_type": "Chiropractor"}, {"name": "Smith Elite Family Chiropractic", "address": "527 N State Rte 291 suite b, Liberty, MO 64068", "city": "Liberty", "phone": "+1 816-407-9800", "website": "https://smithelitechiro.com/", "rating": 5.0, "reviews": 189, "place_id": "ChIJ6YxN1JlVwIcRuA5dVQoWBI0", "latitude": 39.2537844, "longitude": -94.4488968, "care_type": "Chiropractor"}, {"name": "McMullen Chiropractic Center", "address": "1508 N Church Rd, Liberty, MO 64068", "city": "Liberty", "phone": "+1 816-781-1010", "website": "http://www.mcmullenchiropracticcenter.com/", "rating": 5.0, "reviews": 63, "place_id": "ChIJd7ufYa9VwIcR4BjWNDkBD04", "latitude": 39.267732, "longitude": -94.44536389999999, "care_type": "Chiropractor"}, {"name": "F.I.T. Muscle & Joint Clinic Liberty (Chiropractic)", "address": "1860 N Church Rd, Liberty, MO 64068", "city": "Liberty", "phone": "+1 816-368-8226", "website": "https://fitmjc.com/location/chiropractors-in-liberty/", "rating": 4.9, "reviews": 63, "place_id": "ChIJB4QuOT5VwIcRTgn-ebTCjhY", "latitude": 39.2699224, "longitude": -94.4380958, "care_type": "Chiropractor"}, {"name": "Siraguso Family Chiropractic", "address": "113 Blue Jay Dr #106, Liberty, MO 64068", "city": "Liberty", "phone": "+1 816-415-2900", "website": "https://www.siragusochiropractic.com/%3FUTM_source%3DGBL", "rating": 4.8, "reviews": 25, "place_id": "ChIJ478HjYVVwIcRiFKbZvPACQQ", "latitude": 39.2425041, "longitude": -94.4485466, "care_type": "Chiropractor"}, {"name": "Jason A. Hutchison, DC", "address": "1512 NE 96th St A, Liberty, MO 64068", "city": "Liberty", "phone": "+1 816-407-7200", "website": "http://libertyparkchiropractic.com/", "rating": 5.0, "reviews": 7, "place_id": "ChIJdQE2rbBVwIcRcd5b1L9KZyc", "latitude": 39.2678439, "longitude": -94.453942, "care_type": "Chiropractor"}, {"name": "InLine Chiropractic - Eric J. Buckley, DC", "address": "244 W Mill St Ste 105, Liberty, MO 64068", "city": "Liberty", "phone": "+1 816-857-2700", "website": "https://www.facebook.com/ebuck31", "rating": 5.0, "reviews": 18, "place_id": "ChIJKwp4aK9VwIcRYQhfSst62Vc", "latitude": 39.24494749999999, "longitude": -94.4241689, "care_type": "Chiropractor"}, {"name": "Timothy R. Mcmullen, DC", "address": "Liberty, MO 64068", "city": "Liberty", "phone": "+1 816-781-1010", "website": "", "rating": 5.0, "reviews": 1, "place_id": "ChIJKwp4aK9VwIcRIKc1sB9knW4", "latitude": 39.2676441, "longitude": -94.4452317, "care_type": "Chiropractor"}, {"name": "Steven Timmer", "address": "935 W Liberty Dr, Liberty, MO 640682104", "city": "Liberty", "phone": "+1 816-781-6556", "website": "https://www.timmerchiropractic.com/", "rating": 5.0, "reviews": 8, "place_id": "ChIJS0OnXX5VwIcRqv3rsRHVvxI", "latitude": 39.2385306, "longitude": -94.435035, "care_type": "Chiropractor"}, {"name": "Dr. Dimitrios Theoharidis", "address": "601 Rte 291 ste b, Liberty, MO 64068", "city": "Liberty", "phone": "+1 816-429-6598", "website": "https://www.spinedocliberty.com/meet-the-doctor", "rating": 5.0, "reviews": 4, "place_id": "ChIJq6p64oFVwIcRPnJ9Gj0hXao", "latitude": 39.2406118, "longitude": -94.4388302, "care_type": "Chiropractor"}, {"name": "Infinity Chiropractic and Acupuncture", "address": "118 N Main St C, Liberty, MO 64068", "city": "Liberty", "phone": "+1 816-436-2208", "website": "https://infinitychiroacu.com/%3Futm_source%3Dgoogle%26utm_medium%3Dorganic%26utm_campaign%3Dgbp_listing", "rating": 5.0, "reviews": 266, "place_id": "ChIJddbv1NJXwIcRT8i5rR1Qvho", "latitude": 39.2474276, "longitude": -94.42050259999999, "care_type": "Chiropractor"}, {"name": "Dr. Phillip Chapman", "address": "257 W Mill St b, Liberty, MO 64068", "city": "Liberty", "phone": "+1 816-781-8810", "website": "https://thelibertychiropracticcenter.com/", "rating": 5.0, "reviews": 6, "place_id": "ChIJ__-bNWRVwIcR8iN9Gt9GeWo", "latitude": 39.2444125, "longitude": -94.4245637, "care_type": "Chiropractor"}, {"name": "Dr. Amanda Reilly", "address": "9040 NE Barry Rd, Kansas City, MO 64157", "city": "Kansas City", "phone": "+1 816-368-8700", "website": "https://www.chiroone.com/locations/liberty-missouri/", "rating": 5.0, "reviews": 1, "place_id": "ChIJS1WwKfBVwIcRS724Wdx6hPo", "latitude": 39.2454397, "longitude": -94.46755449999999, "care_type": "Chiropractor"}, {"name": "James O'Dwyer DROKC", "address": "244 W Mill St Ste 105, Liberty, MO 64068", "city": "Liberty", "phone": "+1 816-368-1318", "website": "http://www.drokc.com/", "rating": 5.0, "reviews": 4, "place_id": "ChIJt2pUulNVwIcRSdC8r2nE8AQ", "latitude": 39.2450297, "longitude": -94.4239492, "care_type": "Chiropractor"}, {"name": "Able Body Animal Chiropractic", "address": "1170 W Kansas St ste i, Liberty, MO 64068", "city": "Liberty", "phone": "+1 816-429-0364", "website": "", "rating": null, "reviews": 0, "place_id": "ChIJi8vxO_pVwIcR3I8v1Aj7ZS4", "latitude": 39.2451952, "longitude": -94.44080029999999, "care_type": "Chiropractor"}, {"name": "The Joint Chiropractic", "address": "1678 Clarkson Rd, Chesterfield, MO 63017", "city": "Chesterfield", "phone": "+1 636-434-2890", "website": "https://www.thejoint.com/missouri/chesterfield/chesterfield-24005", "rating": 4.9, "reviews": 360, "place_id": "ChIJwQeYlSnV2IcRLi1Qy9Jxh_w", "latitude": 38.6432094, "longitude": -90.5649823, "care_type": "Chiropractor"}, {"name": "Excelsior Health Centers - Chesterfield", "address": "618 Cepi Dr, Chesterfield, MO 63005", "city": "Chesterfield", "phone": "+1 636-345-4816", "website": "http://www.excelsiorchesterfield.com/", "rating": 5.0, "reviews": 150, "place_id": "ChIJqeSgjBrV3ocRvyioktieK_E", "latitude": 38.6674952, "longitude": -90.63051329999999, "care_type": "Chiropractor"}, {"name": "Full Circle Health", "address": "110 Four Seasons Shopping Center, Chesterfield, MO 63017", "city": "Chesterfield", "phone": "+1 314-682-6600", "website": "https://www.fullcirclehealthmo.com/", "rating": 5.0, "reviews": 124, "place_id": "ChIJn0klxOzP2IcRZL9fQnVYvBs", "latitude": 38.6791505, "longitude": -90.5031388, "care_type": "Chiropractor"}, {"name": "ProActiv Health", "address": "17684 Chesterfield Airport Rd, Chesterfield, MO 63005", "city": "Chesterfield", "phone": "+1 636-777-8115", "website": "https://proactivhealth.net/", "rating": 5.0, "reviews": 126, "place_id": "ChIJD4rNYeHV3ocR8oz8XqV3dgs", "latitude": 38.6676323, "longitude": -90.6211933, "care_type": "Chiropractor"}, {"name": "Back to Life Chiropractic", "address": "13720 Olive Blvd, Chesterfield, MO 63017", "city": "Chesterfield", "phone": "+1 314-896-3550", "website": "http://back2lifechiropracticstl.com/", "rating": 4.9, "reviews": 62, "place_id": "ChIJoTGN7U_T2IcR-j_Fg9uzTL0", "latitude": 38.6796359, "longitude": -90.50651909999999, "care_type": "Chiropractor"}, {"name": "Performance Chiropractic", "address": "4 West Dr ste 100, Chesterfield, MO 63017", "city": "Chesterfield", "phone": "+1 636-536-3622", "website": "http://www.perfchiro.com/", "rating": 4.9, "reviews": 35, "place_id": "ChIJpUFTrjAr34cRAx8Q6vaq2AY", "latitude": 38.6609725, "longitude": -90.5497436, "care_type": "Chiropractor"}, {"name": "LifeClinic Chiropractic & Rehabilitation - Chesterfield, MO", "address": "3058 Clarkson Rd, Chesterfield, MO 63017", "city": "Chesterfield", "phone": "+1 636-591-2559", "website": "https://www.lifeclinics.us/", "rating": 5.0, "reviews": 56, "place_id": "ChIJT90u_H3V2IcR9DW2vCFH-xs", "latitude": 38.6071209, "longitude": -90.5829796, "care_type": "Chiropractor"}, {"name": "Elite Chiropractic and Performance", "address": "140 Long Rd #201, Chesterfield, MO 63005", "city": "Chesterfield", "phone": "+1 636-728-8607", "website": "https://www.elitechiroperformance.com/", "rating": 5.0, "reviews": 76, "place_id": "ChIJlR7GQDrV3ocRq9F4B-W-OZ4", "latitude": 38.6661168, "longitude": -90.6171202, "care_type": "Chiropractor"}, {"name": "St. Louis Sports Clinic", "address": "645 Spirit Valley Central Dr, Chesterfield, MO 63005", "city": "Chesterfield", "phone": "+1 314-200-5032", "website": "https://stlsportsclinic.com/", "rating": 5.0, "reviews": 275, "place_id": "ChIJqVfUEb3V3ocRI_Th9BT4h_g", "latitude": 38.6691106, "longitude": -90.6672686, "care_type": "Chiropractor"}, {"name": "Optimal Performance Center", "address": "219 Chesterfield Towne Center, Chesterfield, MO 63005", "city": "Chesterfield", "phone": "+1 636-778-9997", "website": "http://stlopc.com/", "rating": 4.8, "reviews": 45, "place_id": "ChIJRy6MDEjV3ocRzbaRjgXuu-Q", "latitude": 38.6618022, "longitude": -90.61976279999999, "care_type": "Chiropractor"}, {"name": "Sports & Family Chiropractic & Acupuncture LLC", "address": "132 Chesterfield Commons E Rd, Chesterfield, MO 63005", "city": "Chesterfield", "phone": "+1 636-530-1212", "website": "http://stlchiropractic-acupuncture.com/", "rating": 4.9, "reviews": 71, "place_id": "ChIJe5dl0UfV3ocRCeXQ-fEPi8c", "latitude": 38.6664598, "longitude": -90.5815341, "care_type": "Chiropractor"}, {"name": "Chapel McMurtrie and Bartlett Chiropractic Orthopedics", "address": "936 Chesterfield Pkwy E, Chesterfield, MO 63017", "city": "Chesterfield", "phone": "+1 636-537-0564", "website": "http://cmbchiro.com/", "rating": 4.9, "reviews": 21, "place_id": "ChIJ30sIFjIr34cReYeo6wLedxY", "latitude": 38.6558442, "longitude": -90.5527402, "care_type": "Chiropractor"}, {"name": "Dr. Joshua Kilpatrick", "address": "132 Chesterfield Commons E Rd E, Chesterfield, MO 63005", "city": "Chesterfield", "phone": "+1 636-530-1212", "website": "https://www.stlchiropractic-acupuncture.com/about", "rating": 5.0, "reviews": 12, "place_id": "ChIJVxeVR8cq34cRQYMd8fFghJg", "latitude": 38.6665287, "longitude": -90.5814197, "care_type": "Chiropractor"}, {"name": "Chiro One Chiropractic & Wellness Center of Town and Country", "address": "1200 Town and Country Crossing Dr, Town and Country, MO 63017", "city": "Town and Country", "phone": "+1 636-489-1599", "website": "https://www.chiroone.com/locations/missouri/town-and-country-missouri/%3Futm_source%3Dgmb%26utm_medium%3Dorganic-search%26utm_campaign%3D7013a000001rxH8", "rating": 5.0, "reviews": 68, "place_id": "ChIJr-sZe5nT2IcRrAzyNOu5H4E", "latitude": 38.6213681, "longitude": -90.5156026, "care_type": "Chiropractor"}, {"name": "William S. Hallums, DC", "address": "4 West Dr ste 100, Chesterfield, MO 63017", "city": "Chesterfield", "phone": "+1 636-536-3622", "website": "https://perfchiro.com/", "rating": 5.0, "reviews": 113, "place_id": "ChIJV5yKY_VUDogR_FFnBvXqCgk", "latitude": 38.6609079, "longitude": -90.5497235, "care_type": "Chiropractor"}, {"name": "The Ozzie Smith Center for Regenerative Medicine", "address": "16216 Baxter Rd #300, Chesterfield, MO 63017", "city": "Chesterfield", "phone": "+1 314-200-4955", "website": "https://www.ozziesmithcenter.com/", "rating": 4.9, "reviews": 35, "place_id": "ChIJD7oXlYfV2IcRWoBpiYDa5CU", "latitude": 38.640567, "longitude": -90.56949209999999, "care_type": "Chiropractor"}, {"name": "Bonesetters: Critical Care Chiropractic Clinic", "address": "15510 Olive Blvd, Chesterfield, MO 63017", "city": "Chesterfield", "phone": "+1 636-735-3599", "website": "https://bonesetters.org/%3Futm_campaign%3Dgmb", "rating": 5.0, "reviews": 41, "place_id": "ChIJmZ3AyQUr34cRZWM94cDplqY", "latitude": 38.6568902, "longitude": -90.552696, "care_type": "Chiropractor"}, {"name": "Endurance Health and Performance", "address": "253 Chesterfield Industrial Blvd, Chesterfield, MO 63005", "city": "Chesterfield", "phone": "+1 314-441-6155", "website": "http://endurance-stl.com/", "rating": 5.0, "reviews": 11, "place_id": "ChIJMwIG9O7V3ocRCt-SHwA6GTU", "latitude": 38.6608849, "longitude": -90.6214497, "care_type": "Chiropractor"}, {"name": "Kern G. Mcmurtrie, DC", "address": "936 Chesterfield Pkwy E, Chesterfield, MO 63017", "city": "Chesterfield", "phone": "+1 636-537-0564", "website": "", "rating": 4.4, "reviews": 7, "place_id": "ChIJ4xDNPTIr34cRRHaXiLkWojM", "latitude": 38.6558442, "longitude": -90.5527402, "care_type": "Chiropractor"}, {"name": "Dr. Kaitlyn Belisle, DC", "address": "4 West Dr ste 100, Chesterfield, MO 63017", "city": "Chesterfield", "phone": "+1 636-536-3622", "website": "http://www.perfchiro.com/", "rating": 5.0, "reviews": 9, "place_id": "ChIJI_4HTGUr34cR1z_rZQU161I", "latitude": 38.6609079, "longitude": -90.5497235, "care_type": "Chiropractor"}, {"name": "Dynamic Health Chiropractic LLC", "address": "300 Ozark Trail Dr Suite 105, Ellisville, MO 63011", "city": "Ellisville", "phone": "+1 636-207-6600", "website": "http://www.drjenniferkane.com/", "rating": 5.0, "reviews": 15, "place_id": "ChIJvSJ_SInU2IcRoMs4HxKU-9U", "latitude": 38.6028963, "longitude": -90.58875429999999, "care_type": "Chiropractor"}, {"name": "Rachel C. Bartlett, DC", "address": "936 Chesterfield Pkwy E, Chesterfield, MO 63017", "city": "Chesterfield", "phone": "+1 636-537-0564", "website": "http://www.cmbchiro.com/", "rating": 5.0, "reviews": 1, "place_id": "ChIJ4xDNPTIr34cROOICJ1XLAMo", "latitude": 38.6558521, "longitude": -90.5527068, "care_type": "Chiropractor"}, {"name": "Howard J. Chapel, DC", "address": "936 Chesterfield Pkwy E, Chesterfield, MO 63017", "city": "Chesterfield", "phone": "+1 636-537-0564", "website": "", "rating": 5.0, "reviews": 1, "place_id": "ChIJ4xDNPTIr34cRML51pVZ-EeU", "latitude": 38.6558154, "longitude": -90.55276359999999, "care_type": "Chiropractor"}, {"name": "Cypress Garrett, DC", "address": "111 St Luke's Center Dr Suite 44B, Chesterfield, MO 63017", "city": "Chesterfield", "phone": "+1 314-576-2424", "website": "https://www.stlukes-stl.com/providers/cypress-garrett.html", "rating": 4.6, "reviews": 11, "place_id": "ChIJ5V9dEBXT2IcRec38JcLGCVk", "latitude": 38.6550285, "longitude": -90.50954569999999, "care_type": "Chiropractor"}, {"name": "Michael E. Murphy, DC", "address": "4 West Dr ste 100, Chesterfield, MO 63017", "city": "Chesterfield", "phone": "+1 636-536-3622", "website": "http://www.perfchiro.com/", "rating": 5.0, "reviews": 8, "place_id": "ChIJEUFTrjAr34cRzrAunci7MzA", "latitude": 38.6607485, "longitude": -90.549632, "care_type": "Chiropractor"}, {"name": "Spirit Physical Therapy & Wellness - Chesterfield Valley", "address": "140 Long Rd #201, Chesterfield, MO 63005", "city": "Chesterfield", "phone": "+1 636-265-1505", "website": "https://www.spiritpt.com/chesterfield", "rating": 5.0, "reviews": 162, "place_id": "ChIJUdYFNZjV2IcRVqEVa5Xh7BM", "latitude": 38.6661643, "longitude": -90.6171569, "care_type": "Chiropractor"}, {"name": "Vishion Michael A DC", "address": "717 Crown Industrial Ct Suite N, Chesterfield, MO 63005", "city": "Chesterfield", "phone": "+1 314-455-8400", "website": "https://worldclassperformancetraining.com/", "rating": 5.0, "reviews": 1, "place_id": "ChIJOXzoN83U2IcRV9SX03XUnA4", "latitude": 38.667793, "longitude": -90.6431025, "care_type": "Chiropractor"}, {"name": "Dr. Samantha Davies DC", "address": "936 Chesterfield Pkwy E, Chesterfield, MO 63017", "city": "Chesterfield", "phone": "+1 636-537-0564", "website": "", "rating": 5.0, "reviews": 1, "place_id": "ChIJOdiV4qzV2IcRyzzKvuNQUx0", "latitude": 38.655828, "longitude": -90.55273419999999, "care_type": "Chiropractor"}, {"name": "Little Bee-Well Chiropractic", "address": "78 Clarkson Wilson Center Suite 5, Chesterfield, MO 63017", "city": "Chesterfield", "phone": "+1 636-791-6326", "website": "https://www.littlebeewell.com/", "rating": 5.0, "reviews": 31, "place_id": "ChIJFURqAtvV2IcRlLFpjHSKb8g", "latitude": 38.6272419, "longitude": -90.57946779999999, "care_type": "Chiropractor"}, {"name": "Yarger Chiropractic and Acupuncture", "address": "510 Baxter Rd Suite 10, Chesterfield, MO 63017", "city": "Chesterfield", "phone": "+1 636-220-3335", "website": "https://www.yargerchiropractic.com/", "rating": 5.0, "reviews": 31, "place_id": "ChIJxWgnFYnU2IcRO6Q3M6ITNW4", "latitude": 38.614337, "longitude": -90.538924, "care_type": "Chiropractor"}, {"name": "Jill D. Camp, DC Acupuncture and Chiropractic Clinic", "address": "106 Four Seasons Shopping Center, Chesterfield, MO 63017", "city": "Chesterfield", "phone": "+1 314-229-0700", "website": "http://drjill.juiceplus.com/", "rating": 5.0, "reviews": 5, "place_id": "ChIJP1o6EpLT2IcRM1DE62h3SUg", "latitude": 38.6790177, "longitude": -90.50297069999999, "care_type": "Chiropractor"}, {"name": "Dr. Aaron Wahl", "address": "744 Spirit of Saint Louis Blvd Suite J, Chesterfield, MO 63005", "city": "Chesterfield", "phone": "+1 314-681-8388", "website": "https://www.wahlhealth.com/", "rating": 5.0, "reviews": 1, "place_id": "ChIJly_qrtXU2IcRwmXTAdyDM6Y", "latitude": 38.667501, "longitude": -90.6448695, "care_type": "Chiropractor"}, {"name": "Dr. Matthew Pennell", "address": "#4 West Dr ste 100, Chesterfield, MO 63017", "city": "Chesterfield", "phone": "+1 636-536-3622", "website": "http://www.perfchiro.com/", "rating": 5.0, "reviews": 26, "place_id": "ChIJS4dIyjAr34cRvsiYeMMjcWo", "latitude": 38.6607485, "longitude": -90.549632, "care_type": "Chiropractor"}, {"name": "Deanna K. Bates, DC", "address": "14377 Woodlake Dr, Chesterfield, MO 63017", "city": "Chesterfield", "phone": "+1 314-628-9895", "website": "", "rating": 5.0, "reviews": 2, "place_id": "ChIJoTGN7U_T2IcRc5P3MzwSltc", "latitude": 38.6421886, "longitude": -90.5155286, "care_type": "Chiropractor"}, {"name": "Montgomery Patrick DC", "address": "1851 Schoettler Rd, Chesterfield, MO 63017", "city": "Chesterfield", "phone": "+1 636-227-2100", "website": "", "rating": 5.0, "reviews": 2, "place_id": "ChIJoR2hcb7U2IcRmpsXuRDp_dw", "latitude": 38.6313567, "longitude": -90.5422937, "care_type": "Chiropractor"}, {"name": "Dr. Brian Laiderman", "address": "219 Chesterfield Towne Center, Chesterfield, MO 63005", "city": "Chesterfield", "phone": "+1 636-778-9997", "website": "http://stlopc.com/About-Us", "rating": 5.0, "reviews": 2, "place_id": "ChIJsTfMCUjV3ocRPtpzox4ITkU", "latitude": 38.6618022, "longitude": -90.61976279999999, "care_type": "Chiropractor"}, {"name": "Janine Ludwinski, DC", "address": "1851 Schoettler Rd, Chesterfield, MO 63017", "city": "Chesterfield", "phone": "+1 636-227-2100", "website": "", "rating": 5.0, "reviews": 1, "place_id": "ChIJoR2hcb7U2IcRyD8Gpk2KfLM", "latitude": 38.6313301, "longitude": -90.542401, "care_type": "Chiropractor"}, {"name": "Connie S. Hayes, DC", "address": "1851 Schoettler Rd, Chesterfield, MO 63017", "city": "Chesterfield", "phone": "+1 636-227-2100", "website": "", "rating": 5.0, "reviews": 3, "place_id": "ChIJoR2hcb7U2IcRWUJzOrwGsPc", "latitude": 38.6313301, "longitude": -90.542401, "care_type": "Chiropractor"}, {"name": "Curis Express - Chiropractic & Wellness", "address": "100 THF Blvd, Chesterfield, MO 63005", "city": "Chesterfield", "phone": "+1 636-283-2831", "website": "http://www.curisexpress.com/", "rating": 5.0, "reviews": 1, "place_id": "ChIJsSqIgEEr34cRcs8MeIWXV2M", "latitude": 38.6660001, "longitude": -90.5913393, "care_type": "Chiropractor"}, {"name": "Wahl Chiropractic and Acupuncture", "address": "744 Spirit of Saint Louis Blvd Suite J, Chesterfield, MO 63005", "city": "Chesterfield", "phone": "+1 314-681-8388", "website": "https://www.wahlhealth.com/%3Futm_source%3DGBP%26utm_medium%3Dorganic", "rating": 5.0, "reviews": 46, "place_id": "ChIJ40mcrtXU2IcRuStatICMuq8", "latitude": 38.6675318, "longitude": -90.64490889999999, "care_type": "Chiropractor"}, {"name": "Tryfonas Chiropractic", "address": "1562 Woodlake Dr, Chesterfield, MO 63017", "city": "Chesterfield", "phone": "+1 314-862-4688", "website": "", "rating": 3.4, "reviews": 5, "place_id": "ChIJySBb0izT2IcR8cKxAqnl7Cs", "latitude": 38.6412374, "longitude": -90.5168111, "care_type": "Chiropractor"}, {"name": "Dr. Frank Harris", "address": "15876 Fountain Plaza Dr, Chesterfield, MO 63017", "city": "Chesterfield", "phone": "+1 630-468-1824", "website": "https://www.chiroone.com/locations/ellisville-missouri/", "rating": 5.0, "reviews": 2, "place_id": "ChIJz_WQcZ_V2IcRcRvyIJjJkcc", "latitude": 38.6064159, "longitude": -90.5833766, "care_type": "Chiropractor"}, {"name": "Hillgartner Chiropractic", "address": "132 Chesterfield Commons E Rd, Chesterfield, MO 63005", "city": "Chesterfield", "phone": "+1 636-391-0424", "website": "https://www.hillgartnerchiropractic.com/", "rating": 5.0, "reviews": 8, "place_id": "ChIJ7Y2HMnTU2IcR0CV6HomojVI", "latitude": 38.6665287, "longitude": -90.5814197, "care_type": "Chiropractor"}, {"name": "The Joint Chiropractic", "address": "2111 Missouri Blvd H, Jefferson City, MO 65109", "city": "Jefferson City", "phone": "+1 573-245-8936", "website": "https://www.thejoint.com/missouri/jefferson-city/jefferson-city-24025", "rating": 4.9, "reviews": 249, "place_id": "ChIJR9Bddm1f24cRRMWHk7qSPzY", "latitude": 38.5808639, "longitude": -92.2064, "care_type": "Chiropractor"}, {"name": "Hollon Family Chiropractic - Jefferson City", "address": "751 W Stadium Blvd Ste D, Jefferson City, MO 65109", "city": "Jefferson City", "phone": "+1 573-636-5433", "website": "https://www.hollonfamilychiropractic.com/jefferson-city/", "rating": 4.9, "reviews": 280, "place_id": "ChIJh1COlc9e24cRmvkMp_XaztM", "latitude": 38.5781555, "longitude": -92.21490469999999, "care_type": "Chiropractor"}, {"name": "Koelling Family Chiropractic - Jefferson City", "address": "3702 W Truman Blvd Ste 218, Jefferson City, MO 65109", "city": "Jefferson City", "phone": "+1 573-606-6970", "website": "https://www.drbryce.com/kfchiro-jeffcity", "rating": 4.9, "reviews": 97, "place_id": "ChIJr-FHJT5Z24cRcYagKVwKLcM", "latitude": 38.5886945, "longitude": -92.2554703, "care_type": "Chiropractor"}, {"name": "Align Chiropractic Clinic", "address": "1739 Elm Ct Ste 101, Jefferson City, MO 65101", "city": "Jefferson City", "phone": "+1 573-635-4747", "website": "https://www.alignchiroclinicmo.com/%3Futm_source%3DGMB%26utm_medium%3Dorganic", "rating": 4.8, "reviews": 163, "place_id": "ChIJc6ePB21f24cRBgY5EeqVNDM", "latitude": 38.5529009, "longitude": -92.1508992, "care_type": "Chiropractor"}, {"name": "Downtown Chiropractic & Acupuncture Clinic", "address": "416 E High St, Jefferson City, MO 65101", "city": "Jefferson City", "phone": "+1 573-636-6341", "website": "https://www.downtownchiro.net/", "rating": 5.0, "reviews": 24, "place_id": "ChIJaXtTEUFe24cR1vuC0Rqyyh8", "latitude": 38.5735749, "longitude": -92.1680659, "care_type": "Chiropractor"}, {"name": "Manns Decompression & Chiropractic", "address": "1407 Southwest Blvd Suite B, Jefferson City, MO 65109", "city": "Jefferson City", "phone": "+1 573-677-6564", "website": "", "rating": 5.0, "reviews": 23, "place_id": "ChIJJ9lWMBtf24cR3ww4-ImjUAo", "latitude": 38.5645785, "longitude": -92.1996144, "care_type": "Chiropractor"}, {"name": "Align Chiropractic Clinic", "address": "3237 W Truman Blvd Ste 100, Jefferson City, MO 65109", "city": "Jefferson City", "phone": "+1 573-635-0062", "website": "https://www.alignchiroclinicmo.com/%3Futm_source%3Dgmb%26utm_medium%3Dorganic", "rating": 4.7, "reviews": 170, "place_id": "ChIJMwNsJT9Z24cRbJFamYcy5GY", "latitude": 38.5921618, "longitude": -92.2406409, "care_type": "Chiropractor"}, {"name": "Kayser Chiropractic Center", "address": "1011 Southwest Blvd Suite B, Jefferson City, MO 65109", "city": "Jefferson City", "phone": "+1 573-635-6767", "website": "https://www.kayser-chiropractic.com/", "rating": 4.5, "reviews": 8, "place_id": "ChIJJeQahOte24cR5bNqALBARjM", "latitude": 38.5724543, "longitude": -92.1994242, "care_type": "Chiropractor"}, {"name": "Vitality Chiropractic", "address": "915 Southwest Blvd, Jefferson City, MO 65109", "city": "Jefferson City", "phone": "+1 573-635-2225", "website": "https://www.vitalitychiropracticjcmo.com/", "rating": 4.9, "reviews": 10, "place_id": "ChIJh1COlc9e24cRRksKtU8pzbQ", "latitude": 38.574087, "longitude": -92.19926799999999, "care_type": "Chiropractor"}, {"name": "Wheat Chiropractic", "address": "1001 Diamond Ridge Suite 900, Jefferson City, MO 65109", "city": "Jefferson City", "phone": "+1 573-636-3555", "website": "http://www.wheatchiropractic.com/", "rating": 5.0, "reviews": 32, "place_id": "ChIJ5-X_7jhZ24cR8_k4t53lmSU", "latitude": 38.5701292, "longitude": -92.23764399999999, "care_type": "Chiropractor"}, {"name": "Kayser Rich DC", "address": "1011 Southwest Blvd Suite B, Jefferson City, MO 65109", "city": "Jefferson City", "phone": "+1 573-635-6767", "website": "http://www.kayser-chiropractic.com/", "rating": 5.0, "reviews": 3, "place_id": "ChIJJeQahOte24cRK7C6jncwhdM", "latitude": 38.5724543, "longitude": -92.1994242, "care_type": "Chiropractor"}, {"name": "Health Quest Physicians Group", "address": "3349 American Ave # B, Jefferson City, MO 65109", "city": "Jefferson City", "phone": "+1 573-635-9655", "website": "https://www.healthquestgroup.com/", "rating": 4.7, "reviews": 129, "place_id": "ChIJ1R0BbhdZ24cRQUc-6PLc6j4", "latitude": 38.578092, "longitude": -92.2464289, "care_type": "Chiropractor"}, {"name": "Rising Health & Performance", "address": "925 Madison St, Jefferson City, MO 65101", "city": "Jefferson City", "phone": "+1 573-508-6954", "website": "http://www.risinghealthandperformance.com/", "rating": 5.0, "reviews": 30, "place_id": "ChIJjxYXoS9f24cR9Mg757xOH00", "latitude": 38.5688088, "longitude": -92.17919239999999, "care_type": "Chiropractor"}, {"name": "Capitol Chiropractic Care", "address": "225 E Dunklin St, Jefferson City, MO 65101", "city": "Jefferson City", "phone": "+1 573-635-2273", "website": "https://www.facebook.com/Capital-Chiropractic-Care-130317257043328/", "rating": 4.6, "reviews": 9, "place_id": "ChIJWXrFPF1e24cRaWJFF_ayI1o", "latitude": 38.5715688, "longitude": -92.17476599999999, "care_type": "Chiropractor"}, {"name": "Covenant Pediatric Wellness Center", "address": "2409 Hyde Park Rd, Jefferson City, MO 65109", "city": "Jefferson City", "phone": "+1 573-635-6217", "website": "http://www.covenantwellness.net/", "rating": 4.9, "reviews": 40, "place_id": "ChIJ1R0BbhdZ24cRcKGftduaZoI", "latitude": 38.5769717, "longitude": -92.2131982, "care_type": "Chiropractor"}, {"name": "Paul Dupuis, DC", "address": "416 E High St, Jefferson City, MO 65101", "city": "Jefferson City", "phone": "+1 573-636-6341", "website": "https://www.downtownchiro.net/", "rating": 5.0, "reviews": 5, "place_id": "ChIJaXtTEUFe24cR1X2MSk8HAc4", "latitude": 38.5735404, "longitude": -92.1680817, "care_type": "Chiropractor"}, {"name": "Dupuis Pierre DC", "address": "416 E High St, Jefferson City, MO 65101", "city": "Jefferson City", "phone": "+1 573-636-6341", "website": "", "rating": 5.0, "reviews": 2, "place_id": "ChIJqbFTEUFe24cR4bNMjGf8aHo", "latitude": 38.5735749, "longitude": -92.1680659, "care_type": "Chiropractor"}, {"name": "Roger W. Owens, DC", "address": "American Building, 3349 American Ave # B, Jefferson City, MO 65109", "city": "Jefferson City", "phone": "+1 573-635-9655", "website": "", "rating": 5.0, "reviews": 1, "place_id": "ChIJ1R0BbhdZ24cR23Js_ch_Vdc", "latitude": 38.5781216, "longitude": -92.2464541, "care_type": "Chiropractor"}, {"name": "Kliethermes Chiropractic", "address": "915 Southwest Blvd, Jefferson City, MO 65109", "city": "Jefferson City", "phone": "+1 573-635-2225", "website": "", "rating": 4.3, "reviews": 6, "place_id": "ChIJRWib-ete24cRgTcptkzPA8Y", "latitude": 38.57408789999999, "longitude": -92.1992684, "care_type": "Chiropractor"}, {"name": "Rhoads Chiropractic Clinic PC", "address": "1739 E Elm St #201, Jefferson City, MO 65101", "city": "Jefferson City", "phone": "+1 573-636-9977", "website": "", "rating": 5.0, "reviews": 4, "place_id": "ChIJRWib-ete24cR-6Qy1W7IhLA", "latitude": 38.5530101, "longitude": -92.15089119999999, "care_type": "Chiropractor"}, {"name": "Body Flow Chiropractic: Tillie Dowd, DC", "address": "406 S Main St, Ashland, MO 65010", "city": "Ashland", "phone": "+1 573-657-3569", "website": "https://www.bodyflowchiro.com/", "rating": 5.0, "reviews": 128, "place_id": "ChIJfd0wwdGl3IcRaZMAn55uQi8", "latitude": 38.7704397, "longitude": -92.2619814, "care_type": "Chiropractor"}, {"name": "Ashland Chiropractic & Wellness", "address": "101 Redtail Dr A, Ashland, MO 65010", "city": "Ashland", "phone": "+1 573-657-2500", "website": "https://ashlandchiropracticandwellness.com/", "rating": 5.0, "reviews": 51, "place_id": "ChIJVxgY_WC23IcRiFWXvdpRmj0", "latitude": 38.7645055, "longitude": -92.26186249999999, "care_type": "Chiropractor"}, {"name": "James Zielinski DC", "address": "101 Redtail Dr A, Ashland, MO 65010", "city": "Ashland", "phone": "+1 573-657-2500", "website": "https://ashlandchiropracticandwellness.com/about/", "rating": 5.0, "reviews": 4, "place_id": "ChIJvzRqn_2k3IcRh5XFu_yZg7U", "latitude": 38.7645054, "longitude": -92.2618699, "care_type": "Chiropractor"}, {"name": "Dr. Bryce Koelling", "address": "3702 W Truman Blvd Ste 218, Jefferson City, MO 65109", "city": "Jefferson City", "phone": "+1 573-606-6970", "website": "https://www.drbryce.com/", "rating": null, "reviews": 0, "place_id": "ChIJq6pqewJZ24cRipwaBgJsaNk", "latitude": 38.5887427, "longitude": -92.25575459999999, "care_type": "Chiropractor"}, {"name": "Get Well Family Health and Chiropractic", "address": "580 N Hwy 67 Suite 5, Florissant, MO 63031", "city": "Florissant", "phone": "+1 314-524-2580", "website": "http://www.getwellfc.com/", "rating": 4.9, "reviews": 186, "place_id": "ChIJgfD_bAM234cRVp6phsFsAD8", "latitude": 38.7976305, "longitude": -90.3364589, "care_type": "Chiropractor"}, {"name": "Chiropractic of Florissant Valley", "address": "225 Dunn Rd, Florissant, MO 63031", "city": "Florissant", "phone": "+1 314-839-6520", "website": "http://chiroflovalley.com/", "rating": 5.0, "reviews": 105, "place_id": "ChIJXyxC5FI234cRPOZm9cAZ2-8", "latitude": 38.776956, "longitude": -90.33335799999999, "care_type": "Chiropractor"}, {"name": "Epic Life Chiropractic & Wellness", "address": "745 Rue St. Francois St, Florissant, MO 63031", "city": "Florissant", "phone": "+1 314-839-8884", "website": "https://florissantchiro.com/", "rating": 5.0, "reviews": 142, "place_id": "ChIJY4Bfz7s334cR6K_FoPZJrG8", "latitude": 38.7927499, "longitude": -90.3251581, "care_type": "Chiropractor"}, {"name": "Chiropractic of North County", "address": "10111 Lewis and Clark Blvd, St. Louis, MO 63136", "city": "St. Louis", "phone": "+1 314-867-8888", "website": "https://www.mystlouischiropractor.com/", "rating": 5.0, "reviews": 37, "place_id": "ChIJWYODPUFJ34cRmisbHr2g3uQ", "latitude": 38.7539808, "longitude": -90.2395914, "care_type": "Chiropractor"}, {"name": "Back & Neck Care Center of North County", "address": "11638 W Florissant Ave, Florissant, MO 63033", "city": "Florissant", "phone": "+1 314-838-2220", "website": "https://www.backandneck.org/", "rating": 4.9, "reviews": 246, "place_id": "ChIJq2YnarVJ34cRpc6ajH5RXvM", "latitude": 38.7769308, "longitude": -90.2799429, "care_type": "Chiropractor"}, {"name": "St. Louis Medical Center", "address": "1701 S Florissant Rd, St. Louis, MO 63121", "city": "St. Louis", "phone": "+1 314-522-0042", "website": "http://www.stlouismedicalcenter.com/", "rating": 4.9, "reviews": 64, "place_id": "ChIJYcSe3_A134cRggAqlL4D9Co", "latitude": 38.723444, "longitude": -90.30543759999999, "care_type": "Chiropractor"}, {"name": "Stark Jeffrey R DC", "address": "11638 W Florissant Ave, Florissant, MO 63033", "city": "Florissant", "phone": "+1 314-838-2220", "website": "http://www.backandneck.org/", "rating": 4.6, "reviews": 12, "place_id": "ChIJq2YnarVJ34cR46tUtT-ypz0", "latitude": 38.776945, "longitude": -90.279905, "care_type": "Chiropractor"}, {"name": "Health First Chiropractic", "address": "2880 Netherton Dr #200, St. Louis, MO 63136", "city": "St. Louis", "phone": "+1 314-325-7400", "website": "http://www.chiropracticcarestlouis.com/", "rating": 5.0, "reviews": 3, "place_id": "ChIJD7I3y61J34cRgtHhntyRII8", "latitude": 38.7742305, "longitude": -90.26906009999999, "care_type": "Chiropractor"}, {"name": "North County Chiropractic", "address": "10111 Lewis and Clark Blvd, St. Louis, MO 63136", "city": "St. Louis", "phone": "+1 314-868-2220", "website": "http://mystlouischiropractor.com/", "rating": 5.0, "reviews": 6, "place_id": "ChIJz61pQmlJ34cRoVqGuz_usxc", "latitude": 38.7541624, "longitude": -90.2396383, "care_type": "Chiropractor"}, {"name": "Florissant Chiropractor | Accident and Injury Center | AIC Chiropractic", "address": "11405 New Halls Ferry Road, Florissant, MO 63033", "city": "Florissant", "phone": "+1 314-838-6070", "website": "http://stlouismedicalcenter.com/", "rating": 5.0, "reviews": 56, "place_id": "ChIJYZQkVLJJ34cR8_nkGw2NOlc", "latitude": 38.7756912, "longitude": -90.273384, "care_type": "Chiropractor"}, {"name": "Jesse L. Roberts, DC", "address": "1701 S Florissant Rd, St. Louis, MO 63121", "city": "St. Louis", "phone": "+1 314-522-0042", "website": "", "rating": 5.0, "reviews": 1, "place_id": "ChIJYcSe3_A134cRlo5Q8UVe7AM", "latitude": 38.723444, "longitude": -90.30543759999999, "care_type": "Chiropractor"}, {"name": "David A. Sciortino, DC", "address": "1701 S Florissant Rd, St. Louis, MO 63121", "city": "St. Louis", "phone": "+1 314-522-0042", "website": "http://www.stlouismedicalcenter.com/about-us/meet-our-doctor/", "rating": 4.6, "reviews": 5, "place_id": "ChIJYcSe3_A134cRBu7OzPDlqoE", "latitude": 38.7234223, "longitude": -90.3054614, "care_type": "Chiropractor"}, {"name": "TEAM-HEALTH Chiropractic LLC", "address": "11716 W Florissant Ave, Florissant, MO 63033", "city": "Florissant", "phone": "+1 314-567-9990", "website": "https://www.teamhealthchiropractic.com/", "rating": 5.0, "reviews": 1, "place_id": "ChIJu0R0mEpI34cREixc3tQz1KI", "latitude": 38.7791333, "longitude": -90.2796745, "care_type": "Chiropractor"}, {"name": "Lifestyle Chiropractic & Wellness Center", "address": "923 N Hwy 67, Florissant, MO 63031", "city": "Florissant", "phone": "+1 314-395-6910", "website": "http://www.lifestylechiropracticstl.com/", "rating": 5.0, "reviews": 40, "place_id": "ChIJKxin5i8334cRvcjPEiyeewE", "latitude": 38.8000299, "longitude": -90.3301461, "care_type": "Chiropractor"}, {"name": "Hummel Chiropractic", "address": "11638 W Florissant Ave, Florissant, MO 63033", "city": "Florissant", "phone": "+1 314-838-8780", "website": "", "rating": 4.8, "reviews": 16, "place_id": "ChIJq2YnarVJ34cRE1PbPGAqhQM", "latitude": 38.776945, "longitude": -90.279905, "care_type": "Chiropractor"}, {"name": "Gene D. Bell, DC", "address": "3300 N Hwy 67, Florissant, MO 63033", "city": "Florissant", "phone": "+1 314-838-1983", "website": "", "rating": 5.0, "reviews": 6, "place_id": "ChIJAcmwYQNI34cRbQwyM7MyYj8", "latitude": 38.8110126, "longitude": -90.2944739, "care_type": "Chiropractor"}, {"name": "Spinal Rehabilitation Center", "address": "7601 Natural Bridge Rd Apt 101, St. Louis, MO 63121", "city": "St. Louis", "phone": "+1 314-405-9881", "website": "https://www.srcstl.com/", "rating": 4.8, "reviews": 59, "place_id": "ChIJS6X5nDs134cRLy6IcfMa5mE", "latitude": 38.7059759, "longitude": -90.301225, "care_type": "Chiropractor"}, {"name": "Brian J. Snyder, DC", "address": "2935 Derhake Rd, Florissant, MO 63033", "city": "Florissant", "phone": "+1 314-838-6677", "website": "", "rating": 5.0, "reviews": 2, "place_id": "ChIJJ86xAztI34cRVHoGsL4tMtc", "latitude": 38.7916205, "longitude": -90.2882162, "care_type": "Chiropractor"}, {"name": "Dr. Kenneth R. Teater", "address": "10111 Lewis and Clark Blvd, St. Louis, MO 63136", "city": "St. Louis", "phone": "+1 314-868-2220", "website": "http://mystlouischiropractor.com/", "rating": 5.0, "reviews": 1, "place_id": "ChIJ-fPHQWlJ34cR2N1imBqIdSY", "latitude": 38.7541624, "longitude": -90.2396383, "care_type": "Chiropractor"}, {"name": "Ricky A. Roberts Jr, DC", "address": "1701 S Florissant Rd, St. Louis, MO 63121", "city": "St. Louis", "phone": "+1 314-522-0042", "website": "", "rating": null, "reviews": 0, "place_id": "ChIJYcSe3_A134cRCrDhwyWL26U", "latitude": 38.723444, "longitude": -90.30543759999999, "care_type": "Chiropractor"}, {"name": "Quick Joe D DC", "address": "100 Rue St. Francois St # 114, Florissant, MO 63031", "city": "Florissant", "phone": "+1 314-831-0760", "website": "", "rating": 5.0, "reviews": 1, "place_id": "ChIJ5aoZ1qM334cRzPknFnBsqUc", "latitude": 38.7957605, "longitude": -90.3325223, "care_type": "Chiropractor"}, {"name": "McClain Chiropractic", "address": "2640 N Hwy 67, Florissant, MO 63033", "city": "Florissant", "phone": "+1 314-838-6083", "website": "http://www.mcclainchiro.com/", "rating": 5.0, "reviews": 20, "place_id": "ChIJd4TDFOQ334cR6nUVcarTVc0", "latitude": 38.8052046, "longitude": -90.3048561, "care_type": "Chiropractor"}, {"name": "Spinal Rehabilitation Center", "address": "2408 N Hwy 67, Florissant, MO 63033", "city": "Florissant", "phone": "+1 314-405-9882", "website": "https://www.srcstl.com/", "rating": 5.0, "reviews": 3, "place_id": "ChIJP7Y9Hc0334cRA8_O89yaPtY", "latitude": 38.803695, "longitude": -90.3078577, "care_type": "Chiropractor"}, {"name": "Injury Center On Natural Bridge", "address": "8949 Natural Bridge Rd, St. Louis, MO 63121", "city": "St. Louis", "phone": "+1 314-427-7000", "website": "", "rating": 5.0, "reviews": 1, "place_id": "ChIJnXy118c134cRyBzi8NDoWic", "latitude": 38.7175321, "longitude": -90.3278995, "care_type": "Chiropractor"}, {"name": "Bellefontaine Chiropractic Center", "address": "1276 St Cyr Rd # 101, St. Louis, MO 63137", "city": "St. Louis", "phone": "+1 314-741-8386", "website": "http://winghavenchiropractic.com/", "rating": null, "reviews": 0, "place_id": "ChIJDymx0ChP34cRY3_DXZBSvUM", "latitude": 38.7349337, "longitude": -90.2402489, "care_type": "Chiropractor"}, {"name": "Jerome E. Kock DC", "address": "247 Dunn Rd, Florissant, MO 63031", "city": "Florissant", "phone": "+1 314-837-4210", "website": "", "rating": 5.0, "reviews": 2, "place_id": "ChIJUaTvzGk334cRO_THKXa7GDc", "latitude": 38.7765699, "longitude": -90.33304179999999, "care_type": "Chiropractor"}, {"name": "ArchCity Injury Clinic", "address": "6210 Langdon Ct, Berkeley, MO 63134", "city": "Berkeley", "phone": "+1 314-949-1422", "website": "https://www.archcityinjury.com/", "rating": 5.0, "reviews": 5, "place_id": "ChIJ6_6mki0334cRmjRhGWZZIpQ", "latitude": 38.7504049, "longitude": -90.33649539999999, "care_type": "Chiropractor"}, {"name": "Hewitt Mark a DC", "address": "2880 Netherton Dr, St. Louis, MO 63136", "city": "St. Louis", "phone": "+1 314-831-8877", "website": "", "rating": null, "reviews": 0, "place_id": "ChIJw76jOK5J34cRACNgA_DyQRg", "latitude": 38.774224, "longitude": -90.2690202, "care_type": "Chiropractor"}, {"name": "Snyder Chiropractic", "address": "2935 Derhake Rd, Florissant, MO 63033", "city": "Florissant", "phone": "+1 314-838-6677", "website": "", "rating": null, "reviews": 0, "place_id": "ChIJJ86xAztI34cR8wjwkhgaXQc", "latitude": 38.791629, "longitude": -90.2882322, "care_type": "Chiropractor"}, {"name": "Ferguson Family Chiro Center", "address": "111 Church St, Ferguson, MO 63135", "city": "Ferguson", "phone": "+1 314-524-2580", "website": "", "rating": null, "reviews": 0, "place_id": "ChIJYR8jbwM234cRveP1_M3OP6s", "latitude": 38.7452274, "longitude": -90.3038914, "care_type": "Chiropractor"}, {"name": "Adeola Adedokun, DC", "address": "2880 Netherton Dr #200, St. Louis, MO 63136", "city": "St. Louis", "phone": "+1 314-753-9396", "website": "", "rating": null, "reviews": 0, "place_id": "ChIJtfN0xLFJ34cR9_uY828a7JQ", "latitude": 38.7741841, "longitude": -90.2689721, "care_type": "Chiropractor"}, {"name": "ProActive Chiropractic", "address": "101 Richardson Crossing, Arnold, MO 63010", "city": "Arnold", "phone": "+1 636-464-8360", "website": "http://www.proactive-chiropractic.com/", "rating": 4.8, "reviews": 107, "place_id": "ChIJ90OpWgXE2IcRExbgcdd-QtI", "latitude": 38.4126094, "longitude": -90.3832504, "care_type": "Chiropractor"}, {"name": "Abundant Health Chiropractic", "address": "1804 Jeffco Blvd, Arnold, MO 63010", "city": "Arnold", "phone": "+1 636-296-8123", "website": "https://www.abundanthealthstl.com/", "rating": 5.0, "reviews": 328, "place_id": "ChIJzf707SbE2IcROUR2wfApbGc", "latitude": 38.42828069999999, "longitude": -90.37758819999999, "care_type": "Chiropractor"}, {"name": "The Joint Chiropractic", "address": "836 Arnold Commons Dr, Arnold, MO 63010", "city": "Arnold", "phone": "+1 636-434-1602", "website": "https://www.thejoint.com/missouri/arnold/arnold-24008", "rating": 4.7, "reviews": 184, "place_id": "ChIJC9jqBC3E2IcR7humjDsVq7c", "latitude": 38.4381251, "longitude": -90.3826216, "care_type": "Chiropractor"}, {"name": "Bradley Chiropractic", "address": "1761 Jeffco Blvd, Arnold, MO 63010", "city": "Arnold", "phone": "+1 636-296-1222", "website": "http://www.arnoldchiropractors.com/", "rating": 5.0, "reviews": 516, "place_id": "ChIJzf707SbE2IcR2ABF437mIMM", "latitude": 38.428284, "longitude": -90.37867899999999, "care_type": "Chiropractor"}, {"name": "Complete Chiropractic", "address": "1536 Jeffco Blvd, Arnold, MO 63010", "city": "Arnold", "phone": "+1 636-287-2200", "website": "http://www.chiroarnold.com/", "rating": 5.0, "reviews": 38, "place_id": "ChIJWyYniyjE2IcRyme90ARVL04", "latitude": 38.4325263, "longitude": -90.3776908, "care_type": "Chiropractor"}, {"name": "Family Care Chiropractic Center", "address": "2192 Tenbrook Rd, Arnold, MO 63010", "city": "Arnold", "phone": "+1 636-282-8333", "website": "http://familycarestl.com/", "rating": 4.6, "reviews": 20, "place_id": "ChIJdVB0hGXG2IcRjg9pC7EJT3Q", "latitude": 38.4462792, "longitude": -90.3663191, "care_type": "Chiropractor"}, {"name": "Wellness Chiropractic Center", "address": "2090 Elm Dr, Arnold, MO 63010", "city": "Arnold", "phone": "+1 636-296-4000", "website": "http://www.wellnesscc.net/", "rating": 5.0, "reviews": 11, "place_id": "ChIJwZxIdQ3E2IcRz7OGTSo7wZU", "latitude": 38.4094523, "longitude": -90.39141479999999, "care_type": "Chiropractor"}, {"name": "Well Rooted Chiropractic", "address": "28 Fox Valley Center, Arnold, MO 63010", "city": "Arnold", "phone": "+1 636-333-2784", "website": "http://www.wellrootedchiro.com/", "rating": 5.0, "reviews": 26, "place_id": "ChIJR2udeC7H2IcRaD_retMXhhw", "latitude": 38.4464514, "longitude": -90.3703779, "care_type": "Chiropractor"}, {"name": "Diana Toler, D.C.", "address": "2192 Tenbrook Rd, Arnold, MO 63010", "city": "Arnold", "phone": "+1 636-282-8333", "website": "http://www.familycarestl.com/", "rating": 5.0, "reviews": 1, "place_id": "ChIJdVB0hGXG2IcRuoZNozeQaO4", "latitude": 38.4462792, "longitude": -90.3663191, "care_type": "Chiropractor"}, {"name": "DR. AMY HORN", "address": "1804 Jeffco Blvd, Arnold, MO 63010", "city": "Arnold", "phone": "+1 636-296-8123", "website": "https://www.abundanthealthstl.com/", "rating": 5.0, "reviews": 9, "place_id": "ChIJzf707SbE2IcRisS63g2Dwu4", "latitude": 38.4282963, "longitude": -90.37763819999999, "care_type": "Chiropractor"}, {"name": "The Joint Chiropractic", "address": "420 S Rangeline Rd, Joplin, MO 64801", "city": "Joplin", "phone": "+1 417-551-6432", "website": "https://www.thejoint.com/missouri/joplin/joplin-24028", "rating": 4.9, "reviews": 265, "place_id": "ChIJzfSIn1B9yIcRIdV99AGxD1U", "latitude": 37.0864687, "longitude": -94.4790118, "care_type": "Chiropractor"}, {"name": "Active Health Chiropractic", "address": "719 S Main St, Joplin, MO 64801", "city": "Joplin", "phone": "+1 417-781-9300", "website": "http://www.acthealthchiro.com/", "rating": 4.9, "reviews": 137, "place_id": "ChIJd38twv97yIcRPHbPEGIbDD4", "latitude": 37.0832921, "longitude": -94.5133122, "care_type": "Chiropractor"}, {"name": "Carlson Chiropractic Center", "address": "2318 E 32nd St Ste B, Joplin, MO 64804", "city": "Joplin", "phone": "+1 417-781-6300", "website": "http://www.joplinchiro.com/", "rating": 4.9, "reviews": 537, "place_id": "ChIJe5aItFt7yIcRqitRtvWGjGo", "latitude": 37.0542369, "longitude": -94.4885674, "care_type": "Chiropractor"}, {"name": "Family Chiropractic of the 4 States", "address": "3301 N Rangeline Rd Ste A, Joplin, MO 64801", "city": "Joplin", "phone": "+1 417-206-2225", "website": "http://www.4stateschiro.com/", "rating": 4.9, "reviews": 159, "place_id": "ChIJr-hYYQZ8yIcRfA2yZswtCUI", "latitude": 37.1190093, "longitude": -94.475072, "care_type": "Chiropractor"}, {"name": "Able Body Chiropractic", "address": "2001 S Sergeant Ave, Joplin, MO 64804", "city": "Joplin", "phone": "+1 417-206-2253", "website": "", "rating": 4.9, "reviews": 42, "place_id": "ChIJo4s-eB17yIcRpRtGjY1BZ5g", "latitude": 37.0695197, "longitude": -94.5205599, "care_type": "Chiropractor"}, {"name": "Johnson Jeffery CM DC", "address": "1420 S Joplin Ave # A, Joplin, MO 64801", "city": "Joplin", "phone": "+1 417-623-8844", "website": "https://www.jefferycmjohnson.com/", "rating": 5.0, "reviews": 39, "place_id": "ChIJoccgZgR7yIcR6DKgwePNw6U", "latitude": 37.07557, "longitude": -94.5153179, "care_type": "Chiropractor"}, {"name": "Pain Relief Center of Joplin", "address": "1419 S Main St, Joplin, MO 64801", "city": "Joplin", "phone": "+1 417-553-4411", "website": "http://www.painreliefcenterofjoplin.com/", "rating": 4.5, "reviews": 31, "place_id": "ChIJscebVAR7yIcRWLxMcQn0oJM", "latitude": 37.0752551, "longitude": -94.5136201, "care_type": "Chiropractor"}, {"name": "Eberhart Chiropractic", "address": "3013 N Rangeline Rd, Joplin, MO 64801", "city": "Joplin", "phone": "+1 417-782-0330", "website": "https://doctors.coxhealth.com/provider/jeanene-e-eberhart/1832442", "rating": 4.6, "reviews": 27, "place_id": "ChIJu07BHgZ8yIcRoStMO9bHYr8", "latitude": 37.1167449, "longitude": -94.4755703, "care_type": "Chiropractor"}, {"name": "Dunlap Chiropractic PC", "address": "102 N Rangeline Rd, Joplin, MO 64801", "city": "Joplin", "phone": "+1 417-624-1276", "website": "http://chiropractorjoplin.com/", "rating": 4.7, "reviews": 25, "place_id": "ChIJ81vy2Hh8yIcROYuIiXo7BNI", "latitude": 37.090656, "longitude": -94.47755099999999, "care_type": "Chiropractor"}, {"name": "Midwestern Built Health", "address": "422 S Main St, Joplin, MO 64801", "city": "Joplin", "phone": "+1 417-319-4825", "website": "https://www.mwbhealth.com/", "rating": 5.0, "reviews": 27, "place_id": "ChIJS4GoGG57yIcRGCq-5JdHHzc", "latitude": 37.0868388, "longitude": -94.5135236, "care_type": "Chiropractor"}, {"name": "Skaggs Chiropractic LLC", "address": "1802 W 32nd St D, Joplin, MO 64804", "city": "Joplin", "phone": "+1 417-624-4242", "website": "http://skaggschiro.com/", "rating": 4.6, "reviews": 192, "place_id": "ChIJy8V69mx7yIcRtTBCRiT-rB4", "latitude": 37.0544598, "longitude": -94.5362183, "care_type": "Chiropractor"}, {"name": "Olson Chiropractic", "address": "1030 SE Murphy Blvd, Joplin, MO 64801", "city": "Joplin", "phone": "+1 417-623-2828", "website": "http://olsonchiropc.com/", "rating": 5.0, "reviews": 21, "place_id": "ChIJNWDa5gp7yIcRnBSW1eGiDto", "latitude": 37.0791633, "longitude": -94.50110219999999, "care_type": "Chiropractor"}, {"name": "Dr. Russell Mcdaniel", "address": "3301 N Rangeline Rd Ste A, Joplin, MO 64801", "city": "Joplin", "phone": "+1 417-206-2225", "website": "https://www.4stateschiro.com/", "rating": 5.0, "reviews": 6, "place_id": "ChIJ___vfgZ8yIcRDQj4_TgNHYo", "latitude": 37.1191272, "longitude": -94.4750272, "care_type": "Chiropractor"}, {"name": "Restore Functional Neurology", "address": "2640 E 32nd St Ste 7, Joplin, MO 64804", "city": "Joplin", "phone": "+1 417-208-5869", "website": "https://restorefunctionalneurology.com/", "rating": 5.0, "reviews": 26, "place_id": "ChIJg_CiY4F7yIcRobNfWqSr1G4", "latitude": 37.0542692, "longitude": -94.4860111, "care_type": "Chiropractor"}, {"name": "Carlson Chiropractic Center: Farr Jay D DC", "address": "2318 E 32nd St Ste B, Joplin, MO 64804", "city": "Joplin", "phone": "+1 417-781-6300", "website": "https://www.joplinchiro.com/", "rating": 5.0, "reviews": 5, "place_id": "ChIJ7QJ1s1t7yIcRwpGGl2L9BqQ", "latitude": 37.054294, "longitude": -94.48854759999999, "care_type": "Chiropractor"}, {"name": "Dennis R. Olson, DC", "address": "1030 South East, Murphy Blvd, Joplin, MO 64801", "city": "Joplin", "phone": "+1 417-623-2828", "website": "https://olsonchiropc.com/the-staff/", "rating": 5.0, "reviews": 4, "place_id": "ChIJNWDa5gp7yIcR4QwgbMmVjRY", "latitude": 37.0791699, "longitude": -94.50110629999999, "care_type": "Chiropractor"}, {"name": "Frack Chiropractic", "address": "1506 S Madison St, Webb City, MO 64870", "city": "Webb City", "phone": "+1 417-673-5556", "website": "", "rating": 4.6, "reviews": 39, "place_id": "ChIJn76fNqp-yIcRQ3v6ZktAZvs", "latitude": 37.12957, "longitude": -94.4758932, "care_type": "Chiropractor"}, {"name": "Ford Lance E DC", "address": "612 S Main St, Carthage, MO 64836", "city": "Carthage", "phone": "+1 417-358-3201", "website": "https://doctors.coxhealth.com/provider/lance-e-ford/914016", "rating": 5.0, "reviews": 12, "place_id": "ChIJE-DSm9SDyIcR3k5_wEaDBf4", "latitude": 37.1744488, "longitude": -94.3107464, "care_type": "Chiropractor"}, {"name": "Cornerstone Chiropractic of Southwest Missouri LLC", "address": "112 N Main St Rd, Webb City, MO 64870", "city": "Webb City", "phone": "+1 417-560-5234", "website": "https://cornerstonechiropracticswm.janeapp.com/", "rating": 5.0, "reviews": 5, "place_id": "ChIJ26ajMN9_yIcRHpNLJHftWkM", "latitude": 37.1470484, "longitude": -94.46330069999999, "care_type": "Chiropractor"}, {"name": "Hilton Chiropractic", "address": "1909 S Highview Ave, Joplin, MO 64804", "city": "Joplin", "phone": "+1 417-782-0331", "website": "", "rating": null, "reviews": 0, "place_id": "ChIJXRsydWJ7yIcRBq0JFoHsxOo", "latitude": 37.0696574, "longitude": -94.4797555, "care_type": "Chiropractor"}, {"name": "Health Quest LLC", "address": "3013 N Rangeline Rd, Joplin, MO 64801", "city": "Joplin", "phone": "+1 417-782-0330", "website": "https://doctors.coxhealth.com/provider/jeanene-e-eberhart/1832442", "rating": 3.7, "reviews": 0, "place_id": "ChIJu07BHgZ8yIcR23NtMttlFZY", "latitude": 37.1167449, "longitude": -94.4755703, "care_type": "Chiropractor"}, {"name": "Herb Waring, DC", "address": "2001 S Sergeant Ave, Joplin, MO 64804", "city": "Joplin", "phone": "+1 417-206-2253", "website": "", "rating": 5.0, "reviews": 0, "place_id": "ChIJo4s-eB17yIcRigsUVdQcL8Y", "latitude": 37.0694981, "longitude": -94.5205355, "care_type": "Chiropractor"}, {"name": "The Link Family Chiropractic", "address": "423 S Main St, Carthage, MO 64836", "city": "Carthage", "phone": "+1 417-295-7214", "website": "https://thelinkfamilychiro.com/", "rating": 5.0, "reviews": 0, "place_id": "ChIJ0SMvRL7-iKIRvBWfBgAbEG4", "latitude": 37.1755816, "longitude": -94.3112069, "care_type": "Chiropractor"}, {"name": "Health Quest", "address": "209 S Main St, Webb City, MO 64870", "city": "Webb City", "phone": "+1 417-673-9300", "website": "", "rating": 5.0, "reviews": 0, "place_id": "ChIJM-4_JLx-yIcRHErrXUVCvVo", "latitude": 37.143458, "longitude": -94.4629193, "care_type": "Chiropractor"}, {"name": "Dr. Caryn L. Brown, D.C.", "address": "1 S Main St, Webb City, MO 64870", "city": "Webb City", "phone": "+1 417-726-5144", "website": "", "rating": 5.0, "reviews": 0, "place_id": "ChIJ6dRK3PZ7yIcRW4J4kURDp6k", "latitude": 37.1462539, "longitude": -94.4627204, "care_type": "Chiropractor"}, {"name": "Burpo Hailey DC", "address": "26 S Main St, Webb City, MO 64870", "city": "Webb City", "phone": "+1 417-673-5555", "website": "", "rating": 5.0, "reviews": 0, "place_id": "ChIJr-hYYQZ8yIcR-vbtNACFPmI", "latitude": 37.145402, "longitude": -94.463375, "care_type": "Chiropractor"}, {"name": "Bruffett Chiropractic", "address": "667 Prairie Flower Rd, Webb City, MO 64870", "city": "Webb City", "phone": "+1 417-782-1894", "website": "", "rating": 4.8, "reviews": 0, "place_id": "ChIJ9QsPy0V5yIcR4PFB6f29lik", "latitude": 37.1393383, "longitude": -94.49254769999999, "care_type": "Chiropractor"}, {"name": "Burpo Family Chiropractic LLC", "address": "26 S Main St, Webb City, MO 64870", "city": "Webb City", "phone": "+1 417-673-5555", "website": "", "rating": 4.0, "reviews": 0, "place_id": "ChIJ1fKkwb5-yIcRYsWaCtMedFA", "latitude": 37.1454086, "longitude": -94.46334069999999, "care_type": "Chiropractor"}, {"name": "Wayne S. Webb, DC", "address": "101 S Washington St, Diamond, MO 64840", "city": "Diamond", "phone": "+1 417-325-6334", "website": "https://webbchiro.com/", "rating": 5.0, "reviews": 0, "place_id": "ChIJ7-HpVy2JyIcRUFxMp5yi4-w", "latitude": 36.9947908, "longitude": -94.3157603, "care_type": "Chiropractor"}, {"name": "Walmsley w L DC", "address": "1420 S Joplin Ave # A, Joplin, MO 64801", "city": "Joplin", "phone": "+1 417-623-0330", "website": "", "rating": null, "reviews": 0, "place_id": "ChIJoccgZgR7yIcRMzlxaY7ORIE", "latitude": 37.07557, "longitude": -94.5153179, "care_type": "Chiropractor"}, {"name": "Carson Chiropractic LLC", "address": "1010 S Madison St E, Webb City, MO 64870", "city": "Webb City", "phone": "+1 417-673-7300", "website": "https://www.webbcitychiropractic.com/", "rating": 4.1, "reviews": 0, "place_id": "ChIJoTltK6x-yIcRPUmOXrUsQg0", "latitude": 37.135338, "longitude": -94.4758633, "care_type": "Chiropractor"}, {"name": "Steven Carlson", "address": "2318 E 32nd St Ste B, Joplin, MO 64804", "city": "Joplin", "phone": "+1 417-781-6300", "website": "", "rating": null, "reviews": 0, "place_id": "ChIJ__-P41p7yIcRkfU_6lQcNYs", "latitude": 37.054294, "longitude": -94.48854759999999, "care_type": "Chiropractor"}, {"name": "Christopher L. Bruffett, DC", "address": "667 Prairie Flower Rd, Webb City, MO 64870", "city": "Webb City", "phone": "+1 417-782-0656", "website": "", "rating": 5.0, "reviews": 0, "place_id": "ChIJ9QsPy0V5yIcRJiZF0gv-L2o", "latitude": 37.1393428, "longitude": -94.49253159999999, "care_type": "Chiropractor"}, {"name": "Meek Roy DC", "address": "2928 S Main St, Joplin, MO 64804", "city": "Joplin", "phone": "+1 417-626-2366", "website": "", "rating": null, "reviews": 0, "place_id": "ChIJl3C8LMF6yIcRYGL9lNfknO0", "latitude": 37.0575104, "longitude": -94.5150209, "care_type": "Chiropractor"}, {"name": "Carthage Chiropractic Care", "address": "530 W Fir Rd suite b, Carthage, MO 64836", "city": "Carthage", "phone": "+1 417-529-1915", "website": "https://www.carthagechiro.com/", "rating": 4.7, "reviews": 12, "place_id": "ChIJHYgRr-SDyIcR9UReYf3j4v0", "latitude": 37.139833, "longitude": -94.317543, "care_type": "Chiropractor"}, {"name": "Dr. Sarah Bright", "address": "2318 E 32nd St Ste B, Joplin, MO 64804", "city": "Joplin", "phone": "+1 417-781-6300", "website": "", "rating": null, "reviews": 0, "place_id": "ChIJ__-P41p7yIcRqcop6x-Ru7s", "latitude": 37.054294, "longitude": -94.48854759999999, "care_type": "Chiropractor"}, {"name": "Dr. Brenton Olson", "address": "1030 Murphy Blvd, Joplin, MO 64801", "city": "Joplin", "phone": "+1 417-623-2828", "website": "https://olsonchiropc.com/the-staff/", "rating": null, "reviews": 0, "place_id": "ChIJa4_f4Up6yIcRIOYtnYe7HLw", "latitude": 37.1014411, "longitude": -94.5226744, "care_type": "Chiropractor"}, {"name": "1st Choice Chiropractic", "address": "1721 Laquesta Dr Ste 2, Neosho, MO 64850", "city": "Neosho", "phone": "+1 417-455-1025", "website": "http://www.neoshochiro.com/", "rating": 4.7, "reviews": 28, "place_id": "ChIJ2wo3iEL1yIcRxgXVj2xybG8", "latitude": 36.8500039, "longitude": -94.3848216, "care_type": "Chiropractor"}, {"name": "Girard Joshua B DC", "address": "209 S Main St, Joplin, MO 64801", "city": "Joplin", "phone": "+1 417-673-9300", "website": "", "rating": null, "reviews": 0, "place_id": "ChIJg5FqIa97yIcR3-2F9SgmLiU", "latitude": 37.0894378, "longitude": -94.5128728, "care_type": "Chiropractor"}, {"name": "Allergy Corrections LLC", "address": "2928 S Main St, Joplin, MO 64804", "city": "Joplin", "phone": "+1 417-626-2366", "website": "https://www.facebook.com/Allergy-Corrections-673194082717706/", "rating": null, "reviews": 0, "place_id": "ChIJhYci6iN7yIcRHJRobCJB4yY", "latitude": 37.0575219, "longitude": -94.5150506, "care_type": "Chiropractor"}, {"name": "North County Pain Relief Center", "address": "7157 N Lindbergh Blvd, Hazelwood, MO 63042", "city": "Hazelwood", "phone": "+1 314-731-4201", "website": "http://www.chiropractorofstlouis.com/", "rating": 5.0, "reviews": 21, "place_id": "ChIJRQtsNCI334cRGuKaYqquVVs", "latitude": 38.7840296, "longitude": -90.3588218, "care_type": "Chiropractor"}, {"name": "Back Care Clinic", "address": "5960 Howdershell Rd Apt 204, Hazelwood, MO 63042", "city": "Hazelwood", "phone": "+1 314-895-1136", "website": "http://stlbackcareclinic.com/", "rating": 5.0, "reviews": 208, "place_id": "ChIJfZjPptkw34cRIhh_tZrej68", "latitude": 38.7815013, "longitude": -90.3872808, "care_type": "Chiropractor"}, {"name": "Flynn J Tim DC", "address": "5976 Howdershell Rd Apt 104, Hazelwood, MO 63042", "city": "Hazelwood", "phone": "+1 314-895-8700", "website": "", "rating": 5.0, "reviews": 19, "place_id": "ChIJWVYURzY334cRiPMYmI_xj4M", "latitude": 38.7815589, "longitude": -90.3866584, "care_type": "Chiropractor"}, {"name": "Quality Chiropractic - Hazelwood", "address": "6307 Hazelwest Ct, Hazelwood, MO 63042", "city": "Hazelwood", "phone": "+1 314-731-6006", "website": "http://www.mcqualitychiro.com/%3Futm_source%3Dgoogle%26utm_medium%3Dwix_google_business_profile%26utm_campaign%3D1881893360872623423", "rating": 5.0, "reviews": 40, "place_id": "ChIJlWlxuw0x34cRvTCyK5TIJJ0", "latitude": 38.7838388, "longitude": -90.3770296, "care_type": "Chiropractor"}, {"name": "Dr. Mark Sehnert", "address": "745 Rue St. Francois St, Florissant, MO 63031", "city": "Florissant", "phone": "+1 314-839-8884", "website": "", "rating": null, "reviews": 0, "place_id": "ChIJ__8rmbs334cRqMwgqGdb_mE", "latitude": 38.792818, "longitude": -90.3251195, "care_type": "Chiropractor"}, {"name": "Smart Pain Solutions", "address": "11901 St Charles Rock Rd, Bridgeton, MO 63044", "city": "Bridgeton", "phone": "+1 314-271-5926", "website": "https://smartpainsolutions.com/%3Futm_campaign%3Dgmb", "rating": 4.9, "reviews": 272, "place_id": "ChIJH9xAtIQx34cRBY7GRtEqPP4", "latitude": 38.7464152, "longitude": -90.4181473, "care_type": "Chiropractor"}, {"name": "Crets David L DC", "address": "620 N Lafayette St, Florissant, MO 63031", "city": "Florissant", "phone": "+1 314-921-3200", "website": "", "rating": 3.0, "reviews": 1, "place_id": "ChIJT5zjgrs334cRrLM5zYDp3F4", "latitude": 38.7931617, "longitude": -90.32542409999999, "care_type": "Chiropractor"}, {"name": "Accident & Sports Rehab Corporation", "address": "6307 Hazelwest Ct Suite 200, Hazelwood, MO 63042", "city": "Hazelwood", "phone": "+1 314-895-3328", "website": "", "rating": 5.0, "reviews": 51, "place_id": "ChIJaZh0edMw34cRK2fW1p2538s", "latitude": 38.7838303, "longitude": -90.37702829999999, "care_type": "Chiropractor"}, {"name": "Howell Family Chiropractic P.C.", "address": "5960 Howdershell Rd Apt 107, Hazelwood, MO 63042", "city": "Hazelwood", "phone": "+1 314-731-4000", "website": "https://www.howellfamilychiropractic.com/", "rating": 5.0, "reviews": 22, "place_id": "ChIJfZjPptkw34cRF4ra7K_0wYY", "latitude": 38.781621, "longitude": -90.386416, "care_type": "Chiropractor"}, {"name": "Jamestown Chiropractic Center", "address": "4459 N Hwy 67, Florissant, MO 63034", "city": "Florissant", "phone": "+1 314-635-7649", "website": "", "rating": null, "reviews": 0, "place_id": "ChIJGQY18HZI34cRUfmAMXwPzMw", "latitude": 38.8175331, "longitude": -90.2744882, "care_type": "Chiropractor"}, {"name": "Fredrick L. Foster, DC", "address": "3533 Dunn Rd, Florissant, MO 63033", "city": "Florissant", "phone": "+1 314-805-0095", "website": "", "rating": null, "reviews": 0, "place_id": "ChIJa7mjOK5J34cR7U9UJUczXfc", "latitude": 38.7719963, "longitude": -90.2724368, "care_type": "Chiropractor"}, {"name": "Dr. Jessica Randazzo DC", "address": "5976 Howdershell Rd Apt 104, Hazelwood, MO 63042", "city": "Hazelwood", "phone": "+1 636-233-8935", "website": "", "rating": 5.0, "reviews": 3, "place_id": "ChIJY1pNp9kw34cRScoH_WI0vas", "latitude": 38.7816536, "longitude": -90.3865689, "care_type": "Chiropractor"}, {"name": "Wittmer Michael J DC", "address": "43 Fleurie Dr, Florissant, MO 63031", "city": "Florissant", "phone": "+1 314-895-3222", "website": "", "rating": null, "reviews": 0, "place_id": "ChIJg7Pis7Mw34cR2RkeSxtRuUQ", "latitude": 38.8065423, "longitude": -90.3780283, "care_type": "Chiropractor"}, {"name": "A Wellness Place", "address": "23 N Gore Ave #210, Webster Groves, MO 63119", "city": "Webster Groves", "phone": "+1 314-961-7605", "website": "http://awellnessplace.com/", "rating": 5.0, "reviews": 21, "place_id": "ChIJmceQF5TL2IcRVpvXr1VyTTE", "latitude": 38.593838, "longitude": -90.359876, "care_type": "Chiropractor"},