[{"name": "W Bar Chiropractic, LLC", "address": "323 Barry St, Glendive, MT 59330", "city": "Glendive", "phone": "+1 406-377-2543", "website": "http://wbarchiropractic.com/", "rating": 5.0, "reviews": 12, "place_id": "ChIJhSbZzlcJJVMRfoa7qv68gNg", "latitude": 47.0992682, "longitude": -104.713064, "care_type": "Chiropractor"}, {"name": "Glendive Chiropractic", "address": "304 N Kendrick Ave, Glendive, MT 59330", "city": "Glendive", "phone": "+1 406-377-5977", "website": "", "rating": 5.0, "reviews": 3, "place_id": "ChIJC-6GoDcnJVMROAjYPnvGXXc", "latitude": 47.1068611, "longitude": -104.7127227, "care_type": "Chiropractor"}, {"name": "Gabbert Chiropractic", "address": "115 S Kendrick Ave, Glendive, MT 59330", "city": "Glendive", "phone": "+1 406-377-2101", "website": "https://www.glendivechiropractor.com/", "rating": 3.7, "reviews": 3, "place_id": "ChIJLag-7jknJVMRLe6zwx4x3hI", "latitude": 47.1043814, "longitude": -104.7151418, "care_type": "Chiropractor"}, {"name": "Tracy L. Gabbert, DC", "address": "115 S Kendrick Ave, Glendive, MT 59330", "city": "Glendive", "phone": "+1 406-377-2101", "website": "", "rating": null, "reviews": 0, "place_id": "ChIJLag-7jknJVMRNxgDxa0WbX4", "latitude": 47.1043814, "longitude": -104.7151418, "care_type": "Chiropractor"}, {"name": "Polson Chiropractic", "address": "410 1st St E, Polson, MT 59860", "city": "Polson", "phone": "+1 406-872-2088", "website": "http://www.polsonchiropractic.com/", "rating": 4.7, "reviews": 12, "place_id": "ChIJkTjk2WpzZ1MR15uQvcw5nHg", "latitude": 47.6917318, "longitude": -114.1622575, "care_type": "Chiropractor"}, {"name": "Lakeview Family Chiropractic", "address": "212 2nd Ave E, Polson, MT 59860", "city": "Polson", "phone": "+1 406-883-4234", "website": "", "rating": 3.9, "reviews": 15, "place_id": "ChIJNfZOBIlzZ1MRG-JMLxQX2g4", "latitude": 47.694187, "longitude": -114.1590463, "care_type": "Chiropractor"}, {"name": "Jenkins Chiropractic", "address": "49665 US-93, Polson, MT 59860", "city": "Polson", "phone": "+1 615-390-1295", "website": "", "rating": 5.0, "reviews": 1, "place_id": "ChIJDbeGsE9zZ1MR_Gp9f4z_ePQ", "latitude": 47.6942951, "longitude": -114.159153, "care_type": "Chiropractor"}, {"name": "Thomas Konen", "address": "106 Ridgewater Dr STE A, Polson, MT 598608977", "city": "Polson", "phone": "+1 406-883-3200", "website": "", "rating": null, "reviews": 0, "place_id": "ChIJn42e9Rp0Z1MRJOWb8prDRG0", "latitude": 47.6826073, "longitude": -114.1237276, "care_type": "Chiropractor"}, {"name": "Balanced Wellness Chiropractic", "address": "809 S 1st St, Hamilton, MT 59840", "city": "Hamilton", "phone": "+1 406-961-9022", "website": "http://www.bwchiropractic.com/", "rating": 5.0, "reviews": 17, "place_id": "ChIJfVf8r0e3XlMRCzI6fsXX9kU", "latitude": 46.2389923, "longitude": -114.154926, "care_type": "Chiropractor"}, {"name": "Gilbert J. Roberts, DC", "address": "803 N 2nd St, Hamilton, MT 59840", "city": "Hamilton", "phone": "+1 406-363-2111", "website": "http://www.robertsfamilychiropracticcenter.com/", "rating": 4.8, "reviews": 37, "place_id": "ChIJ34I08E-3XlMRErkVI0Lo3d0", "latitude": 46.25476, "longitude": -114.158444, "care_type": "Chiropractor"}, {"name": "Canyon Chiropractic", "address": "484 Old Corvallis Rd, Hamilton, MT 59840", "city": "Hamilton", "phone": "+1 406-363-3333", "website": "https://canyonchiromt.com/", "rating": 5.0, "reviews": 5, "place_id": "ChIJqXMnw0a3XlMRlPzdS4NSbY8", "latitude": 46.279953, "longitude": -114.1516876, "care_type": "Chiropractor"}, {"name": "Bitterroot Chiropractic", "address": "514 N 1st St, Hamilton, MT 59840", "city": "Hamilton", "phone": "+1 406-375-5290", "website": "http://bitterrootchiropractic.com/", "rating": 5.0, "reviews": 22, "place_id": "ChIJ9b2EXE-3XlMRk3DtPv9sik0", "latitude": 46.2521092, "longitude": -114.1559092, "care_type": "Chiropractor"}, {"name": "Rising Wellness, Inc - Barnings Chiropractic", "address": "246 Marcus St, Hamilton, MT 59840", "city": "Hamilton", "phone": "+1 406-363-7600", "website": "https://www.risingwellnessmontana.com/", "rating": 4.9, "reviews": 22, "place_id": "ChIJFwWVO0i3XlMRVKy3Zs940f4", "latitude": 46.247998, "longitude": -114.150693, "care_type": "Chiropractor"}, {"name": "Wolf Daniel D DC", "address": "217 N 3rd St STE A, Hamilton, MT 59840", "city": "Hamilton", "phone": "+1 406-363-1790", "website": "", "rating": 5.0, "reviews": 18, "place_id": "ChIJv6H540a3XlMRBoQz_EBbndE", "latitude": 46.2486986, "longitude": -114.159383, "care_type": "Chiropractor"}, {"name": "Jessie Wheeler", "address": "809 S 1st St, Hamilton, MT 598403015", "city": "Hamilton", "phone": "+1 406-961-9022", "website": "https://www.bwchiropractic.com/meet-the-doctor", "rating": 5.0, "reviews": 1, "place_id": "ChIJ__9rZzy3XlMR7XYOsPcM-vQ", "latitude": 46.2389923, "longitude": -114.154926, "care_type": "Chiropractor"}, {"name": "Potts Chiropractic - Dr. Justin Potts", "address": "610 N 1st St Ste 4, Hamilton, MT 59840", "city": "Hamilton", "phone": "+1 406-361-9232", "website": "", "rating": 5.0, "reviews": 4, "place_id": "ChIJ57ZTybS3XlMRn_nwEXommSE", "latitude": 46.2527433, "longitude": -114.1558504, "care_type": "Chiropractor"}, {"name": "Hamilton Family Chiropractic", "address": "401 W Main St, Hamilton, MT 59840", "city": "Hamilton", "phone": "+1 406-375-0800", "website": "", "rating": null, "reviews": 0, "place_id": "ChIJO8L9y0C3XlMRTJuyfORrhqM", "latitude": 46.246578, "longitude": -114.1603591, "care_type": "Chiropractor"}, {"name": "Atypical Chiropractic (Jack Barnings DC)", "address": "1019 W Main St, Hamilton, MT 59840", "city": "Hamilton", "phone": "+1 406-375-5332", "website": "", "rating": 5.0, "reviews": 2, "place_id": "ChIJFwWVO0i3XlMRHwYypAUwL7I", "latitude": 46.2459491, "longitude": -114.1703076, "care_type": "Chiropractor"}, {"name": "Atypical Chiropractic", "address": "1019 W Main St, Hamilton, MT 59840", "city": "Hamilton", "phone": "+1 406-375-5332", "website": "", "rating": 5.0, "reviews": 2, "place_id": "ChIJ_9eU2Z63XlMRWnraXERsxwM", "latitude": 46.2459491, "longitude": -114.1703076, "care_type": "Chiropractor"}, {"name": "David J. Golie, DC", "address": "120 S 5th St, Hamilton, MT 59840", "city": "Hamilton", "phone": "+1 406-375-0800", "website": "", "rating": 5.0, "reviews": 2, "place_id": "ChIJK2MeLEG3XlMRCXpgf_Q_z6g", "latitude": 46.2460439, "longitude": -114.1610426, "care_type": "Chiropractor"}, {"name": "Florence-Carlton Chiropractic", "address": "The new phone number is, This practice has changed its name to Sapphire Chiropractic, pllc and is now located at 1967, N 1st St, Hamilton, MT 59840", "city": "Hamilton", "phone": "+1 406-273-4686", "website": "", "rating": 5.0, "reviews": 3, "place_id": "ChIJe-6w7zgoXFMRrBVmt1T1cN4", "latitude": 46.2717, "longitude": -114.1584561, "care_type": "Chiropractor"}, {"name": "Dr. Lucas Pernsteiner", "address": "514 N 1st St, Hamilton, MT 59840", "city": "Hamilton", "phone": "+1 406-273-0237", "website": "", "rating": null, "reviews": 0, "place_id": "ChIJAQAwQ0-3XlMRmOnbV8cpJqc", "latitude": 46.2521092, "longitude": -114.1559092, "care_type": "Chiropractor"}, {"name": "J Kostecki", "address": "484 Old Corvallis Rd, Hamilton, MT 59840", "city": "Hamilton", "phone": "+1 406-363-3333", "website": "https://canyonchiromt.com/", "rating": null, "reviews": 0, "place_id": "ChIJs_Pp54y7XlMR573QphiHTAk", "latitude": 46.2796558, "longitude": -114.1515961, "care_type": "Chiropractor"}, {"name": "ProAdjuster of Hamilton", "address": "472 Tammany Ln, Hamilton, MT 59840", "city": "Hamilton", "phone": "", "website": "https://canyonsathleticclub.com/court-sports/", "rating": null, "reviews": 0, "place_id": "ChIJX7FISjO3XlMRNgfNuA1SocQ", "latitude": 46.2445635, "longitude": -114.1340952, "care_type": "Chiropractor"}, {"name": "Thrive Chiropractic Columbia Falls Montana", "address": "734 9th St W Unit 7, Columbia Falls, MT 59912", "city": "Columbia Falls", "phone": "+1 406-407-4473", "website": "http://www.thrivechiromt.com/", "rating": 5.0, "reviews": 24, "place_id": "ChIJw5gnqh5BZlMRAkk_Hq2ha0g", "latitude": 48.370154, "longitude": -114.1912081, "care_type": "Chiropractor"}, {"name": "Whitefish Chiropractic Center - Columbia Falls", "address": "500 12th Ave W, Columbia Falls, MT 59912", "city": "Columbia Falls", "phone": "+1 406-890-7171", "website": "https://whitefishchiropracticcenter.com/columbia-falls-mt/", "rating": 5.0, "reviews": 47, "place_id": "ChIJuYU3ZexBZlMRhFLan42xP9c", "latitude": 48.37336819999999, "longitude": -114.1982287, "care_type": "Chiropractor"}, {"name": "Glacier Family Chiropractic & Wellness", "address": "140 Nucleus Ave, Columbia Falls, MT 59912", "city": "Columbia Falls", "phone": "+1 406-936-0209", "website": "http://www.glacierfamchiro.com/", "rating": 5.0, "reviews": 61, "place_id": "ChIJ9eKRT-RBZlMRJt1aYKOvOG4", "latitude": 48.3768144, "longitude": -114.1815963, "care_type": "Chiropractor"}, {"name": "True Potential Chiropractic", "address": "2165 9th St W #3, Columbia Falls, MT 59912", "city": "Columbia Falls", "phone": "+1 406-897-5505", "website": "https://www.tpcmontana.com/%3Futm_source%3DGBP%26utm_medium%3Dorganic", "rating": 4.9, "reviews": 298, "place_id": "ChIJixhTzABBZlMR1JfqZ2moVrU", "latitude": 48.37103949999999, "longitude": -114.2132337, "care_type": "Chiropractor"}, {"name": "True North Chiropractic Center", "address": "430 Nucleus Ave, Columbia Falls, MT 59912", "city": "Columbia Falls", "phone": "+1 406-892-4331", "website": "http://truenorthchiropracticcenter.com/", "rating": 5.0, "reviews": 32, "place_id": "ChIJzdxQrgZBZlMRmXWUd53XhQk", "latitude": 48.3743989, "longitude": -114.1814918, "care_type": "Chiropractor"}, {"name": "TrueNorth Chiropractic Center", "address": "15 9th St E, Columbia Falls, MT 59912", "city": "Columbia Falls", "phone": "+1 406-892-4331", "website": "https://www.truenorthchiropracticcenter.com/", "rating": null, "reviews": 0, "place_id": "ChIJ061QgJhBZlMRJbx4yePPPlU", "latitude": 48.3708949, "longitude": -114.1806028, "care_type": "Chiropractor"}, {"name": "HealthSource Chiropractic of Butte", "address": "1554 Harrison Ave Ste A, Butte, MT 59701", "city": "Butte", "phone": "+1 406-494-2979", "website": "https://www.healthsourcechiro.com/location/butte", "rating": 4.9, "reviews": 143, "place_id": "ChIJjZgSx3IIW1MRpQrVFnwXUb8", "latitude": 45.99947299999999, "longitude": -112.5166461, "care_type": "Chiropractor"}, {"name": "Highland Family Chiropractic, PC", "address": "209 S Montana St, Butte, MT 59701", "city": "Butte", "phone": "+1 406-782-2557", "website": "https://www.buttechiropractor.com/", "rating": 5.0, "reviews": 216, "place_id": "ChIJ1xsDMAYJW1MRedkS2Q4aNjs", "latitude": 46.0105279, "longitude": -112.5396035, "care_type": "Chiropractor"}, {"name": "Welker Chiropractic", "address": "2210 Harrison Ave, Butte, MT 59701", "city": "Butte", "phone": "+1 406-723-3200", "website": "http://www.welkerchiropractic.com/", "rating": 5.0, "reviews": 28, "place_id": "ChIJiaA_TW8IW1MRNR9ZjjtlxLo", "latitude": 45.9912152, "longitude": -112.5107406, "care_type": "Chiropractor"}, {"name": "Rocky Mountain Chiropractic", "address": "505 W Park St A, Butte, MT 59701", "city": "Butte", "phone": "+1 406-533-5903", "website": "https://www.buttechiro.com/", "rating": 4.8, "reviews": 33, "place_id": "ChIJS7zrWzMIW1MRQTi6h6ldZxQ", "latitude": 46.01258439999999, "longitude": -112.5434874, "care_type": "Chiropractor"}, {"name": "Hash Chiropractic Center", "address": "1440 Holmes Ave #3, Butte, MT 59701", "city": "Butte", "phone": "+1 406-494-2225", "website": "", "rating": 5.0, "reviews": 10, "place_id": "ChIJ1yhdGwoIW1MRBsbd1RqVoZ4", "latitude": 45.9744567, "longitude": -112.5182037, "care_type": "Chiropractor"}, {"name": "Ron Johnson, DC, MS - Johnson Chiropractic & Rehabilitation", "address": "2821 Lexington Ave, Butte, MT 59701", "city": "Butte", "phone": "+1 406-782-0280", "website": "", "rating": 5.0, "reviews": 4, "place_id": "ChIJq6qqqqoOW1MRcYKNfzR_5ZQ", "latitude": 45.9819127, "longitude": -112.5298507, "care_type": "Chiropractor"}, {"name": "Silver Bow Chiropractic", "address": "1301 Dewey Blvd, Butte, MT 59701", "city": "Butte", "phone": "+1 406-494-5581", "website": "", "rating": 5.0, "reviews": 3, "place_id": "ChIJX2YjYA0IW1MRDZ052kZVANk", "latitude": 45.983669, "longitude": -112.520477, "care_type": "Chiropractor"}, {"name": "Sandy J. Cooney, DC", "address": "800 W Platinum St, Butte, MT 59701", "city": "Butte", "phone": "+1 406-494-0700", "website": "", "rating": 3.6, "reviews": 5, "place_id": "ChIJ3dTIFjMIW1MRxARj_iTyGnU", "latitude": 46.0066068, "longitude": -112.5475822, "care_type": "Chiropractor"}, {"name": "Dr. Jennifer G. Johnson, DC", "address": "31 W Park St, Butte, MT 59701", "city": "Butte", "phone": "+1 406-565-3760", "website": "", "rating": 5.0, "reviews": 1, "place_id": "ChIJ0Us0CzkIW1MRh6kpu5feVks", "latitude": 46.0130504, "longitude": -112.5366297, "care_type": "Chiropractor"}, {"name": "Balanced Care", "address": "22 Front St, Butte, MT 59701", "city": "Butte", "phone": "+1 406-782-0429", "website": "", "rating": 5.0, "reviews": 7, "place_id": "ChIJ0Us0CzkIW1MRiBYGi9_Kv1g", "latitude": 45.9978936, "longitude": -112.5359941, "care_type": "Chiropractor"}, {"name": "John J. Sando, DC", "address": "22 Front St, Butte, MT 59701", "city": "Butte", "phone": "+1 406-782-0420", "website": "", "rating": 5.0, "reviews": 8, "place_id": "ChIJ0Us0CzkIW1MRWznwguVeiBE", "latitude": 45.9979025, "longitude": -112.5360232, "care_type": "Chiropractor"}, {"name": "Paige Nelson", "address": "128 W Granite St, Butte, MT 597019216", "city": "Butte", "phone": "+1 406-782-2557", "website": "", "rating": 5.0, "reviews": 1, "place_id": "ChIJ0W19FrQJW1MRcF0c2VZCAXU", "latitude": 46.0142428, "longitude": -112.5378871, "care_type": "Chiropractor"}, {"name": "James R. Hash, DC", "address": "1440 Holmes Ave #3, Butte, MT 59701", "city": "Butte", "phone": "+1 406-494-2225", "website": "", "rating": 5.0, "reviews": 4, "place_id": "ChIJ1yhdGwoIW1MR4JtoFmmr7Pw", "latitude": 45.9744507, "longitude": -112.5182258, "care_type": "Chiropractor"}, {"name": "Steven L. Abraham, DC", "address": "1301 Dewey Blvd, Butte, MT 59701", "city": "Butte", "phone": "+1 406-494-5581", "website": "", "rating": 5.0, "reviews": 3, "place_id": "ChIJX2YjYA0IW1MRMchAli_Z_9I", "latitude": 45.98363639999999, "longitude": -112.520512, "care_type": "Chiropractor"}, {"name": "Austin Goodell", "address": "128 W Granite St, Butte, MT 597019216", "city": "Butte", "phone": "+1 406-782-2557", "website": "", "rating": null, "reviews": 0, "place_id": "ChIJ0W19FrQJW1MRLM-3eRAXfaA", "latitude": 46.0142428, "longitude": -112.5378871, "care_type": "Chiropractor"}, {"name": "Helena Chiropractic Center", "address": "900 N Montana Ave STE B1, Helena, MT 59601", "city": "Helena", "phone": "+1 406-443-4188", "website": "http://www.thehelenachiropractic.com/", "rating": 5.0, "reviews": 5, "place_id": "ChIJIQOHpwZVQ1MRf04kwTgyMa8", "latitude": 46.5933758, "longitude": -112.020764, "care_type": "Chiropractor"}, {"name": "Balanced Chiropractic, PC", "address": "780 Lola St, Helena, MT 59601", "city": "Helena", "phone": "+1 406-449-2501", "website": "http://balancedchirohelena.com/", "rating": 4.9, "reviews": 408, "place_id": "ChIJ-XmxJcJVQ1MR4ltAZuEu3io", "latitude": 46.59068, "longitude": -111.9720116, "care_type": "Chiropractor"}, {"name": "Town Center Chiropractic", "address": "827 N Last Chance Gulch, Helena, MT 59601", "city": "Helena", "phone": "+1 406-449-4445", "website": "https://helenatcchiro.com/", "rating": 5.0, "reviews": 245, "place_id": "ChIJQc7kcR1VQ1MR6lrb83I5_F0", "latitude": 46.5958757, "longitude": -112.0334232, "care_type": "Chiropractor"}, {"name": "Endurance Chiropractic", "address": "1040 Partridge Pl STE 6, Helena, MT 59602", "city": "Helena", "phone": "+1 406-422-4433", "website": "https://endurancechiropractic.com/%3Futm_source%3Dgbp%26utm_medium%3Dorganic%26utm_campaign%3Dgbp-listing", "rating": 5.0, "reviews": 260, "place_id": "ChIJVTnJPzhVQ1MRzsjJpGPJQdI", "latitude": 46.6222178, "longitude": -112.0233032, "care_type": "Chiropractor"}, {"name": "Align + Well", "address": "1434 N Roberts St, Helena, MT 59601", "city": "Helena", "phone": "+1 406-513-1403", "website": "https://www.alignhelena.com/", "rating": 5.0, "reviews": 77, "place_id": "ChIJQc7kcR1VQ1MRGoOlH8tmR1U", "latitude": 46.5988552, "longitude": -112.0169409, "care_type": "Chiropractor"}, {"name": "Parliament Chiropractic Helena Montana", "address": "1075 N Rodney St STE 104, Helena, MT 59601", "city": "Helena", "phone": "+1 406-442-4777", "website": "http://www.parchiro.com/", "rating": 5.0, "reviews": 11, "place_id": "ChIJwUKqFQJVQ1MRNiWsCRBfyeI", "latitude": 46.5971673, "longitude": -112.0253663, "care_type": "Chiropractor"}, {"name": "Made To Move Chiropractic", "address": "1050 Helena Ave STE 5, Helena, MT 59601", "city": "Helena", "phone": "+1 406-594-4849", "website": "https://madetomovechiropractic.com/", "rating": 5.0, "reviews": 99, "place_id": "ChIJrf9esQZVQ1MR1jyERUE4q90", "latitude": 46.5967412, "longitude": -112.0256283, "care_type": "Chiropractor"}, {"name": "Eckmann Family Chiropractic", "address": "900 N Montana Ave STE B2, Helena, MT 59601", "city": "Helena", "phone": "+1 406-442-1442", "website": "https://www.eckmannchiro.com/", "rating": 5.0, "reviews": 11, "place_id": "ChIJIQOHpwZVQ1MRvgcSEKeZ7o8", "latitude": 46.593433, "longitude": -112.0207747, "care_type": "Chiropractor"}, {"name": "Big Sky Chiropractic", "address": "3180 Dredge Dr STE C, Helena, MT 59602", "city": "Helena", "phone": "+1 406-449-2116", "website": "http://bigskychiropractichelena.com/", "rating": 4.5, "reviews": 15, "place_id": "ChIJbZ28iF1UQ1MRopR1FM1GlyU", "latitude": 46.6190389, "longitude": -112.0232844, "care_type": "Chiropractor"}, {"name": "Blue Feather Family Chiropractic", "address": "1427 Helena Ave, Helena, MT 59601", "city": "Helena", "phone": "+1 406-449-6441", "website": "http://www.bluefeatherchiropractic.com/", "rating": 5.0, "reviews": 14, "place_id": "ChIJ0ZtF2qpVQ1MRTNk6lLaN1Qk", "latitude": 46.599533, "longitude": -112.0155259, "care_type": "Chiropractor"}, {"name": "Intermountain Spine and Wellness - Helena", "address": "1101 E Lyndale Ave, Helena, MT 59601", "city": "Helena", "phone": "+1 406-449-0814", "website": "https://www.intermountainspineandwellness.com/helena/", "rating": 4.8, "reviews": 29, "place_id": "ChIJUz6j2iJVQ1MRO8gH54fJVWU", "latitude": 46.59801239999999, "longitude": -112.0217028, "care_type": "Chiropractor"}, {"name": "Cornerstone Wellness Center", "address": "2722 Billings Ave, Helena, MT 59601", "city": "Helena", "phone": "+1 406-443-7000", "website": "https://www.cornerstonewellnesscenter.net/scheduler%23499215b0b29d257c4b689d616ce73f8ed5dd", "rating": 4.9, "reviews": 216, "place_id": "ChIJ7zHMBLpVQ1MRVkEhRDgfbvA", "latitude": 46.5946956, "longitude": -111.9907768, "care_type": "Chiropractor"}, {"name": "Radiant Life Chiropractic now partnered with Blue Feather Chiropractic", "address": "1427 Helena Ave, Helena, MT 59601", "city": "Helena", "phone": "+1 406-449-6441", "website": "https://radiantlifechiro.com/", "rating": 5.0, "reviews": 37, "place_id": "ChIJg9KHTKpVQ1MReEfjQW9n-Kc", "latitude": 46.599654, "longitude": -112.015507, "care_type": "Chiropractor"}, {"name": "Backsmith Montana Chiropractic", "address": "64 Medical Park Dr STE D, Helena, MT 59601", "city": "Helena", "phone": "+1 406-502-1054", "website": "http://www.backsmithmtchiro.com/", "rating": 5.0, "reviews": 20, "place_id": "ChIJ2wgdKblVQ1MRZlGcqRyKbvw", "latitude": 46.5808472, "longitude": -111.9944872, "care_type": "Chiropractor"}, {"name": "Advanced Spinal Fitness Chiropractic", "address": "932 Aspen St, Helena, MT 59601", "city": "Helena", "phone": "+1 406-443-5510", "website": "http://asfofhelena.com/", "rating": 5.0, "reviews": 222, "place_id": "ChIJ61W4hvhUQ1MRz4LxgciH-7o", "latitude": 46.605931, "longitude": -112.024005, "care_type": "Chiropractor"}, {"name": "Peak Chiropractic PLLC - Balanced Holistic Healthcare", "address": "1225 Birch St Suite C, Helena, MT 59601", "city": "Helena", "phone": "+1 406-495-1222", "website": "https://www.peakwellnessclinic.com/", "rating": 5.0, "reviews": 7, "place_id": "ChIJK3EuL91VQ1MRIEzfXMmIA_Q", "latitude": 46.6112171, "longitude": -112.0200641, "care_type": "Chiropractor"}, {"name": "Capital Chiropractic Center", "address": "1732 Prospect Ave, Helena, MT 59601", "city": "Helena", "phone": "+1 406-449-7458", "website": "http://capitalchiropracticcenter.com/", "rating": 4.7, "reviews": 23, "place_id": "ChIJrw3ydahVQ1MR9HY2tWAivlY", "latitude": 46.5915742, "longitude": -112.0096249, "care_type": "Chiropractor"}, {"name": "Bryan G. Hilborn, DC", "address": "900 N Montana Ave STE B1, Helena, MT 59601", "city": "Helena", "phone": "+1 406-443-4188", "website": "https://www.thehelenachiropractic.com/", "rating": 5.0, "reviews": 12, "place_id": "ChIJIQOHpwZVQ1MRcMeB7W7WnUw", "latitude": 46.59338349999999, "longitude": -112.0208527, "care_type": "Chiropractor"}, {"name": "Vital Energy Chiropractic", "address": "1300 Aspen St suite a, Helena, MT 59601", "city": "Helena", "phone": "+1 406-443-8060", "website": "http://www.vitalenergychiropractic.com/", "rating": 4.9, "reviews": 51, "place_id": "ChIJIQCqlFZUQ1MRREPLDkYWyAQ", "latitude": 46.6061071, "longitude": -112.018456, "care_type": "Chiropractor"}, {"name": "Arise Chiropractic & Wellness", "address": "1221 Echelon Pl Suite A, Helena, MT 59602", "city": "Helena", "phone": "+1 406-422-0726", "website": "http://www.arisechiromt.com/", "rating": 4.5, "reviews": 15, "place_id": "ChIJbzn_tqxVQ1MR7K47V0PVIIQ", "latitude": 46.6290626, "longitude": -112.0205134, "care_type": "Chiropractor"}, {"name": "The Wellness Studio", "address": "425 N Last Chance Gulch, Helena, MT 59601", "city": "Helena", "phone": "+1 406-443-8011", "website": "http://www.thewellnessstudiohelena.com/", "rating": 4.7, "reviews": 15, "place_id": "ChIJH9MMzh5VQ1MRVNCopzCHkyM", "latitude": 46.5912468, "longitude": -112.0369746, "care_type": "Chiropractor"}, {"name": "Great Northern Chiro Clinic - Amy A Pezo DC", "address": "1617 Euclid Ave STE 5, Helena, MT 59601", "city": "Helena", "phone": "+1 406-442-3642", "website": "", "rating": 5.0, "reviews": 1, "place_id": "ChIJ92vaf8NUQ1MRrXbJhq2Pyo0", "latitude": 46.6038837, "longitude": -112.0601591, "care_type": "Chiropractor"}, {"name": "Great Northern Chiro Clinic", "address": "1617 Euclid Ave STE 5, Helena, MT 59601", "city": "Helena", "phone": "+1 406-442-3642", "website": "", "rating": 5.0, "reviews": 3, "place_id": "ChIJ-6CsjcNUQ1MRtkjb-5ECidM", "latitude": 46.6037921, "longitude": -112.0600453, "care_type": "Chiropractor"}, {"name": "Peak Chiropractic Clinic", "address": "1111 N Rodney St #4, Helena, MT 59601", "city": "Helena", "phone": "+1 406-285-1077", "website": "", "rating": 5.0, "reviews": 3, "place_id": "ChIJgVvoDwJVQ1MRGxbOu8ylTW4", "latitude": 46.5976546, "longitude": -112.0254916, "care_type": "Chiropractor"}, {"name": "Active Relief Care Chiro", "address": "921 Euclid Ave, Helena, MT 59601", "city": "Helena", "phone": "+1 406-443-3899", "website": "", "rating": 5.0, "reviews": 8, "place_id": "ChIJkSnFaOdUQ1MRKtsGntLBxvg", "latitude": 46.6001319, "longitude": -112.0484669, "care_type": "Chiropractor"}, {"name": "Mary A. Eckmann, DC", "address": "900 N Montana Ave STE B2, Helena, MT 59601", "city": "Helena", "phone": "+1 406-442-1442", "website": "http://www.eckmannchiro.com/", "rating": 5.0, "reviews": 2, "place_id": "ChIJIQOHpwZVQ1MR2rzBFIop70E", "latitude": 46.5934914, "longitude": -112.0207358, "care_type": "Chiropractor"}, {"name": "Matthew Parliament, DC", "address": "1075 N Rodney St STE 104, Helena, MT 59601", "city": "Helena", "phone": "+1 406-442-4777", "website": "https://www.parchiro.com/", "rating": 5.0, "reviews": 1, "place_id": "ChIJ9aPjFAJVQ1MRqQKnw01Nap0", "latitude": 46.5971673, "longitude": -112.0253663, "care_type": "Chiropractor"}, {"name": "Scharnweber Jesse O DC", "address": "2722 Billings Ave, Helena, MT 59601", "city": "Helena", "phone": "+1 406-443-7000", "website": "", "rating": 5.0, "reviews": 1, "place_id": "ChIJSS7MBLpVQ1MRyf390g1dpKI", "latitude": 46.5946823, "longitude": -111.9907898, "care_type": "Chiropractor"}, {"name": "Vincent J. Maddio, DC", "address": "827 N Last Chance Gulch # B, Helena, MT 59601", "city": "Helena", "phone": "+1 406-449-4445", "website": "", "rating": 5.0, "reviews": 1, "place_id": "ChIJQc7kcR1VQ1MR36XQEiMWyyg", "latitude": 46.5958432, "longitude": -112.0334864, "care_type": "Chiropractor"}, {"name": "Gary P. Blom, DC", "address": "1732 Prospect Ave, Helena, MT 59601", "city": "Helena", "phone": "+1 406-449-7458", "website": "http://capitalchiropracticcenter.com/", "rating": 5.0, "reviews": 2, "place_id": "ChIJrw3ydahVQ1MRrXJLHjJNp44", "latitude": 46.5915741, "longitude": -112.0096159, "care_type": "Chiropractor"}, {"name": "Scharnweber Cristin R DC", "address": "2722 Billings Ave, Helena, MT 59601", "city": "Helena", "phone": "+1 406-443-7000", "website": "https://www.cornerstonewellnesscenter.net/", "rating": null, "reviews": 0, "place_id": "ChIJSS7MBLpVQ1MRiBZVeuG4aCQ", "latitude": 46.5946823, "longitude": -111.9907898, "care_type": "Chiropractor"}, {"name": "Doppler Lance J DC", "address": "932 Aspen St, Helena, MT 59601", "city": "Helena", "phone": "+1 406-443-5510", "website": "", "rating": 5.0, "reviews": 1, "place_id": "ChIJ61W4hvhUQ1MRREh2bMB1Fwg", "latitude": 46.605931, "longitude": -112.024005, "care_type": "Chiropractor"}, {"name": "Fife Jeffrey DC", "address": "827 N Last Chance Gulch # B, Helena, MT 59601", "city": "Helena", "phone": "+1 406-443-4142", "website": "", "rating": 5.0, "reviews": 3, "place_id": "ChIJ61W4hvhUQ1MRvOM6mRG-R84", "latitude": 46.5958432, "longitude": -112.0334864, "care_type": "Chiropractor"}, {"name": "Rocky Mountain Chiropractic Clinic", "address": "314 N Last Chance Gulch STE 106, Helena, MT 59601", "city": "Helena", "phone": "+1 406-438-7595", "website": "", "rating": 5.0, "reviews": 1, "place_id": "ChIJwz4TwBhVQ1MR-pnKzUxaKdM", "latitude": 46.5895713, "longitude": -112.0389095, "care_type": "Chiropractor"}, {"name": "Nick Soloway, LMT, DC, LAC", "address": "16 N Howie St, Helena, MT 59601", "city": "Helena", "phone": "+1 406-495-1729", "website": "https://integrative-energetics.com/", "rating": 5.0, "reviews": 8, "place_id": "ChIJoZ95zSNVQ1MRIzWPQp9T5nA", "latitude": 46.588771, "longitude": -112.0441842, "care_type": "Chiropractor"}, {"name": "Dr. Ronald Henze", "address": "800 Lola St, Helena, MT 59601", "city": "Helena", "phone": "+1 406-442-6170", "website": "", "rating": 5.0, "reviews": 1, "place_id": "ChIJhwu4OsJVQ1MRYwJ6pLlyJ2A", "latitude": 46.5906829, "longitude": -111.9719079, "care_type": "Chiropractor"}, {"name": "Dr. Joshua J. Louwersheimer, DC", "address": "1732 Prospect Ave, Helena, MT 59601", "city": "Helena", "phone": "+1 406-449-7458", "website": "http://www.capitalchiropracticcenter.com/", "rating": 5.0, "reviews": 2, "place_id": "ChIJNa5TdKhVQ1MRG-GGY9v5IH8", "latitude": 46.5915475, "longitude": -112.009612, "care_type": "Chiropractor"}, {"name": "Terah Mcclain", "address": "1300 Aspen St suite a, Helena, MT 596010905", "city": "Helena", "phone": "+1 406-443-8060", "website": "", "rating": null, "reviews": 0, "place_id": "ChIJq6qa7FZUQ1MRPctDZGrZ1iI", "latitude": 46.6061071, "longitude": -112.018456, "care_type": "Chiropractor"}, {"name": "Louie Blood", "address": "3180 Dredge Dr STE C, Helena, MT 596020561", "city": "Helena", "phone": "", "website": "", "rating": 5.0, "reviews": 1, "place_id": "ChIJsZmRfWdUQ1MRTW-UB3xZ_Vs", "latitude": 46.6190304, "longitude": -112.0232355, "care_type": "Chiropractor"}, {"name": "Hayes Family Chiropractic", "address": "1015 Poplar St, Helena, MT 59601", "city": "Helena", "phone": "+1 406-442-4512", "website": "", "rating": null, "reviews": 0, "place_id": "ChIJZV7lqPhUQ1MRP_-7gFUnaL8", "latitude": 46.6046468, "longitude": -112.0224587, "care_type": "Chiropractor"}, {"name": "Tyler D. Smith, DC", "address": "2646 Winne Ave, Helena, MT 59601", "city": "Helena", "phone": "+1 406-422-5809", "website": "", "rating": null, "reviews": 0, "place_id": "ChIJ6UgkQJhVQ1MRfEDKBZIXK5E", "latitude": 46.58349339999999, "longitude": -111.9921895, "care_type": "Chiropractor"}, {"name": "Dr. Marcus Dobbins", "address": "1732 Prospect Ave, Helena, MT 59601", "city": "Helena", "phone": "+1 406-449-7458", "website": "", "rating": null, "reviews": 0, "place_id": "ChIJAQDE2yJVQ1MRMO4ZM2Ne_sc", "latitude": 46.5915741, "longitude": -112.0096159, "care_type": "Chiropractor"}, {"name": "Dr. Sheridan Jones", "address": "1434 N Roberts St, Helena, MT 59601", "city": "Helena", "phone": "+1 406-513-1403", "website": "https://alignhelena.com/", "rating": null, "reviews": 0, "place_id": "ChIJq6oubh1VQ1MRMMMHxojMmv0", "latitude": 46.5988552, "longitude": -112.0169409, "care_type": "Chiropractor"}, {"name": "Ideal protein at Hayes Family Chiropactic", "address": "3285 Harness Loop, Helena, MT 59601", "city": "Helena", "phone": "+1 406-442-4512", "website": "", "rating": null, "reviews": 0, "place_id": "ChIJFZZR9qNVQ1MRkkcvlm7iDJA", "latitude": 46.6394206, "longitude": -111.9228443, "care_type": "Chiropractor"}, {"name": "Tafelmeyer Chiropractic, PLLC", "address": "3180 Dredge Dr STE C, Helena, MT 59602", "city": "Helena", "phone": "+1 406-449-2116", "website": "http://tafelmeyerchiro.com/", "rating": null, "reviews": 0, "place_id": "ChIJ6wy7fWdUQ1MR1iE82I_HgzA", "latitude": 46.6190773, "longitude": -112.0232844, "care_type": "Chiropractor"}, {"name": "Jami L. Hansing, DC", "address": "62 S Last Chance Gulch St # A, Helena, MT 59601", "city": "Helena", "phone": "+1 406-449-0814", "website": "", "rating": null, "reviews": 0, "place_id": "ChIJIQCqlFZUQ1MRV0TTC8qjJ_M", "latitude": 46.585697, "longitude": -112.0411855, "care_type": "Chiropractor"}, {"name": "Schurmann Ralf DC", "address": "1732 Prospect Ave, Helena, MT 59601", "city": "Helena", "phone": "+1 406-449-7458", "website": "", "rating": null, "reviews": 0, "place_id": "ChIJrw3ydahVQ1MRvTCaEvQ7eak", "latitude": 46.5915475, "longitude": -112.009612, "care_type": "Chiropractor"}, {"name": "Accident & Back Pain Clinic", "address": "932 Aspen St, Helena, MT 59601", "city": "Helena", "phone": "+1 406-443-5510", "website": "", "rating": null, "reviews": 0, "place_id": "ChIJ61W4hvhUQ1MR-9nNRyZw1do", "latitude": 46.605931, "longitude": -112.024005, "care_type": "Chiropractor"}, {"name": "Gold Leaf Physical Therapy", "address": "701 Helena Ave, Helena, MT 59601", "city": "Helena", "phone": "+1 406-442-4325", "website": "http://www.goldleafphysicaltherapy.com/", "rating": 4.8, "reviews": 126, "place_id": "ChIJIQOHpwZVQ1MRsWeSqehNj7g", "latitude": 46.5936762, "longitude": -112.033142, "care_type": "Chiropractor"}, {"name": "Bitterroot Chiropractic Clinic", "address": "4221 Bear Gulch Rd, Helena, MT 59601", "city": "Helena", "phone": "+1 406-443-0311", "website": "", "rating": null, "reviews": 0, "place_id": "ChIJAxZWyBhVQ1MRNkbNvQFNR0A", "latitude": 46.57509599999999, "longitude": -112.06939, "care_type": "Chiropractor"}, {"name": "Scott E. Hansing, B.Sc, DC", "address": "1732 Prospect Avenue 1911 Main St, Salmon, Idaho, Helena, MT 59601", "city": "Helena", "phone": "+1 406-449-7458", "website": "http://www.iwcidaho.com/%2520%2520%2520%2520OR%2520%2520%2520http://capitalchiropracticcenter.com/", "rating": null, "reviews": 0, "place_id": "ChIJX0zarz9VQ1MRrFHeZWap2Og", "latitude": 46.5937862, "longitude": -112.0065306, "care_type": "Chiropractor"}, {"name": "Element Chiropractic & Rehab, PLLC", "address": "2646 Winne Ave #2, Helena, MT 59601", "city": "Helena", "phone": "+1 406-422-5800", "website": "", "rating": null, "reviews": 0, "place_id": "ChIJ6UgkQJhVQ1MR-PBsBdCawq0", "latitude": 46.5834751, "longitude": -111.992201, "care_type": "Chiropractor"}, {"name": "Michael Mcclain", "address": "1300 Aspen St suite a, Helena, MT 596010905", "city": "Helena", "phone": "+1 406-443-8060", "website": "", "rating": null, "reviews": 0, "place_id": "ChIJq6qa7FZUQ1MRAkxiBh62siE", "latitude": 46.6061071, "longitude": -112.018456, "care_type": "Chiropractor"}, {"name": "Jennifer Tafelmeyer", "address": "3180 Dredge Dr STE C, Helena, MT 59602", "city": "Helena", "phone": "+1 406-449-2116", "website": "https://bigskychiropractichelena.com/about-the-doctors/", "rating": null, "reviews": 0, "place_id": "ChIJ-QmPfWdUQ1MR5DtwWhX3cQ4", "latitude": 46.6190581, "longitude": -112.0232843, "care_type": "Chiropractor"}, {"name": "Joint Repair Clinic of Montana", "address": "2722 Billings Ave, Helena, MT 59601", "city": "Helena", "phone": "+1 406-204-5273", "website": "https://www.jointrepairmt.com/helena/", "rating": null, "reviews": 0, "place_id": "ChIJrfIwxDJVQ1MRKqdm7HrunRE", "latitude": 46.5946823, "longitude": -111.9907898, "care_type": "Chiropractor"}, {"name": "Mr. Aaron Jones", "address": "1050 Helena Ave STE 5, Helena, MT 59601", "city": "Helena", "phone": "+1 406-594-4849", "website": "https://madetomovechiropractic.com/", "rating": null, "reviews": 0, "place_id": "ChIJAQC8QAJVQ1MRg1a9S9mXuL4", "latitude": 46.5967412, "longitude": -112.0256283, "care_type": "Chiropractor"}, {"name": "Dillon Chiropractic Clinic", "address": "221 S Idaho St, Dillon, MT 59725", "city": "Dillon", "phone": "+1 406-683-6850", "website": "https://dillonchiroclinic.com/", "rating": 5.0, "reviews": 5, "place_id": "ChIJdY5-Nx8GWlMRnEsELUTsdMM", "latitude": 45.2156896, "longitude": -112.6388012, "care_type": "Chiropractor"}, {"name": "Pursuit Chiropractic and Sports Performance", "address": "110 N Montana St, Dillon, MT 59725", "city": "Dillon", "phone": "+1 406-988-0155", "website": "http://www.pursuit406.com/", "rating": 5.0, "reviews": 123, "place_id": "ChIJ2TSnsOUHWlMR4jzF18gXQ4c", "latitude": 45.2184295, "longitude": -112.6363601, "care_type": "Chiropractor"}, {"name": "Dillon Back & Neck Clinic", "address": "330 S Idaho St, Dillon, MT 59725", "city": "Dillon", "phone": "+1 406-683-9600", "website": "https://dillonbackandneckclinic.com/", "rating": 3.9, "reviews": 7, "place_id": "ChIJ0bVusRgGWlMRdZ6WocJkJIg", "latitude": 45.2144067, "longitude": -112.6395079, "care_type": "Chiropractor"}, {"name": "In-Line Chiropractic Center", "address": "209 W Main St, Cut Bank, MT 59427", "city": "Cut Bank", "phone": "+1 406-873-5007", "website": "", "rating": 5.0, "reviews": 4, "place_id": "ChIJS_CiFI0NaVMRm1KVdhDC2iY", "latitude": 48.6380017, "longitude": -112.3346911, "care_type": "Chiropractor"}, {"name": "Cut Bank Chiropractic", "address": "13 E Main St, Cut Bank, MT 59427", "city": "Cut Bank", "phone": "+1 406-873-0888", "website": "", "rating": 1.0, "reviews": 1, "place_id": "ChIJGW8Y24wNaVMRlwjE8L-uUIs", "latitude": 48.6360095, "longitude": -112.3313069, "care_type": "Chiropractor"}, {"name": "Community Chiropractic Center", "address": "1620 W Main St, Lewistown, MT 59457", "city": "Lewistown", "phone": "+1 406-538-7431", "website": "https://www.lewistownchiropractic.com/", "rating": 5.0, "reviews": 9, "place_id": "ChIJmafhyuHVQFMRMnkKZ4L0M1g", "latitude": 47.0564086, "longitude": -109.4408877, "care_type": "Chiropractor"}, {"name": "Community Chiropractic Center - Carson Durr DC", "address": "1620 W Main St, Lewistown, MT 59457", "city": "Lewistown", "phone": "+1 406-538-7431", "website": "https://www.lewistownchiropractic.com/", "rating": 5.0, "reviews": 8, "place_id": "ChIJcWIExXXVQFMRKRs4OrRCF4A", "latitude": 47.0564086, "longitude": -109.4408877, "care_type": "Chiropractor"}, {"name": "Rogers Family Chiropractic", "address": "213 W Main St #2701, Lewistown, MT 59457", "city": "Lewistown", "phone": "+1 406-535-2225", "website": "https://rogersfamilychiropractic.com/", "rating": 5.0, "reviews": 10, "place_id": "ChIJYwHfG1_TQFMRwfrBD47dWMI", "latitude": 47.06561079999999, "longitude": -109.4253041, "care_type": "Chiropractor"}, {"name": "Community Chiropractic Center - Donald Hecht DC", "address": "1620 W Main St, Lewistown, MT 59457", "city": "Lewistown", "phone": "+1 406-538-7431", "website": "https://www.lewistownchiropractic.com/", "rating": 4.3, "reviews": 6, "place_id": "ChIJzbxugLrUQFMRnfkYU2CvY4w", "latitude": 47.0564086, "longitude": -109.4408877, "care_type": "Chiropractor"}, {"name": "AM Chiropractic", "address": "102 W Janeaux St, Lewistown, MT 59457", "city": "Lewistown", "phone": "+1 406-535-6768", "website": "https://amchiroperformance.com/", "rating": null, "reviews": 0, "place_id": "ChIJJdOCMqfUQFMRC6orjRwl91k", "latitude": 47.0594, "longitude": -109.4338665, "care_type": "Chiropractor"}, {"name": "Family Chiropractic Center", "address": "629 NE Main St, Lewistown, MT 59457", "city": "Lewistown", "phone": "+1 406-538-4420", "website": "", "rating": 5.0, "reviews": 1, "place_id": "ChIJP0wPeEHTQFMRADDRzKEeSj4", "latitude": 47.0698214, "longitude": -109.4081625, "care_type": "Chiropractor"}, {"name": "The Montana Clinic - Erik Norslien, DC", "address": "120 Wunderlin St # 4, Lewistown, MT 59457", "city": "Lewistown", "phone": "+1 406-538-7201", "website": "http://themontanaclinic.com/", "rating": 5.0, "reviews": 11, "place_id": "ChIJe0kUfrrUQFMRvc6UfKbCvF0", "latitude": 47.0569275, "longitude": -109.4402617, "care_type": "Chiropractor"}, {"name": "Chiropractic Montana", "address": "505 W Main St #417, Lewistown, MT 59457", "city": "Lewistown", "phone": "", "website": "", "rating": null, "reviews": 0, "place_id": "ChIJZ7fx3lvTQFMRRfNyMKVfeBk", "latitude": 47.0637748, "longitude": -109.4279819, "care_type": "Chiropractor"}, {"name": "Yellowstone Chiropractic", "address": "222 2nd Ave SW, Sidney, MT 59270", "city": "Sidney", "phone": "+1 406-433-4757", "website": "https://yellowstonechiro.com/", "rating": 4.4, "reviews": 7, "place_id": "ChIJf02uQ5txJFMR9msN0tf8cEw", "latitude": 47.713923, "longitude": -104.159505, "care_type": "Chiropractor"}, {"name": "Sidney Chiropractic", "address": "813 S Central Ave, Sidney, MT 59270", "city": "Sidney", "phone": "+1 406-973-9730", "website": "http://sidchiro.com/", "rating": 5.0, "reviews": 3, "place_id": "ChIJOeRZ3ppxJFMRTH0a3TIk5Fg", "latitude": 47.7079724, "longitude": -104.1623205, "care_type": "Chiropractor"}, {"name": "Fink Family Chiropractic", "address": "120 E Main St, Sidney, MT 59270", "city": "Sidney", "phone": "+1 406-433-2225", "website": "http://www.finkfamilychiropractic.com/", "rating": 5.0, "reviews": 4, "place_id": "ChIJl0WGo4RxJFMRISkcrQUnB3c", "latitude": 47.7153816, "longitude": -104.1560897, "care_type": "Chiropractor"}, {"name": "Northern Chiropractic", "address": "201 4th St W, Hardin, MT 59034", "city": "Hardin", "phone": "+1 406-665-1555", "website": "http://www.northernchiromt.com/", "rating": 4.7, "reviews": 12, "place_id": "ChIJT_ezP9DdN1MRLAUyCnDKADM", "latitude": 45.7324981, "longitude": -107.6092987, "care_type": "Chiropractor"}, {"name": "Montana Chiropractic Health Center LLC", "address": "16 3rd St W, Hardin, MT 59034", "city": "Hardin", "phone": "+1 406-665-9015", "website": "", "rating": 5.0, "reviews": 6, "place_id": "ChIJJ8OSlhndN1MRaNZVo5lJg3M", "latitude": 45.7312355, "longitude": -107.6071624, "care_type": "Chiropractor"}, {"name": "George L. Toyne, DC", "address": "201 4th St W, Hardin, MT 59034", "city": "Hardin", "phone": "+1 406-665-1555", "website": "http://northernchiromt.com/", "rating": 5.0, "reviews": 1, "place_id": "ChIJT_ezP9DdN1MR6j3VvIf6kGU", "latitude": 45.7324687, "longitude": -107.6092928, "care_type": "Chiropractor"}, {"name": "Andrew Wagner", "address": "16 3rd St W, Hardin, MT 590341904", "city": "Hardin", "phone": "+1 406-665-9015", "website": "", "rating": 5.0, "reviews": 1, "place_id": "ChIJxW8T2NHdN1MRcQy6LkWdNy0", "latitude": 45.731176, "longitude": -107.607049, "care_type": "Chiropractor"}, {"name": "Taylor'D Spines", "address": "200 U.S. HWY 2 East, Wolf Point, MT 59201", "city": "Wolf Point", "phone": "+1 406-653-3600", "website": "", "rating": 5.0, "reviews": 4, "place_id": "ChIJP6wj8q3NPFMR1_LyJVhWRpo", "latitude": 48.0952743, "longitude": -105.6396714, "care_type": "Chiropractor"}, {"name": "Maurer Chiropractic", "address": "309 1st Ave, Laurel, MT 59044", "city": "Laurel", "phone": "+1 406-628-9322", "website": "http://maurerchiro.com/", "rating": 5.0, "reviews": 142, "place_id": "ChIJW5qZHGqOSFMRJNR4UUGP_Mc", "latitude": 45.6718698, "longitude": -108.7712548, "care_type": "Chiropractor"}, {"name": "Eastlick Chiropractic", "address": "417 W Main St, Laurel, MT 59044", "city": "Laurel", "phone": "+1 406-628-7310", "website": "", "rating": 5.0, "reviews": 7, "place_id": "ChIJ8RJQTxWOSFMRlHqaSVXfgIQ", "latitude": 45.6685953, "longitude": -108.7772382, "care_type": "Chiropractor"}, {"name": "Chiropractic First Laurel", "address": "720 1st Ave STE 2, Laurel, MT 59044", "city": "Laurel", "phone": "+1 406-628-4622", "website": "http://www.mychirofirst.com/", "rating": 5.0, "reviews": 160, "place_id": "ChIJ_-p3_UGOSFMRutTo2qqLn00", "latitude": 45.6763458, "longitude": -108.7721056, "care_type": "Chiropractor"}, {"name": "Chad L. Eastlick, DC", "address": "417 W Main St, Laurel, MT 59044", "city": "Laurel", "phone": "+1 406-628-7310", "website": "", "rating": 5.0, "reviews": 3, "place_id": "ChIJ8RJQTxWOSFMRRTFGvvDKFrY", "latitude": 45.6685858, "longitude": -108.777219, "care_type": "Chiropractor"}, {"name": "Rimrock Family Chiropractic", "address": "2807 N Ramshorn Dr, Laurel, MT 59044", "city": "Laurel", "phone": "+1 406-652-2710", "website": "http://rimrockfamilychiropractic.weebly.com/", "rating": null, "reviews": 0, "place_id": "ChIJL_Ui-8N8SFMRFs__W3QW0Xw", "latitude": 45.689546, "longitude": -108.721928, "care_type": "Chiropractor"}, {"name": "Dr. Philip Maurer", "address": "309 1st Ave, Laurel, MT 59044", "city": "Laurel", "phone": "+1 406-628-9322", "website": "", "rating": null, "reviews": 0, "place_id": "ChIJAQB8JkKOSFMRuEGo6-CMmvc", "latitude": 45.6718863, "longitude": -108.7713183, "care_type": "Chiropractor"}, {"name": "Gregory P. Vantassel, DC", "address": "2807 N Ramshorn Dr, Laurel, MT 59044", "city": "Laurel", "phone": "+1 406-652-2710", "website": "https://rimrockfamilychiropractic.standardprocess.com/products%3Fpage%3D1%26searchTerm%3DProst-X%25E2%2584%25A2%26sortOrder%3Drelevance", "rating": 5.0, "reviews": 3, "place_id": "ChIJQ2Qs9mZ9SFMRiTY8p3tpkxY", "latitude": 45.689546, "longitude": -108.721928, "care_type": "Chiropractor"}, {"name": "The Chiropractor", "address": "124 Central Ave, Whitefish, MT 59937", "city": "Whitefish", "phone": "+1 406-730-2233", "website": "https://www.thechiropractorwhitefish.com/", "rating": 5.0, "reviews": 96, "place_id": "ChIJ7T3mo7NpZlMRK3A4P9zqapk", "latitude": 48.4111836, "longitude": -114.337126, "care_type": "Chiropractor"}, {"name": "Whitefish Chiropractic Center", "address": "144A 2nd St, Whitefish, MT 59937", "city": "Whitefish", "phone": "+1 406-862-2121", "website": "https://whitefishchiropracticcenter.com/whitefish-mt/", "rating": 5.0, "reviews": 214, "place_id": "ChIJ86eJEZlCZlMRpDfARgWTfQ8", "latitude": 48.4108053, "longitude": -114.3464212, "care_type": "Chiropractor"}, {"name": "Big Mountain Chiropractic", "address": "6446 U.S. 93 S, Whitefish, MT 59937", "city": "Whitefish", "phone": "+1 406-862-7655", "website": "http://bigmountainchiropractic.com/", "rating": 4.9, "reviews": 80, "place_id": "ChIJ7WSPZM96ZlMRA11Rx2sYCKg", "latitude": 48.394113, "longitude": -114.336459, "care_type": "Chiropractor"}, {"name": "Compass Chiropractic", "address": "704 13th St E Ste E, Whitefish, MT 59937", "city": "Whitefish", "phone": "+1 406-863-2658", "website": "https://www.compasschirowf.com/", "rating": 5.0, "reviews": 498, "place_id": "ChIJCUCPlDRoZlMRZwWb5QxjIhA", "latitude": 48.4008779, "longitude": -114.3345213, "care_type": "Chiropractor"}, {"name": "Gislason Family Chiropractic", "address": "5875 US-93 A, Whitefish, MT 59937", "city": "Whitefish", "phone": "+1 406-862-9700", "website": "https://www.whitefishchiropractor.com/", "rating": 4.9, "reviews": 85, "place_id": "ChIJ4dyv25lCZlMRa8KQBQLi-58", "latitude": 48.3734466, "longitude": -114.3349723, "care_type": "Chiropractor"}, {"name": "Two Sparrows Family Chiropractic & Wellness", "address": "559 Edgewood Pl, Whitefish, MT 59937", "city": "Whitefish", "phone": "+1 406-249-6312", "website": "https://www.twosparrowsfcw.com/", "rating": 5.0, "reviews": 108, "place_id": "ChIJr3EnJ2NpZlMRIBuKgQ_7Pps", "latitude": 48.4154467, "longitude": -114.3407924, "care_type": "Chiropractor"}, {"name": "Xseed Chiropractic", "address": "5837 U.S. 93 S, Whitefish, MT 59937", "city": "Whitefish", "phone": "+1 406-730-1477", "website": "http://www.xseedchiro.com/", "rating": 5.0, "reviews": 105, "place_id": "ChIJ83Hgk_1DZlMRHTiMIpiF_wY", "latitude": 48.3718166, "longitude": -114.3350124, "care_type": "Chiropractor"}, {"name": "Whitefish Chiropractic Center - Kalispell", "address": "17 E Oregon St, Kalispell, MT 59901", "city": "Kalispell", "phone": "+1 406-755-6341", "website": "https://whitefishchiropracticcenter.com/kalispell-mt/", "rating": 5.0, "reviews": 111, "place_id": "ChIJsbGm9pZQZlMR6b84Qjohckg", "latitude": 48.20458499999999, "longitude": -114.3154561, "care_type": "Chiropractor"}, {"name": "Flip Spinal Care", "address": "301 2nd St, Whitefish, MT 59937", "city": "Whitefish", "phone": "+1 406-862-3547", "website": "https://www.flipspinalcarewhitefish.com/", "rating": 4.9, "reviews": 47, "place_id": "ChIJCX37OLNpZlMRxwg-Q2Mx_os", "latitude": 48.4104604, "longitude": -114.3393094, "care_type": "Chiropractor"}, {"name": "Whitefish Spine and Sport Chiropractic", "address": "903 Spokane Ave Suite # 2-3, Whitefish, MT 59937", "city": "Whitefish", "phone": "", "website": "http://www.whitefishspineandsport.com/", "rating": 4.8, "reviews": 19, "place_id": "ChIJI5EBWFBpZlMR5ViJk0cGi8Q", "latitude": 48.4029365, "longitude": -114.334842, "care_type": "Chiropractor"}, {"name": "The Bend, PC", "address": "In the Eartha Collective Suite, 903 Spokane Ave STE 4, Whitefish, MT 59937", "city": "Whitefish", "phone": "+1 406-888-6044", "website": "http://www.thebendatwhitefish.com/", "rating": 5.0, "reviews": 19, "place_id": "ChIJU_1TxU1oZlMR8Bprl620SJA", "latitude": 48.4030296, "longitude": -114.3347963, "care_type": "Chiropractor"}, {"name": "Good Medicine Chiropractic + Acupuncture", "address": "903 Spokane Ave STE 4, Whitefish, MT 59937", "city": "Whitefish", "phone": "+1 406-201-6027", "website": "https://goodmedchiroandacu.com/", "rating": 5.0, "reviews": 13, "place_id": "ChIJORcYIyxpZlMRN9cw4_C2dAg", "latitude": 48.4030441, "longitude": -114.3348445, "care_type": "Chiropractor"}, {"name": "Garth Chiropractic", "address": "6475 U.S. 93 S #56, Whitefish, MT 59937", "city": "Whitefish", "phone": "+1 406-862-9100", "website": "", "rating": 5.0, "reviews": 7, "place_id": "ChIJ20krJzJoZlMRFGfvbh4oAqw", "latitude": 48.3945331, "longitude": -114.334159, "care_type": "Chiropractor"}, {"name": "Eric Boughton DC", "address": "63228 US-93, Ronan, MT 59864", "city": "Ronan", "phone": "+1 406-871-8347", "website": "", "rating": 5.0, "reviews": 2, "place_id": "ChIJsaEfPKJ8Z1MRkBIPAciEz54", "latitude": 47.5282859, "longitude": -114.0966415, "care_type": "Chiropractor"}, {"name": "Clayton I. Brovold, DC", "address": "Ronan, MT 59864", "city": "Ronan", "phone": "+1 406-883-4234", "website": "", "rating": null, "reviews": 0, "place_id": "ChIJobdRfxR0Z1MRrniVbrmScn8", "latitude": 47.618194, "longitude": -114.1134282, "care_type": "Chiropractor"}, {"name": "Ronan Chiropractic Clinic", "address": "206 Main St SW, Ronan, MT 59864", "city": "Ronan", "phone": "+1 406-676-0170", "website": "", "rating": null, "reviews": 0, "place_id": "ChIJe-SkOWp7Z1MRjB0QTp8wAQY", "latitude": 47.528882, "longitude": -114.100615, "care_type": "Chiropractor"}, {"name": "Ellen L. Wicklund, DC", "address": "206 Main St SW, Ronan, MT 59864", "city": "Ronan", "phone": "+1 406-676-0170", "website": "", "rating": 3.0, "reviews": 2, "place_id": "ChIJe-SkOWp7Z1MRinBM_NcJJ8Q", "latitude": 47.528882, "longitude": -114.100615, "care_type": "Chiropractor"}, {"name": "Optimal Life Chiropractic, LLC", "address": "307 Park Ave Suite 204, Anaconda, MT 59711", "city": "Anaconda", "phone": "+1 406-459-6785", "website": "https://optimalliveschiropractic.com/", "rating": 5.0, "reviews": 2, "place_id": "ChIJexBfqXiRW1MRx37SKoRyQp4", "latitude": 46.1284618, "longitude": -112.9493329, "care_type": "Chiropractor"}, {"name": "Babcock Chiropractic", "address": "408 Park Ave, Anaconda, MT 59711", "city": "Anaconda", "phone": "+1 406-563-2333", "website": "", "rating": 4.6, "reviews": 9, "place_id": "ChIJU24PScqQW1MR4QUaAS7bKd0", "latitude": 46.1286305, "longitude": -112.9480701, "care_type": "Chiropractor"}, {"name": "Babcock Chiropractic", "address": "408 Park Ave, Anaconda, MT 59711", "city": "Anaconda", "phone": "+1 406-563-2333", "website": "", "rating": null, "reviews": 0, "place_id": "ChIJa6Sdsm9sJyQR1o9g78Ob59A", "latitude": 46.1286305, "longitude": -112.9480701, "care_type": "Chiropractor"}, {"name": "Stanley Chiropractic Clinic", "address": "103 N 8th St, Miles City, MT 59301", "city": "Miles City", "phone": "+1 406-234-2634", "website": "http://www.milescitychiropractic.com/", "rating": 5.0, "reviews": 10, "place_id": "ChIJtTG2_Rp0OlMR2nPfPo5m4mE", "latitude": 46.407996, "longitude": -105.8492441, "care_type": "Chiropractor"}, {"name": "Miles City Sport & Spine", "address": "2717 Main St, Miles City, MT 59301", "city": "Miles City", "phone": "+1 406-234-6278", "website": "http://www.milescitysportandspine.com/", "rating": 5.0, "reviews": 3, "place_id": "ChIJV3-BuZt2OlMRJQMMaIfgSUI", "latitude": 46.4086753, "longitude": -105.8254366, "care_type": "Chiropractor"}, {"name": "Wagner Chiropractic", "address": "213 N Haynes Ave, Miles City, MT 59301", "city": "Miles City", "phone": "+1 406-234-2225", "website": "", "rating": 5.0, "reviews": 12, "place_id": "ChIJixOumLt2OlMRAdwGD9jvcRg", "latitude": 46.4106611, "longitude": -105.8232196, "care_type": "Chiropractor"}, {"name": "Stein Chiropractic & Sports", "address": "511 Main St, Miles City, MT 59301", "city": "Miles City", "phone": "+1 406-234-2964", "website": "", "rating": 5.0, "reviews": 3, "place_id": "ChIJteEldRp0OlMRZYVnKDGClA4", "latitude": 46.4060844, "longitude": -105.8511409, "care_type": "Chiropractor"}, {"name": "Dr. Fred Scheid", "address": "2717 Main St, Miles City, MT 59301", "city": "Miles City", "phone": "+1 406-234-6278", "website": "http://www.milescitysportandspine.com/", "rating": null, "reviews": 0, "place_id": "ChIJO2SWuZt2OlMRsBY-NLLBXSk", "latitude": 46.4086908, "longitude": -105.8254559, "care_type": "Chiropractor"}, {"name": "Purvis Chiropractic Accident and Injury Clinic", "address": "1308 12th Ave S, Great Falls, MT 59405", "city": "Great Falls", "phone": "+1 406-453-8885", "website": "http://www.purvischiro.net/", "rating": 4.9, "reviews": 237, "place_id": "ChIJH3B8g7g3QlMRaLiyaRBwmYI", "latitude": 47.4917999, "longitude": -111.2845072, "care_type": "Chiropractor"}, {"name": "Wellness Chiropractic Clinic", "address": "222 15th St S C, Great Falls, MT 59405", "city": "Great Falls", "phone": "+1 406-727-5231", "website": "http://www.wellnesschiromt.com/", "rating": 4.9, "reviews": 32, "place_id": "ChIJiXRLtpQ3QlMRGDRsjra37iI", "latitude": 47.5022575, "longitude": -111.2820887, "care_type": "Chiropractor"}, {"name": "Great Falls Chiropractic Clinic", "address": "400 13th Ave S #104, Great Falls, MT 59405", "city": "Great Falls", "phone": "+1 406-727-1660", "website": "http://gfccmt.com/", "rating": 4.5, "reviews": 25, "place_id": "ChIJZ6EVSNs3QlMRq9c75G1z3yk", "latitude": 47.48992699999999, "longitude": -111.2998371, "care_type": "Chiropractor"}, {"name": "Mountain View Chiropractic", "address": "209 Smelter Ave NE UNIT 2, Great Falls, MT 59404", "city": "Great Falls", "phone": "+1 406-727-5757", "website": "https://www.mountainviewchiropracticpc.com/", "rating": 4.7, "reviews": 13, "place_id": "ChIJfwrYJSM4QlMRjLQmaxTPWYs", "latitude": 47.5249369, "longitude": -111.3067059, "care_type": "Chiropractor"}, {"name": "Activate\u200bd Life Chiropractic & Wellness PLLC\u200b", "address": "906 7th St S, Great Falls, MT 59405", "city": "Great Falls", "phone": "+1 406-770-3800", "website": "https://alcwdrstilson.com/", "rating": 5.0, "reviews": 55, "place_id": "ChIJvy4jh9Q3QlMR1AHoRZz0DZ8", "latitude": 47.49518339999999, "longitude": -111.2959321, "care_type": "Chiropractor"}, {"name": "Family Chiropractic Clinic", "address": "411 13th Ave S, Great Falls, MT 59405", "city": "Great Falls", "phone": "+1 406-727-6331", "website": "", "rating": 5.0, "reviews": 20, "place_id": "ChIJh9wdVds3QlMRtB2LCD584nQ", "latitude": 47.4909161, "longitude": -111.3000953, "care_type": "Chiropractor"}, {"name": "Crane Chiropractic \ud83d\ude00", "address": "1400 16th Ave SW, Great Falls, MT 59404", "city": "Great Falls", "phone": "+1 406-590-5900", "website": "http://www.chiropractorgreatfalls.com/", "rating": 4.9, "reviews": 33, "place_id": "ChIJXeNbOz5IQlMRUteLzZ4F6LQ", "latitude": 47.4879854, "longitude": -111.3384527, "care_type": "Chiropractor"}, {"name": "Michael J. Matury, DC", "address": "400 13th Ave S #104, Great Falls, MT 59405", "city": "Great Falls", "phone": "+1 406-727-1660", "website": "https://drmatury.com/", "rating": 5.0, "reviews": 17, "place_id": "ChIJZ6EVSNs3QlMRslbsYmRsaKY", "latitude": 47.4899217, "longitude": -111.2998773, "care_type": "Chiropractor"}, {"name": "Blanchard Pamela A DC", "address": "411 13th Ave S, Great Falls, MT 59405", "city": "Great Falls", "phone": "+1 406-727-6331", "website": "", "rating": 5.0, "reviews": 11, "place_id": "ChIJh9wdVds3QlMR7eyTO7mQ99A", "latitude": 47.4909618, "longitude": -111.3000992, "care_type": "Chiropractor"}, {"name": "Electric City Chiropractic", "address": "1106 9th St S, Great Falls, MT 59405", "city": "Great Falls", "phone": "+1 406-788-6754", "website": "https://electriccitychiropractic.com/", "rating": 5.0, "reviews": 15, "place_id": "ChIJPdWSTWc3QlMR8sMFc14n3Us", "latitude": 47.4930352, "longitude": -111.2932207, "care_type": "Chiropractor"}, {"name": "Back & Neck Clinic-Great Falls", "address": "1201 Central Ave Suite #2, Great Falls, MT 59401", "city": "Great Falls", "phone": "+1 406-771-8431", "website": "", "rating": 4.5, "reviews": 8, "place_id": "ChIJ59IT-Oc3QlMRBrIgTXUGWAk", "latitude": 47.5053796, "longitude": -111.286692, "care_type": "Chiropractor"}, {"name": "Six Chiropractic Clinic", "address": "1424 10th Ave S, Great Falls, MT 59405", "city": "Great Falls", "phone": "+1 406-452-6929", "website": "", "rating": 4.7, "reviews": 58, "place_id": "ChIJvfuZJbk3QlMRyf20oujn8Bk", "latitude": 47.4939676, "longitude": -111.2821002, "care_type": "Chiropractor"}, {"name": "Jerald D. Wiley, DC", "address": "209 Smelter Ave NE UNIT 2, Great Falls, MT 59404", "city": "Great Falls", "phone": "+1 406-727-5757", "website": "", "rating": 4.2, "reviews": 5, "place_id": "ChIJaacIsRg4QlMRRnokJOGnKY4", "latitude": 47.5250115, "longitude": -111.3066503, "care_type": "Chiropractor"}, {"name": "Blue Feather Chiropractic", "address": "105 Smelter Ave NE # 111, Great Falls, MT 59404", "city": "Great Falls", "phone": "+1 406-952-0048", "website": "https://bluefeatherchiropractic.com/", "rating": 5.0, "reviews": 4, "place_id": "ChIJ-epJ8Rc3QlMR-xlQZeTpvec", "latitude": 47.525575, "longitude": -111.3092163, "care_type": "Chiropractor"}, {"name": "Mark T. Stoebe, DC", "address": "400 13th Ave S #104, Great Falls, MT 59405", "city": "Great Falls", "phone": "+1 406-727-1660", "website": "http://www.gfccmt.com/", "rating": 4.6, "reviews": 9, "place_id": "ChIJZ6EVSNs3QlMRHJPkkjqeqB8", "latitude": 47.48992699999999, "longitude": -111.2998371, "care_type": "Chiropractor"}, {"name": "Kevin Jimmerson", "address": "222 15th St S C, Great Falls, MT 594052459", "city": "Great Falls", "phone": "+1 406-727-5231", "website": "https://www.wellnesschiromt.com/about-us", "rating": 5.0, "reviews": 1, "place_id": "ChIJgz78VZY3QlMRdiN4FhlhPUI", "latitude": 47.5022654, "longitude": -111.2820777, "care_type": "Chiropractor"}, {"name": "Gilbert Chiropractic", "address": "1308 9th Ave S, Great Falls, MT 59405", "city": "Great Falls", "phone": "+1 406-453-1369", "website": "http://www.gilbertchiromt.com/", "rating": 5.0, "reviews": 5, "place_id": "ChIJH3B8g7g3QlMRvnVOrAhqPMg", "latitude": 47.4949694, "longitude": -111.2844191, "care_type": "Chiropractor"}, {"name": "Lee S. Hudson, DC", "address": "1400 29th St S UNIT 2, Great Falls, MT 59405", "city": "Great Falls", "phone": "+1 406-761-3767", "website": "", "rating": 5.0, "reviews": 1, "place_id": "ChIJGaq5m8Y3QlMRi6Geyxd5Fc0", "latitude": 47.490463, "longitude": -111.2582701, "care_type": "Chiropractor"}, {"name": "Back And Neck Clinic of Great Falls", "address": "18 6th St N #201, Great Falls, MT 59401", "city": "Great Falls", "phone": "+1 406-771-8431", "website": "", "rating": null, "reviews": 0, "place_id": "ChIJcVgRRO03QlMRo6ltGoreb4M", "latitude": 47.5060783, "longitude": -111.2975465, "care_type": "Chiropractor"}, {"name": "Scott K. Smith, DC", "address": "1520 3rd St NW Suite E, Great Falls, MT 59404", "city": "Great Falls", "phone": "+1 406-866-0101", "website": "", "rating": 5.0, "reviews": 1, "place_id": "ChIJhSvgq9k5QlMRx-yj_epuHGU", "latitude": 47.5209456, "longitude": -111.309332, "care_type": "Chiropractor"}, {"name": "Justin Stilson", "address": "1301 12th Ave S Suite 203, Great Falls, MT 59405", "city": "Great Falls", "phone": "+1 406-770-3800", "website": "https://www.alcwdrstilson.com/", "rating": null, "reviews": 0, "place_id": "ChIJAQBwkLg3QlMRX2bLszrUMqY", "latitude": 47.4923325, "longitude": -111.2844047, "care_type": "Chiropractor"}, {"name": "Bozeman Family Chiropractic", "address": "1351 Stoneridge Dr suite b, Bozeman, MT 59718", "city": "Bozeman", "phone": "+1 406-586-5252", "website": "https://www.bozemanfamilychiropractic.com/", "rating": 4.9, "reviews": 143, "place_id": "ChIJvRBDXMtFRVMRWc5FR1-v1R0", "latitude": 45.6928708, "longitude": -111.0641394, "care_type": "Chiropractor"}, {"name": "Walk In Chiropractic - Bozeman", "address": "2622 W Main St Suite D, Bozeman, MT 59718", "city": "Bozeman", "phone": "+1 406-587-9679", "website": "https://www.walkinadjustment.com/bozeman/", "rating": 4.8, "reviews": 107, "place_id": "ChIJc5EBTKJFRVMRWo_RKgDLDSM", "latitude": 45.6727734, "longitude": -111.0729797, "care_type": "Chiropractor"}, {"name": "Pro Chiropractic Bozeman", "address": "2405 W Main St STE 8, Bozeman, MT 59718", "city": "Bozeman", "phone": "+1 406-219-2462", "website": "https://prochiromt.com/", "rating": 5.0, "reviews": 891, "place_id": "ChIJb1oMs6RFRVMRIY0eozn-kjo", "latitude": 45.67643409999999, "longitude": -111.0700229, "care_type": "Chiropractor"}, {"name": "Gallatin Valley Chiropractic", "address": "626 S Ferguson Ave # 5, Bozeman, MT 59718", "city": "Bozeman", "phone": "+1 406-551-2177", "website": "http://gallatinvalleychiropractic.com/%3Fy_source%3D1_OTg4NDYyMC03MTUtbG9jYXRpb24ud2Vic2l0ZQ%253D%253D", "rating": 5.0, "reviews": 229, "place_id": "ChIJqwU-x49FRVMRCRX38FacOBA", "latitude": 45.6737799, "longitude": -111.0931292, "care_type": "Chiropractor"}, {"name": "Bozeman Chiropractic, Top Chiropractor in Bozeman", "address": "15 S 5th Ave, Bozeman, MT 59715", "city": "Bozeman", "phone": "+1 406-451-5123", "website": "https://bozemanchiropractic.com/", "rating": 4.9, "reviews": 73, "place_id": "ChIJ2RmG_EVFRVMRDuQqL9NB2V0", "latitude": 45.6785961, "longitude": -111.0441191, "care_type": "Chiropractor"}, {"name": "Bozeman Back And Neck Clinic", "address": "120 N 19th Ave B, Bozeman, MT 59718", "city": "Bozeman", "phone": "+1 406-586-0275", "website": "http://www.backandneckclinics.com/", "rating": 4.9, "reviews": 141, "place_id": "ChIJk8tldbFFRVMRuYRFilxmq2E", "latitude": 45.6810607, "longitude": -111.061481, "care_type": "Chiropractor"}, {"name": "Windy Ridge Chiropractic", "address": "43 Mill Town Lp D, Bozeman, MT 59718", "city": "Bozeman", "phone": "+1 406-285-8753", "website": "https://windyridgechiropractic.com/", "rating": 5.0, "reviews": 101, "place_id": "ChIJ4Wa4QnRPRVMRVx8Ti0Z15mk", "latitude": 45.676973, "longitude": -111.1865943, "care_type": "Chiropractor"}, {"name": "Elite Chiropractic", "address": "1351 Stoneridge Dr Suite B-1, Bozeman, MT 59718", "city": "Bozeman", "phone": "+1 406-587-0711", "website": "https://www.elitechiromt.com/", "rating": 4.9, "reviews": 76, "place_id": "ChIJYZMsAaVFRVMRlcVhbf6h9i0", "latitude": 45.6928432, "longitude": -111.0643569, "care_type": "Chiropractor"}, {"name": "Wellness Montana", "address": "8332 Huffine Ln STE 5, Bozeman, MT 59718", "city": "Bozeman", "phone": "+1 406-522-5433", "website": "https://www.wellnessmontana.com/%3Futm_source%3DGBP%26utm_medium%3Dorganic", "rating": 5.0, "reviews": 143, "place_id": "ChIJeT-fuSFPRVMRuDV9A2qYv48", "latitude": 45.6703222, "longitude": -111.1575197, "care_type": "Chiropractor"}, {"name": "Montana Team Chiropractic", "address": "1819 S 22nd Ave STE 200, Bozeman, MT 59718", "city": "Bozeman", "phone": "+1 406-624-0022", "website": "http://www.teamchiromt.com/", "rating": 5.0, "reviews": 81, "place_id": "ChIJH2DefspFRVMRHswHrBV4gv8", "latitude": 45.6611707, "longitude": -111.0669383, "care_type": "Chiropractor"}, {"name": "Abundant Health Family Chiropractic", "address": "2245 W Koch St suite a, Bozeman, MT 59718", "city": "Bozeman", "phone": "+1 406-585-7000", "website": "http://www.abundanthealthfamilychiro.com/", "rating": 5.0, "reviews": 210, "place_id": "ChIJtaW9OIhFRVMRpT-UKzVLBYE", "latitude": 45.6751532, "longitude": -111.0667646, "care_type": "Chiropractor"}, {"name": "Active Family Chiropractic & Wellness", "address": "1087 Stoneridge Dr #1, Bozeman, MT 59718", "city": "Bozeman", "phone": "+1 406-556-0307", "website": "https://www.activefamilybozeman.com/", "rating": 4.9, "reviews": 55, "place_id": "ChIJZ9DV78pFRVMRz65YpARWfug", "latitude": 45.6904001, "longitude": -111.0636513, "care_type": "Chiropractor"}, {"name": "Linebarger Chiropractic", "address": "4181 Fallon St, Bozeman, MT 59718", "city": "Bozeman", "phone": "+1 406-586-1531", "website": "http://linebargerchiropractic.com/", "rating": 5.0, "reviews": 307, "place_id": "ChIJx4yqNbtFRVMRY00i5j6v47s", "latitude": 45.6739731, "longitude": -111.0946173, "care_type": "Chiropractor"}, {"name": "BackCountry Relief", "address": "662 S Ferguson Ave Suite #1, Bozeman, MT 59718", "city": "Bozeman", "phone": "+1 406-586-1984", "website": "http://www.backcountryrelief.com/", "rating": 5.0, "reviews": 62, "place_id": "ChIJfSs9KrBFRVMRIVJ5cmMm9Zg", "latitude": 45.67369919999999, "longitude": -111.0919324, "care_type": "Chiropractor"}, {"name": "Bozeman Wellness Center", "address": "2419 W Main St Ste 1, Bozeman, MT 59718", "city": "Bozeman", "phone": "+1 406-586-3556", "website": "http://www.bozemanwellnesscenter.com/", "rating": 5.0, "reviews": 9, "place_id": "ChIJcRf7zqRFRVMRVeejxzMHpro", "latitude": 45.6773701, "longitude": -111.0700792, "care_type": "Chiropractor"}, {"name": "Able Chiropractic", "address": "2407 W Main St UNIT 102, Bozeman, MT 59718", "city": "Bozeman", "phone": "+1 406-548-8822", "website": "http://ablechiro.com/", "rating": 4.9, "reviews": 78, "place_id": "ChIJ22TN0oNGRVMRUoWRsd_xc88", "latitude": 45.6758754, "longitude": -111.0705325, "care_type": "Chiropractor"}, {"name": "Bridger Chiropractic Clinic", "address": "517 S 22nd Ave STE 7, Bozeman, MT 59718", "city": "Bozeman", "phone": "+1 406-587-9122", "website": "https://www.bridgerchiro.com/%3FUTM_source%3DGBL", "rating": 4.9, "reviews": 48, "place_id": "ChIJ27GpS6RFRVMRrTJCW-rB7jI", "latitude": 45.6734401, "longitude": -111.0662979, "care_type": "Chiropractor"}, {"name": "Bozeman Back and Neck Clinic - Brock Barnick, DC", "address": "120 N 19th Ave, Bozeman, MT 59718", "city": "Bozeman", "phone": "+1 406-586-0275", "website": "http://www.backandneckclinics.com/", "rating": 5.0, "reviews": 6, "place_id": "ChIJk8tldbFFRVMRkepuupk8JWc", "latitude": 45.6810527, "longitude": -111.0615005, "care_type": "Chiropractor"}, {"name": "We Care Chiropractic", "address": "804 N 19th Ave, Bozeman, MT 59718", "city": "Bozeman", "phone": "+1 406-586-3544", "website": "https://www.bozemanchiropractor.com/", "rating": 4.7, "reviews": 109, "place_id": "ChIJ9z-3grVFRVMRNvF54HvcmoQ", "latitude": 45.68737429999999, "longitude": -111.0617806, "care_type": "Chiropractor"}, {"name": "Anderson Family Chiro LLC", "address": "8332 Huffine Ln STE 5, Bozeman, MT 59718", "city": "Bozeman", "phone": "+1 406-522-5433", "website": "https://www.wellnessmontana.com/", "rating": 5.0, "reviews": 1, "place_id": "ChIJ6UCfuSFPRVMRJqJ03utt0Fw", "latitude": 45.6704431, "longitude": -111.1576139, "care_type": "Chiropractor"}, {"name": "Absaroka Pain & Rehab", "address": "1001 W Oak St STE 210, Bozeman, MT 59715", "city": "Bozeman", "phone": "+1 406-587-8446", "website": "https://absarokapainandrehab.com/", "rating": 4.9, "reviews": 202, "place_id": "ChIJiYtjnDRERVMRbTZH8EyeRfQ", "latitude": 45.6933631, "longitude": -111.0506286, "care_type": "Chiropractor"}, {"name": "Serenity Chiropractic Bozeman", "address": "135 Mill Town Lp Unit C, Bozeman, MT 59718", "city": "Bozeman", "phone": "+1 406-613-7825", "website": "https://www.serenitychiropracticbozeman.com/%3Futm_source%3Dgoogle%26utm_medium%3Dwix_google_business_profile%26utm_campaign%3D14854952508743062877", "rating": 5.0, "reviews": 6, "place_id": "ChIJU4_5ddFPRVMRrJzR62pVE_U", "latitude": 45.6763582, "longitude": -111.1871066, "care_type": "Chiropractor"}, {"name": "Clete T. Linebarger, DC", "address": "4181 Fallon St #3, Bozeman, MT 59718", "city": "Bozeman", "phone": "+1 406-586-1531", "website": "https://linebargerchiropractic.com/", "rating": 5.0, "reviews": 17, "place_id": "ChIJ1TpDzqRFRVMRtAEtr4t3AgM", "latitude": 45.6740195, "longitude": -111.094498, "care_type": "Chiropractor"}, {"name": "Pierce Chiropractic", "address": "2304 N 7th Ave E, Bozeman, MT 59715", "city": "Bozeman", "phone": "+1 406-587-8133", "website": "", "rating": 5.0, "reviews": 8, "place_id": "ChIJx9g4TiNERVMRyi13qYhXfwU", "latitude": 45.7025858, "longitude": -111.0451248, "care_type": "Chiropractor"}, {"name": "Dr. Kimberly Maxwell", "address": "2245 W Koch St, Bozeman, MT 59718", "city": "Bozeman", "phone": "+1 406-585-7000", "website": "http://www.abundanthealthfamilychiro.com/", "rating": 5.0, "reviews": 10, "place_id": "ChIJeTyIR4hFRVMR8mP83PiAQDY", "latitude": 45.6751532, "longitude": -111.0667646, "care_type": "Chiropractor"}, {"name": "Willow Sage Chiropractic", "address": "614 S Ferguson Ave STE 1, Bozeman, MT 59718", "city": "Bozeman", "phone": "+1 406-600-4949", "website": "https://www.willowsagechiropractic.com/", "rating": 5.0, "reviews": 4, "place_id": "ChIJgU0ErqNFRVMRdxaDnv7mHm0", "latitude": 45.6742498, "longitude": -111.0925644, "care_type": "Chiropractor"}, {"name": "Dr. MaKena Hofer, D.C., M.S.", "address": "1528 W Main St, Bozeman, MT 59715", "city": "Bozeman", "phone": "+1 406-624-6039", "website": "http://www.shenwhitechapel.com/", "rating": 5.0, "reviews": 21, "place_id": "ChIJZcbFgnBFRVMR4Zk3xu_01J0", "latitude": 45.6787387, "longitude": -111.0580335, "care_type": "Chiropractor"}, {"name": "Dustin R. Rising, DC", "address": "626 S Ferguson Ave, Bozeman, MT 59718", "city": "Bozeman", "phone": "+1 406-551-2177", "website": "https://www.gallatinvalleychiropractic.com/meet-the-doctors.html", "rating": 5.0, "reviews": 5, "place_id": "ChIJqwU-x49FRVMRjQslbsyeSqo", "latitude": 45.6739052, "longitude": -111.0929695, "care_type": "Chiropractor"}, {"name": "Guest Family Chiropractic Pllc", "address": "2304 N 7th Ave, Bozeman, MT 59715", "city": "Bozeman", "phone": "+1 406-586-7641", "website": "", "rating": 5.0, "reviews": 1, "place_id": "ChIJx9g4TiNERVMRwpQZLD067Po", "latitude": 45.7025285, "longitude": -111.0451922, "care_type": "Chiropractor"}, {"name": "Guest Family Chiropractic PLLC: Guest, Gary M. DC", "address": "2304 N 7th Ave, Bozeman, MT 59715", "city": "Bozeman", "phone": "+1 406-586-7641", "website": "", "rating": 5.0, "reviews": 1, "place_id": "ChIJx9g4TiNERVMRyS3gk4bx3Us", "latitude": 45.7025285, "longitude": -111.0451922, "care_type": "Chiropractor"}, {"name": "Robert Pierce, DC", "address": "2304 N 7th Ave, Bozeman, MT 59715", "city": "Bozeman", "phone": "+1 406-587-8133", "website": "", "rating": 4.5, "reviews": 8, "place_id": "ChIJx9g4TiNERVMRaqy3EVTJuSE", "latitude": 45.7025858, "longitude": -111.0451248, "care_type": "Chiropractor"}, {"name": "Wild Country Chiropractic", "address": "117 E Oak St #1a, Bozeman, MT 59715", "city": "Bozeman", "phone": "+1 406-595-9075", "website": "", "rating": 5.0, "reviews": 3, "place_id": "ChIJHcwrm2FJRVMR4fJ0slQDwl4", "latitude": 45.693121, "longitude": -111.034322, "care_type": "Chiropractor"}, {"name": "Dr. Philip Aumann", "address": "1351 Stoneridge Dr suite b, Bozeman, MT 59718", "city": "Bozeman", "phone": "+1 406-586-5252", "website": "https://www.bozemanfamilychiropractic.com/us/", "rating": 5.0, "reviews": 2, "place_id": "ChIJAQBwn8xFRVMRKpj64Kg4_qQ", "latitude": 45.6928432, "longitude": -111.0643569, "care_type": "Chiropractor"}, {"name": "Ancestral Health Chiropractic", "address": "1128 E Main St #2, Bozeman, MT 59715", "city": "Bozeman", "phone": "+1 406-219-2518", "website": "https://ancestralhealthchiropractic.com/", "rating": 5.0, "reviews": 5, "place_id": "ChIJwxWk1WKXO40RQ8912MOZ2Tk", "latitude": 45.6787613, "longitude": -111.0209153, "care_type": "Chiropractor"}, {"name": "Pro Chiropractic Belgrade", "address": "8757 Jackrabbit Ln A, Belgrade, MT 59714", "city": "Belgrade", "phone": "+1 406-388-9915", "website": "https://prochiromt.com/locations/belgrade-mt/%3Futm_source%3Dgoogle%26utm_medium%3Dorganic%26utm_campaign%3Dgmb_bozeman%26utm_term%3Dgmb%2Bbelgrade", "rating": 5.0, "reviews": 440, "place_id": "ChIJT7LRGzI4RVMRV-63p-nrpuY", "latitude": 45.7979932, "longitude": -111.1860646, "care_type": "Chiropractor"}, {"name": "Dr. Kate Althans, Chiropractor", "address": "2135 Charlotte St Suite 1, Bozeman, MT 59718", "city": "Bozeman", "phone": "", "website": "https://drkatechiropractor.com/", "rating": 5.0, "reviews": 4, "place_id": "ChIJe0o8RKNFRVMRkp5PQNI19gU", "latitude": 45.6869915, "longitude": -111.0644936, "care_type": "Chiropractor"}, {"name": "Kern Taylor D.C.", "address": "24 S Willson Ave #9, Bozeman, MT 59715", "city": "Bozeman", "phone": "+1 406-539-0656", "website": "", "rating": 5.0, "reviews": 6, "place_id": "ChIJRWcnulBERVMRI4hCLeKv_G4", "latitude": 45.6786806, "longitude": -111.0385918, "care_type": "Chiropractor"}, {"name": "SH\u00c8N", "address": "1528 W Main St, Bozeman, MT 59715", "city": "Bozeman", "phone": "+1 406-624-6039", "website": "http://www.shenwhitechapel.com/", "rating": 5.0, "reviews": 154, "place_id": "ChIJNWmwDytFRVMRa8KBnqPA7IU", "latitude": 45.6787387, "longitude": -111.0580335, "care_type": "Chiropractor"}, {"name": "Belgrade Chiropractic", "address": "227 Spooner Rd B, Belgrade, MT 59714", "city": "Belgrade", "phone": "+1 406-388-2225", "website": "http://belgradechiropractic.com/", "rating": 4.5, "reviews": 8, "place_id": "ChIJHyUz8Bg4RVMRLXpEnba2AKY", "latitude": 45.7835975, "longitude": -111.180597, "care_type": "Chiropractor"}, {"name": "Dr. Eric Whitmont", "address": "15 S 5th Ave, Bozeman, MT 59715", "city": "Bozeman", "phone": "+1 406-451-5123", "website": "https://bozemanchiropractic.com/", "rating": 1.0, "reviews": 1, "place_id": "ChIJVVWxYlFERVMRh55TZkcwW_U", "latitude": 45.6785961, "longitude": -111.0441191, "care_type": "Chiropractor"}, {"name": "Basler Family Chiropractic", "address": "410 1st Ave W, Kalispell, MT 59901", "city": "Kalispell", "phone": "+1 406-257-3004", "website": "http://www.kalispellchiropractic.com/", "rating": 5.0, "reviews": 720, "place_id": "ChIJWzGkpMFQZlMR4lmCIovjRc8", "latitude": 48.1944516, "longitude": -114.3140779, "care_type": "Chiropractor"}, {"name": "Northern Lights Chiropractic", "address": "1066 N Meridian Rd, Kalispell, MT 59901", "city": "Kalispell", "phone": "+1 406-755-1955", "website": "http://www.northernlightschiropractic.com/", "rating": 5.0, "reviews": 107, "place_id": "ChIJXwRT2aNQZlMRPx7PZw-4Akk", "latitude": 48.2095138, "longitude": -114.330984, "care_type": "Chiropractor"}, {"name": "Francis Chiropractic Center", "address": "2593 U.S. Hwy 2 E #5, Kalispell, MT 59901", "city": "Kalispell", "phone": "+1 406-756-6868", "website": "https://www.spinaldocs.com/", "rating": 4.8, "reviews": 193, "place_id": "ChIJdZ5pe3FQZlMRaKZ5bpZY7CA", "latitude": 48.2400774, "longitude": -114.2757763, "care_type": "Chiropractor"}, {"name": "Atlas Chiropractic", "address": "33 Village Loop Ste C, Kalispell, MT 59901", "city": "Kalispell", "phone": "+1 406-257-4001", "website": "http://www.atlaschiropracticmontana.com/", "rating": 4.9, "reviews": 93, "place_id": "ChIJD6NYT4daZlMR3biOV52FFBI", "latitude": 48.2263652, "longitude": -114.3049311, "care_type": "Chiropractor"}, {"name": "Northern Roots Chiropractic", "address": "21 Meridian Ct A, Kalispell, MT 59901", "city": "Kalispell", "phone": "+1 406-260-9626", "website": "https://www.northernrootschiro.com/", "rating": 5.0, "reviews": 151, "place_id": "ChIJh0EAnqpRZlMRTe0o7JTbCYs", "latitude": 48.196137, "longitude": -114.332388, "care_type": "Chiropractor"}, {"name": "Monarch Chiropractic, LLC", "address": "2450 US-93, Kalispell, MT 59901", "city": "Kalispell", "phone": "+1 406-300-0440", "website": "http://monarchchiro.com/", "rating": 5.0, "reviews": 170, "place_id": "ChIJIXsmtVBbZlMRoGs4ZIQipaU", "latitude": 48.1733181, "longitude": -114.296985, "care_type": "Chiropractor"}, {"name": "Pinnacle Chiropractic, P.L.L.C.", "address": "105 Westview Pk Pl, Kalispell, MT 59901", "city": "Kalispell", "phone": "+1 406-314-4632", "website": "http://www.pinnaclechiropracticpllc.com/", "rating": 4.9, "reviews": 197, "place_id": "ChIJWb6isgpaZlMRA3MPjriQOr0", "latitude": 48.2136275, "longitude": -114.3291285, "care_type": "Chiropractor"}, {"name": "Lake's Family Chiropractic", "address": "495 N Main St, Kalispell, MT 59901", "city": "Kalispell", "phone": "+1 406-755-1117", "website": "https://m.facebook.com/chirolaker/", "rating": 5.0, "reviews": 26, "place_id": "ChIJPRqfBupQZlMR1jjZ6n35FTA", "latitude": 48.2049069, "longitude": -114.3156829, "care_type": "Chiropractor"}, {"name": "Ryan Chiropractic Clinic - Kalispell", "address": "690 N Meridian Rd #214, Kalispell, MT 59901", "city": "Kalispell", "phone": "+1 406-755-6030", "website": "https://www.ryanchiroclinic.com/", "rating": 4.9, "reviews": 110, "place_id": "ChIJhay56qRQZlMRGt4UMYdYzlk", "latitude": 48.2059217, "longitude": -114.3309683, "care_type": "Chiropractor"}, {"name": "Hunter Family Chiropractic", "address": "30 2nd St W, Kalispell, MT 59901", "city": "Kalispell", "phone": "+1 406-407-9703", "website": "https://hunterfamilychiropractic.com/", "rating": 5.0, "reviews": 53, "place_id": "ChIJufhk19pPRVMRT70PyCQNbTc", "latitude": 48.196848, "longitude": -114.312212, "care_type": "Chiropractor"}, {"name": "Flathead Chiropractic", "address": "22 2nd Ave W Suite 1400, Kalispell, MT 59901", "city": "Kalispell", "phone": "+1 406-314-6314", "website": "https://flatheadchiropractic.com/", "rating": 5.0, "reviews": 30, "place_id": "ChIJzwl2oepQZlMRi6_hGaB7NfY", "latitude": 48.197747, "longitude": -114.3170561, "care_type": "Chiropractor"}, {"name": "Sprout Chiropractic", "address": "267 1st Ave E N, Kalispell, MT 59901", "city": "Kalispell", "phone": "+1 406-607-1892", "website": "https://www.sproutchiromt.com/", "rating": 5.0, "reviews": 31, "place_id": "ChIJ_ch_jibRCGARZw-7ilxgXBU", "latitude": 48.202936, "longitude": -114.3130856, "care_type": "Chiropractor"}, {"name": "Pisk Chiropractic and Physiotherapy PC", "address": "178 2nd Ave E N, Kalispell, MT 59901", "city": "Kalispell", "phone": "+1 406-257-5011", "website": "http://www.piskchiropractic.com/", "rating": 4.7, "reviews": 38, "place_id": "ChIJyUGvP5RQZlMRIVbiMfXw0BY", "latitude": 48.202137, "longitude": -114.312333, "care_type": "Chiropractor"}, {"name": "Life Family Chiropractic", "address": "770 W Reserve Dr UNIT 4, Kalispell, MT 59901", "city": "Kalispell", "phone": "+1 406-752-5555", "website": "https://www.flatheadchiro.com/", "rating": 4.9, "reviews": 66, "place_id": "ChIJcVtlZNxQZlMRaRdM3S4BsYI", "latitude": 48.2397925, "longitude": -114.3214022, "care_type": "Chiropractor"}, {"name": "Free Rein Chiropractic", "address": "135 Hutton Ranch Rd #102, Kalispell, MT 59901", "city": "Kalispell", "phone": "+1 406-890-6989", "website": "https://www.freereinchiro.com/", "rating": 5.0, "reviews": 41, "place_id": "ChIJay0oSytbZlMRw2heTGCzS6A", "latitude": 48.2333823, "longitude": -114.3288756, "care_type": "Chiropractor"}, {"name": "Back To Health", "address": "248 3rd Ave E, Kalispell, MT 59901", "city": "Kalispell", "phone": "+1 406-756-5985", "website": "", "rating": 4.7, "reviews": 26, "place_id": "ChIJZ3jVAetQZlMReSuipGUSqTs", "latitude": 48.1968037, "longitude": -114.3087527, "care_type": "Chiropractor"}, {"name": "Kalispell chiropractor", "address": "2593 U.S. Hwy 2 E #5, Kalispell, MT 59901", "city": "Kalispell", "phone": "+1 866-485-3568", "website": "", "rating": null, "reviews": 0, "place_id": "ChIJVVWVbLtaZlMRVXErkmDhM8I", "latitude": 48.2399523, "longitude": -114.2754239, "care_type": "Chiropractor"}, {"name": "Montana Family Chiropractic", "address": "118 1st Ave W, Kalispell, MT 59901", "city": "Kalispell", "phone": "+1 406-752-3120", "website": "", "rating": 5.0, "reviews": 6, "place_id": "ChIJbXJ3EsBQZlMRJUqlsskgL7A", "latitude": 48.197214, "longitude": -114.3154425, "care_type": "Chiropractor"}, {"name": "Advanced Chiropractic", "address": "720 2nd St E, Kalispell, MT 59901", "city": "Kalispell", "phone": "+1 406-257-7463", "website": "", "rating": 5.0, "reviews": 3, "place_id": "ChIJgaxMEu1QZlMRcKdY-HbBc0g", "latitude": 48.1991448, "longitude": -114.3005344, "care_type": "Chiropractor"}, {"name": "Gislason Family Chiropractic", "address": "5 S Meridian Rd, Kalispell, MT 59901", "city": "Kalispell", "phone": "+1 406-755-1001", "website": "https://www.whitefishchiropractor.com/", "rating": 5.0, "reviews": 3, "place_id": "ChIJ81_tdQBRZlMRa4RpnpxUmHk", "latitude": 48.1959112, "longitude": -114.3301996, "care_type": "Chiropractor"}, {"name": "Base Vitality", "address": "103 Ponderosa Ln, Kalispell, MT 59901", "city": "Kalispell", "phone": "+1 406-220-5058", "website": "https://www.basevitality.com/", "rating": 5.0, "reviews": 47, "place_id": "ChIJd1ndO09bZlMRfcSsj1jkOr8", "latitude": 48.2668294, "longitude": -114.3293512, "care_type": "Chiropractor"}, {"name": "Total Health Chiropractic, Richard Puchta, D.C.", "address": "38 E Washington St Suite 1, Kalispell, MT 59901", "city": "Kalispell", "phone": "+1 406-752-7289", "website": "https://www.total-healthchiropractic.com/", "rating": 5.0, "reviews": 2, "place_id": "ChIJhay56qRQZlMROGf5q5hjBKI", "latitude": 48.2031447, "longitude": -114.3141483, "care_type": "Chiropractor"}, {"name": "Stillwater Spine & Sports Center Inc", "address": "3171 US-93 C, Kalispell, MT 59901", "city": "Kalispell", "phone": "+1 406-756-7634", "website": "http://www.stillwaterspineandsports.com/", "rating": 4.7, "reviews": 25, "place_id": "ChIJdQr08m1aZlMRxN-_7nHVpQM", "latitude": 48.2608448, "longitude": -114.329173, "care_type": "Chiropractor"}, {"name": "The Wellness Way - Flathead Valley", "address": "450 Corporate Dr STE 108, Kalispell, MT 59901", "city": "Kalispell", "phone": "+1 406-755-3014", "website": "https://www.thewellnessway.com/clinics/mt/kalispell/wellness-center/", "rating": 4.5, "reviews": 15, "place_id": "ChIJ6cCxkIxaZlMRUVn0_QW2_1A", "latitude": 48.1995672, "longitude": -114.3405762, "care_type": "Chiropractor"}, {"name": "Robinson Chiropractic & Rehab Center", "address": "15 Meridian Ct, Kalispell, MT 59901", "city": "Kalispell", "phone": "+1 406-607-6105", "website": "http://www.robinsonchiropractic.org/", "rating": 5.0, "reviews": 3, "place_id": "ChIJ1fnh1aBRZlMRD2P7Q7kTnrk", "latitude": 48.1962917, "longitude": -114.3319511, "care_type": "Chiropractor"}, {"name": "Dr. Stacy Livingston", "address": "105 Westview Pk Pl, Kalispell, MT 59901", "city": "Kalispell", "phone": "+1 406-314-4632", "website": "https://pinnaclechiropracticpllc.com/", "rating": 5.0, "reviews": 2, "place_id": "ChIJVwykLaBQZlMRDl_aXei3ipM", "latitude": 48.2135615, "longitude": -114.3289451, "care_type": "Chiropractor"}, {"name": "Pisk Chiropractic: Pisk Gregory D DC", "address": "178 2nd Ave E N, Kalispell, MT 59901", "city": "Kalispell", "phone": "+1 406-257-5011", "website": "http://www.piskchiropractic.com/", "rating": 4.3, "reviews": 6, "place_id": "ChIJyUGvP5RQZlMRIw-6tvuF09U", "latitude": 48.2021378, "longitude": -114.312333, "care_type": "Chiropractor"}, {"name": "Caring Chiropractic, Inc.", "address": "248 3rd Ave E #4532, Kalispell, MT 59901", "city": "Kalispell", "phone": "+1 406-755-1113", "website": "", "rating": 5.0, "reviews": 2, "place_id": "ChIJh329Q7hQZlMRc5_3cTMQNJU", "latitude": 48.1968097, "longitude": -114.3087808, "care_type": "Chiropractor"}, {"name": "Lynda L. Purdy, DC", "address": "248 3rd Ave E, Kalispell, MT 59901", "city": "Kalispell", "phone": "+1 406-755-1113", "website": "http://www.purdyhealthy.com/", "rating": 4.8, "reviews": 16, "place_id": "ChIJxTok_upQZlMRu4JM8tMKvM0", "latitude": 48.1968097, "longitude": -114.3087808, "care_type": "Chiropractor"}, {"name": "CJs Chiropractic Tune-Up Clinic", "address": "1818 Airport Rd, Kalispell, MT 59901", "city": "Kalispell", "phone": "+1 406-300-1214", "website": "", "rating": 5.0, "reviews": 4, "place_id": "ChIJa5NOVuVRZlMRs8c6juLFlTE", "latitude": 48.1822238, "longitude": -114.3097028, "care_type": "Chiropractor"}, {"name": "Dr. Scott Lampshire", "address": "1075 N Meridian Rd SUITE 100, Kalispell, MT 59901", "city": "Kalispell", "phone": "+1 406-257-7572", "website": "https://www.vibrantbalance.net/", "rating": 5.0, "reviews": 9, "place_id": "ChIJVVXBKOlQZlMRUsaV4dayQBU", "latitude": 48.2095986, "longitude": -114.3294319, "care_type": "Chiropractor"}, {"name": "Jones Susan E DC", "address": "38 E Washington St, Kalispell, MT 59901", "city": "Kalispell", "phone": "+1 406-755-5557", "website": "", "rating": 5.0, "reviews": 1, "place_id": "ChIJv40HgZZQZlMR-3S6JLhGifc", "latitude": 48.2031474, "longitude": -114.3141468, "care_type": "Chiropractor"}, {"name": "Montana Spine & Neurodevelopment Center", "address": "2593 U.S. Hwy 2 E #1, Kalispell, MT 59901", "city": "Kalispell", "phone": "+1 406-890-2212", "website": "http://www.mtspineandneuro.com/", "rating": 5.0, "reviews": 11, "place_id": "ChIJv76CTHVaZlMRZFT_qEiPJ7A", "latitude": 48.2397727, "longitude": -114.275566, "care_type": "Chiropractor"}, {"name": "Kevin A. Wilmot, DC", "address": "1066 N Meridian Rd, Kalispell, MT 59901", "city": "Kalispell", "phone": "+1 406-755-1955", "website": "http://www.northernlightschiropractic.com/", "rating": 5.0, "reviews": 2, "place_id": "ChIJXwRT2aNQZlMRyClTJtinhYE", "latitude": 48.20957749999999, "longitude": -114.330932, "care_type": "Chiropractor"}, {"name": "Anthony J. Nieter, DC", "address": "33 Village Loop, Kalispell, MT 59901", "city": "Kalispell", "phone": "+1 406-257-4001", "website": "http://www.atlaschiropracticmontana.com/", "rating": 5.0, "reviews": 1, "place_id": "ChIJD6NYT4daZlMRMssjTHyeqY0", "latitude": 48.2263652, "longitude": -114.3049311, "care_type": "Chiropractor"}, {"name": "Thomas P. Fullerton, DC", "address": "720 2nd St E, Kalispell, MT 59901", "city": "Kalispell", "phone": "+1 406-257-7463", "website": "", "rating": 5.0, "reviews": 2, "place_id": "ChIJgaxMEu1QZlMRg6VaobnQbrA", "latitude": 48.1991448, "longitude": -114.3005344, "care_type": "Chiropractor"}, {"name": "Dr. John Francis", "address": "2593 U.S. Hwy 2 E, Kalispell, MT 59901", "city": "Kalispell", "phone": "+1 406-756-6868", "website": "", "rating": 5.0, "reviews": 2, "place_id": "ChIJVVWVbLtaZlMRW2qPMiLqk-8", "latitude": 48.2399523, "longitude": -114.2754239, "care_type": "Chiropractor"}, {"name": "Wanda M. Robinson, DC", "address": "15 Meridian Ct, Kalispell, MT 59901", "city": "Kalispell", "phone": "+1 406-607-6105", "website": "http://www.robinsonchiropractic.org/", "rating": 5.0, "reviews": 6, "place_id": "ChIJyUGvP5RQZlMRkacxM0oPmUY", "latitude": 48.1962361, "longitude": -114.3319352, "care_type": "Chiropractor"}, {"name": "Cafe' of Life Kalispell", "address": "115 Commons Way STE 201, Kalispell, MT 59901", "city": "Kalispell", "phone": "+1 563-370-7626", "website": "http://www.cafeoflifekalispell.com/", "rating": 5.0, "reviews": 1, "place_id": "ChIJucg8mOpQZlMR7_21_w_KGpU", "latitude": 48.2207255, "longitude": -114.3299407, "care_type": "Chiropractor"}, {"name": "Puchta Richard DC", "address": "690 N Meridian Rd #214, Kalispell, MT 59901", "city": "Kalispell", "phone": "+1 406-752-7289", "website": "", "rating": null, "reviews": 0, "place_id": "ChIJqRljWY5RZlMR0XHgjAtZZO8", "latitude": 48.2059217, "longitude": -114.3309683, "care_type": "Chiropractor"}, {"name": "Jazper Torres", "address": "3171 US-93, Kalispell, MT 59901", "city": "Kalispell", "phone": "+1 406-756-7634", "website": "https://www.stillwaterspineandsports.com/about", "rating": 5.0, "reviews": 1, "place_id": "ChIJiafLim1aZlMRql4eXY0xGUA", "latitude": 48.2608448, "longitude": -114.329173, "care_type": "Chiropractor"}, {"name": "Lon L. Savik, DC", "address": "245 Windward Way #101, Kalispell, MT 59901", "city": "Kalispell", "phone": "+1 406-756-8488", "website": "https://www.logan.org/provider/lon-savik/", "rating": 5.0, "reviews": 5, "place_id": "ChIJ2UvvlHVaZlMRhfXUspdmh_g", "latitude": 48.2175926, "longitude": -114.3256361, "care_type": "Chiropractor"}, {"name": "Jordan B. Linder, DC", "address": "118 1st Ave W, Kalispell, MT 59901", "city": "Kalispell", "phone": "+1 406-752-3120", "website": "", "rating": 5.0, "reviews": 2, "place_id": "ChIJA9sTY6lRZlMRfA7JyBCXgB4", "latitude": 48.197214, "longitude": -114.3154425, "care_type": "Chiropractor"}, {"name": "John E. Francis Sr, DC", "address": "2593 U.S. Hwy 2 E #5, Kalispell, MT 59901", "city": "Kalispell", "phone": "+1 406-756-6868", "website": "http://www.spinaldocs.com/", "rating": null, "reviews": 0, "place_id": "ChIJdZ5pe3FQZlMRwIj6txJ5vEI", "latitude": 48.239895, "longitude": -114.275402, "care_type": "Chiropractor"}, {"name": "Tommy D Warden", "address": "80 Four Mile Dr, Kalispell, MT 59901", "city": "Kalispell", "phone": "+1 406-756-7634", "website": "", "rating": 5.0, "reviews": 2, "place_id": "ChIJaeMDB3JaZlMRnqAfLdnU_Uk", "latitude": 48.2254953, "longitude": -114.332811, "care_type": "Chiropractor"}, {"name": "James Mckiernan", "address": "1031 S Main St, Kalispell, MT 599015635", "city": "Kalispell", "phone": "+1 406-756-2626", "website": "", "rating": 5.0, "reviews": 1, "place_id": "ChIJ__9bKsNQZlMRcpIbY02o2f0", "latitude": 48.18850459999999, "longitude": -114.3096576, "care_type": "Chiropractor"}, {"name": "Lynda L. Purdy, DC", "address": "847 W Center St, Kalispell, MT 59901", "city": "Kalispell", "phone": "+1 406-755-1113", "website": "http://www.purdyhealthy.com/", "rating": 1.0, "reviews": 1, "place_id": "ChIJtdeXQ7hQZlMR87AZfq3b4W8", "latitude": 48.19683089999999, "longitude": -114.3267873, "care_type": "Chiropractor"}, {"name": "Academy Chiropractic", "address": "445 3rd Ave W, Kalispell, MT 59901", "city": "Kalispell", "phone": "+1 406-755-7545", "website": "https://www.academychiropractic.com/", "rating": null, "reviews": 0, "place_id": "ChIJhYQBNepQZlMR9R5Hj2PcTro", "latitude": 48.1933645, "longitude": -114.3162846, "care_type": "Chiropractor"}, {"name": "Dr. Sampson Fennelly", "address": "450 Corporate Dr STE 108, Kalispell, MT 59901", "city": "Kalispell", "phone": "+1 406-755-3014", "website": "", "rating": 5.0, "reviews": 1, "place_id": "ChIJKVjU1bNQZlMRw9tdAImgGMg", "latitude": 48.199537, "longitude": -114.3405291, "care_type": "Chiropractor"}, {"name": "Kali Gillen", "address": "105 Westview Pk Pl, Kalispell, MT 59901", "city": "Kalispell", "phone": "+1 406-314-4632", "website": "", "rating": null, "reviews": 0, "place_id": "ChIJVwykLaBQZlMRmo_MJoiM88c", "latitude": 48.2135615, "longitude": -114.3289451, "care_type": "Chiropractor"}, {"name": "Compass Chiropractic", "address": "208 1st Ave E, Kalispell, MT 59901", "city": "Kalispell", "phone": "+1 406-863-2658", "website": "https://www.compasschirowf.com/", "rating": null, "reviews": 0, "place_id": "ChIJQ6aGtsJRZlMRyxMEueEqR9E", "latitude": 48.1967864, "longitude": -114.3117104, "care_type": "Chiropractor"}, {"name": "Bigfork Chiropractic Center", "address": "Kalispell, MT 59901", "city": "Kalispell", "phone": "+1 406-257-2161", "website": "", "rating": null, "reviews": 0, "place_id": "ChIJR8LqnJVQZlMRcHZtmgT_qB8", "latitude": 48.2005364, "longitude": -114.3148295, "care_type": "Chiropractor"}, {"name": "Michael M Peterson DC", "address": "178 2nd Ave E N, Kalispell, MT 59901", "city": "Kalispell", "phone": "+1 406-257-5011", "website": "http://piskchiropractic.com/", "rating": null, "reviews": 0, "place_id": "ChIJyRw-R5RQZlMRNS_OlkC1o7I", "latitude": 48.2021624, "longitude": -114.3121842, "care_type": "Chiropractor"}, {"name": "Territo Chiropractic PC", "address": "2302 U.S. Hwy 2 E, Kalispell, MT 59901", "city": "Kalispell", "phone": "+1 406-752-2282", "website": "", "rating": null, "reviews": 0, "place_id": "ChIJoxxemEoWZlMRQUCjM5x241s", "latitude": 48.2291551, "longitude": -114.2765993, "care_type": "Chiropractor"}, {"name": "Nu-Body Image-Body Contouring LLC", "address": "1818 Airport Rd, Kalispell, MT 59901", "city": "Kalispell", "phone": "+1 406-300-1214", "website": "https://nubodyimagebodycon.wixsite.com/mysite", "rating": null, "reviews": 0, "place_id": "ChIJaWU6ixpRZlMRlfXKxzjQaRA", "latitude": 48.1822238, "longitude": -114.3097028, "care_type": "Chiropractor"}, {"name": "Savik Chiropractic", "address": "245 Windward Way, Kalispell, MT 59901", "city": "Kalispell", "phone": "+1 406-756-8488", "website": "http://ldsavik.wix.com/savikchiropractic", "rating": null, "reviews": 0, "place_id": "ChIJ2UvvlHVaZlMRuv-4L50HISc", "latitude": 48.2176276, "longitude": -114.3256627, "care_type": "Chiropractor"}, {"name": "Dr. Tammy Stenberg", "address": "10 Somers Rd, Somers, MT 59932", "city": "Somers", "phone": "+1 406-261-9872", "website": "https://www.drtammystenberg.com/", "rating": 5.0, "reviews": 4, "place_id": "ChIJLweHFAVbZlMRHd2uui63p4k", "latitude": 48.08057849999999, "longitude": -114.2284201, "care_type": "Chiropractor"}, {"name": "Matthew C. Lake, DC", "address": "495 S Main St, Kalispell, MT 59901", "city": "Kalispell", "phone": "+1 406-755-1117", "website": "", "rating": null, "reviews": 0, "place_id": "ChIJPRqfBupQZlMRaAn0s4u7Clc", "latitude": 48.1938807, "longitude": -114.3100387, "care_type": "Chiropractor"}, {"name": "Clinic Craig DC", "address": "195 Commons Loop E, Kalispell, MT 59901", "city": "Kalispell", "phone": "+1 406-260-4444", "website": "", "rating": null, "reviews": 0, "place_id": "ChIJzWfUdHRaZlMRWHvjcP-m4cg", "latitude": 48.2210399, "longitude": -114.3288511, "care_type": "Chiropractor"}, {"name": "Charles Wettach, DC", "address": "22 2nd Ave W, Kalispell, MT 59901", "city": "Kalispell", "phone": "+1 406-257-0550", "website": "", "rating": null, "reviews": 0, "place_id": "ChIJObo2jr9QZlMRe6J6Zce7S4A", "latitude": 48.1977665, "longitude": -114.3171566, "care_type": "Chiropractor"}, {"name": "Montana Laser and Medical Center", "address": "1327 U.S. Hwy 2 W, Kalispell, MT 59901", "city": "Kalispell", "phone": "+1 406-314-6400", "website": "http://www.montana-laser.com/", "rating": 4.8, "reviews": 30, "place_id": "ChIJdbENMJRQZlMRPlMzO8Aw77M", "latitude": 48.1993835, "longitude": -114.3386768, "care_type": "Chiropractor"}, {"name": "Dr. Reid Doyle", "address": "2450 U.S. 93 S, Kalispell, MT 59901", "city": "Kalispell", "phone": "+1 308-250-1492", "website": "", "rating": null, "reviews": 0, "place_id": "ChIJkbUopSNRZlMRG2kJmpVaG2I", "latitude": 48.1733273, "longitude": -114.296968, "care_type": "Chiropractor"}, {"name": "Havre Chiropractic Clinic", "address": "1903 5th Ave, Havre, MT 59501", "city": "Havre", "phone": "+1 406-400-2970", "website": "http://havrechiro.com/", "rating": 4.8, "reviews": 20, "place_id": "ChIJ7T2OL4mzalMRYdmVe2jK5ck", "latitude": 48.5348158, "longitude": -109.678361, "care_type": "Chiropractor"}, {"name": "Gibson Chiropractic : Havre MT", "address": "230 1st St, Havre, MT 59501", "city": "Havre", "phone": "+1 406-945-7890", "website": "", "rating": 4.3, "reviews": 6, "place_id": "ChIJw_MKt2ezalMRUe1NK2fANjI", "latitude": 48.553422, "longitude": -109.67862, "care_type": "Chiropractor"}, {"name": "Donald J Gibson, PLLC", "address": "319 3rd St, Havre, MT 59501", "city": "Havre", "phone": "+1 406-265-7000", "website": "", "rating": 5.0, "reviews": 2, "place_id": "ChIJzV6NJVizalMRbevUucpUcc0", "latitude": 48.551771, "longitude": -109.677863, "care_type": "Chiropractor"}, {"name": "Spine & Sports Chiropractic", "address": "321 W Main St, Belgrade, MT 59714", "city": "Belgrade", "phone": "+1 406-388-1446", "website": "http://www.spine-sportschiro.com/", "rating": 5.0, "reviews": 123, "place_id": "ChIJZbiJEBw4RVMRTELgSIJx0C4", "latitude": 45.7788348, "longitude": -111.181543, "care_type": "Chiropractor"}, {"name": "Raney Chiropractic", "address": "403 W Park St, Livingston, MT 59047", "city": "Livingston", "phone": "+1 406-222-6668", "website": "", "rating": 5.0, "reviews": 147, "place_id": "ChIJG7pPYPN7RVMRC6gi-6C5J0Y", "latitude": 45.6602346, "longitude": -110.564636, "care_type": "Chiropractor"}, {"name": "Rebel Chiropractic & Wellness", "address": "311 S Main St, Livingston, MT 59047", "city": "Livingston", "phone": "+1 406-222-0396", "website": "https://rebelwellness.clinic/", "rating": 5.0, "reviews": 113, "place_id": "ChIJlUVLnEt7RVMR3Nv1609dpWQ", "latitude": 45.6591186, "longitude": -110.5571899, "care_type": "Chiropractor"}, {"name": "Peak Performance Chiropractic", "address": "1201 US, 1201 US Hwy 10 W STE C, Livingston, MT 59047", "city": "Livingston", "phone": "+1 406-222-4444", "website": "https://peakperformancechiromt.com/", "rating": 5.0, "reviews": 21, "place_id": "ChIJpzmoSXF7RVMRLDDAkvAzLpI", "latitude": 45.6559678, "longitude": -110.5749702, "care_type": "Chiropractor"}, {"name": "Park County Chiropractic", "address": "1201 US, 1201 US Hwy 10 W A1, Livingston, MT 59047", "city": "Livingston", "phone": "+1 406-222-9373", "website": "http://www.parkcountychiropractic.com/", "rating": 5.0, "reviews": 16, "place_id": "ChIJba-oJ5p7RVMR_oxvI29cNpI", "latitude": 45.6559738, "longitude": -110.5756137, "care_type": "Chiropractor"}, {"name": "Mountainside Family & Sports Chiropractic/Dr. Kari Collver (formerly Rockhill)", "address": "105 S 2nd St, Livingston, MT 59047", "city": "Livingston", "phone": "+1 406-224-8297", "website": "https://www.mountainsidechiropracticmt.com/", "rating": 5.0, "reviews": 9, "place_id": "ChIJxct-Q5p7RVMRObiZO7Vrshc", "latitude": 45.6606029, "longitude": -110.560534, "care_type": "Chiropractor"}, {"name": "Raney Chiropractic", "address": "403 W Park St, Livingston, MT 59047", "city": "Livingston", "phone": "+1 406-222-6668", "website": "", "rating": 5.0, "reviews": 2, "place_id": "ChIJVVXZS3F7RVMRdletnKQ_hsM", "latitude": 45.6602348, "longitude": -110.5646537, "care_type": "Chiropractor"}, {"name": "Thiry Chiropractic", "address": "403 W Park St, Livingston, MT 59047", "city": "Livingston", "phone": "+1 406-222-6668", "website": "", "rating": 5.0, "reviews": 4, "place_id": "ChIJLU1Kv557RVMRPLqJtpbwWQg", "latitude": 45.6602346, "longitude": -110.564636, "care_type": "Chiropractor"}, {"name": "Dr. Derrick Nohl Chiropractic / PROfunctional Chiropractic", "address": "1201 US Hwy 10 W STE C, Livingston, MT 59047", "city": "Livingston", "phone": "+1 406-222-4444", "website": "", "rating": 4.8, "reviews": 6, "place_id": "ChIJ-3bJMHF7RVMRfY7nxZO9qjU", "latitude": 45.6560329, "longitude": -110.5750142, "care_type": "Chiropractor"}, {"name": "Park County Chiropractic", "address": "1201 US Hwy 10 W A1, Livingston, MT 59047", "city": "Livingston", "phone": "+1 406-222-9373", "website": "https://www.parkcountychiropractic.com/%3Futm_source%3Dgoogle%26utm_medium%3Dwix_google_business_profile%26utm_campaign%3D3775446809440980844", "rating": 5.0, "reviews": 33, "place_id": "ChIJyz39R3F7RVMRwzPXqia1kms", "latitude": 45.6559774, "longitude": -110.5756084, "care_type": "Chiropractor"}, {"name": "David A. Thiry, DC", "address": "403 W Park St, Livingston, MT 59047", "city": "Livingston", "phone": "+1 406-222-6668", "website": "", "rating": 3.7, "reviews": 3, "place_id": "ChIJLU1Kv557RVMRqZ-LIBYRO9Y", "latitude": 45.6602346, "longitude": -110.564636, "care_type": "Chiropractor"}, {"name": "Deborah L. Derr, DC", "address": "101 Billman Ln, Livingston, MT 59047", "city": "Livingston", "phone": "+1 406-224-1882", "website": "http://www.paradisevalleychiropractic.com/", "rating": null, "reviews": 0, "place_id": "ChIJ90_1DF57RVMRVRtM5a3Kvw4", "latitude": 45.644371, "longitude": -110.589359, "care_type": "Chiropractor"}, {"name": "Brandau, Jim DC", "address": "124 S Main St #205, Livingston, MT 59047", "city": "Livingston", "phone": "+1 406-222-5522", "website": "https://www.facebook.com/LivingstonChiropractor/%3Fref%3Dbookmarks", "rating": null, "reviews": 0, "place_id": "ChIJkzmUXJp7RVMR_6vjdpU1zT4", "latitude": 45.660636, "longitude": -110.559538, "care_type": "Chiropractor"}, {"name": "Wayne P. Netley, DC", "address": "1106 W Park St, Livingston, MT 59047", "city": "Livingston", "phone": "+1 406-222-2999", "website": "", "rating": 5.0, "reviews": 1, "place_id": "ChIJ7Uy5bHd7RVMRH5l4YfjvNjE", "latitude": 45.6548171, "longitude": -110.5726971, "care_type": "Chiropractor"}, {"name": "Gateway Chiropractic", "address": "1106 W Park St, Livingston, MT 59047", "city": "Livingston", "phone": "+1 406-222-2999", "website": "", "rating": null, "reviews": 0, "place_id": "ChIJ7Uy5bHd7RVMRN97mkyMWMRU", "latitude": 45.654773, "longitude": -110.5727993, "care_type": "Chiropractor"}, {"name": "Summit Pain and Spine", "address": "205 S Main St, Livingston, MT 59047", "city": "Livingston", "phone": "+1 406-220-6298", "website": "https://summitpainandspi.com/", "rating": 5.0, "reviews": 5, "place_id": "ChIJ9eRPuvN7RVMR1DLHe1z-8HY", "latitude": 45.6603879, "longitude": -110.558364, "care_type": "Chiropractor"}, {"name": "Walk In Chiropractic - West End", "address": "805 24th St W Suite 10, Billings, MT 59102", "city": "Billings", "phone": "+1 406-969-6278", "website": "https://www.walkinadjustment.com/billings-west-end/", "rating": 4.8, "reviews": 282, "place_id": "ChIJtU2QZ8F8SFMREF2qHZs5h_8", "latitude": 45.7778648, "longitude": -108.5758472, "care_type": "Chiropractor"}, {"name": "Freedom Chiropractic: Eric Simonton DC", "address": "1643 24th St W, Billings, MT 59102", "city": "Billings", "phone": "+1 406-200-7357", "website": "https://www.freedomchiromt.com/", "rating": 5.0, "reviews": 225, "place_id": "ChIJA7eWIw99SFMRf042bYV1wLY", "latitude": 45.7864753, "longitude": -108.5757632, "care_type": "Chiropractor"}, {"name": "Billings Chiropractic Injury Clinic", "address": "1918 Broadwater Ave, Billings, MT 59102", "city": "Billings", "phone": "+1 406-969-3805", "website": "https://billingschiropracticinjuryclinic.com/", "rating": 4.9, "reviews": 291, "place_id": "ChIJ-_K74rh8SFMRJRBRFtdUBgA", "latitude": 45.7767316, "longitude": -108.5651901, "care_type": "Chiropractor"}, {"name": "Grant Chiropractic & Wellness Center", "address": "10 Avanta Way STE 1, Billings, MT 59102", "city": "Billings", "phone": "+1 406-281-8262", "website": "http://www.billingsmtchiropractor.com/", "rating": 5.0, "reviews": 130, "place_id": "ChIJCX5N4SR9SFMREvRzQ1zeHEQ", "latitude": 45.7686546, "longitude": -108.5986821, "care_type": "Chiropractor"}, {"name": "Walk In Chiropractic - Heights", "address": "1633 Main St, Billings, MT 59105", "city": "Billings", "phone": "+1 406-702-1711", "website": "https://www.walkinadjustment.com/billings-heights/", "rating": 4.6, "reviews": 45, "place_id": "ChIJ8Z2eGXp6SFMR9C5mlZS0YdY", "latitude": 45.8276573, "longitude": -108.4703207, "care_type": "Chiropractor"},