[{"name": "Acu-Plus Chiropractic", "address": "920 W 21st St, South Sioux City, NE 68776", "city": "South Sioux City", "phone": "+1 402-412-7587", "website": "http://acupluschiro.com/", "rating": 5.0, "reviews": 38, "place_id": "ChIJ8REOLmAHjocRwR79jbN5890", "latitude": 42.4694623, "longitude": -96.4249584, "care_type": "Chiropractor"}, {"name": "Tri-State Physicians & Physical Therapy Clinic", "address": "3900 Dakota Ave Ste 6, South Sioux City, NE 68776", "city": "South Sioux City", "phone": "+1 402-494-5173", "website": "https://www.tristatephysicians.com/", "rating": 4.9, "reviews": 565, "place_id": "ChIJ__9vp1QHjocRQ7y8_UJrLB0", "latitude": 42.4509848, "longitude": -96.41301849999999, "care_type": "Chiropractor"}, {"name": "Chiro-Pods", "address": "110 E 39th St, South Sioux City, NE 68776", "city": "South Sioux City", "phone": "+1 402-412-2600", "website": "https://www.chiropods.com/", "rating": 5.0, "reviews": 2, "place_id": "ChIJAw3m4139jYcRFhd6iYYPaC4", "latitude": 42.4513494, "longitude": -96.41274759999999, "care_type": "Chiropractor"}, {"name": "Tri-State Physicians & Physical Therapy Clinic: Scott H. Patrick, DC", "address": "3900 Dakota Ave Ste 6, South Sioux City, NE 68776", "city": "South Sioux City", "phone": "+1 402-494-5173", "website": "https://www.tristatephysicians.com/", "rating": 5.0, "reviews": 4, "place_id": "ChIJ73bGblMHjocR--bLLXR7K-E", "latitude": 42.4510224, "longitude": -96.4129825, "care_type": "Chiropractor"}, {"name": "Dr. Sarah Peterson", "address": "1901 Cornhusker Dr Ste 205, South Sioux City, NE 68776", "city": "South Sioux City", "phone": "+1 402-412-7587", "website": "", "rating": 5.0, "reviews": 1, "place_id": "ChIJVVUVLmsHjocRDvhrj8wQtiU", "latitude": 42.4718551, "longitude": -96.4286199, "care_type": "Chiropractor"}, {"name": "Gary Tapper", "address": "1512 Dakota Ave STE D, South Sioux City, NE 68776", "city": "South Sioux City", "phone": "+1 402-494-2141", "website": "", "rating": 5.0, "reviews": 1, "place_id": "ChIJ__8__GMHjocRQUC5ootUziU", "latitude": 42.47488999999999, "longitude": -96.4126442, "care_type": "Chiropractor"}, {"name": "Sorum-Schwerin Michele DC", "address": "3900 Dakota Ave Ste 6, South Sioux City, NE 68776", "city": "South Sioux City", "phone": "+1 402-494-5173", "website": "", "rating": null, "reviews": 0, "place_id": "ChIJ73bGblMHjocR3EY_sbcojN8", "latitude": 42.4510224, "longitude": -96.4129825, "care_type": "Chiropractor"}, {"name": "Muller Teresa A DC", "address": "3900 Dakota Ave Ste 6, South Sioux City, NE 68776", "city": "South Sioux City", "phone": "+1 402-494-5173", "website": "", "rating": null, "reviews": 0, "place_id": "ChIJ73bGblMHjocRhRbosnISmoo", "latitude": 42.4510224, "longitude": -96.4129825, "care_type": "Chiropractor"}, {"name": "Dr. Robert Lee", "address": "1512 Dakota Ave STE D, South Sioux City, NE 68776", "city": "South Sioux City", "phone": "+1 402-494-2141", "website": "", "rating": 5.0, "reviews": 1, "place_id": "ChIJ__8__GMHjocRp0jP90r9zzY", "latitude": 42.47488999999999, "longitude": -96.4126442, "care_type": "Chiropractor"}, {"name": "Dierenfield Chiropractic", "address": "2005 Broadway St, Dakota City, NE 68731", "city": "Dakota City", "phone": "+1 402-987-2563", "website": "", "rating": 4.0, "reviews": 4, "place_id": "ChIJKZfJEowAjocRDUyXu6ZLyGE", "latitude": 42.4155497, "longitude": -96.4183709, "care_type": "Chiropractor"}, {"name": "ChiroLife of Omaha", "address": "644 N Saddle Creek Rd, Omaha, NE 68132", "city": "Omaha", "phone": "+1 402-551-5353", "website": "http://chirolifeofomaha.net/", "rating": 5.0, "reviews": 24, "place_id": "ChIJYwhIrFSPk4cRQ5KXXujuRQs", "latitude": 41.2662161, "longitude": -95.9811716, "care_type": "Chiropractor"}, {"name": "A Center For Chiropractic & Alternative Medicine, P.C.", "address": "120 N 27th St Suite 200, Norfolk, NE 68701", "city": "Norfolk", "phone": "+1 402-371-4673", "website": "https://www.alternativemed.info/%3Futm_source%3Dgoogle%26utm_medium%3Dorganic%26utm_campaign%3Dgbp_listing", "rating": 5.0, "reviews": 106, "place_id": "ChIJY0V1hMo_kIcR9Sh8C7NZAEI", "latitude": 42.0336429, "longitude": -97.4505168, "care_type": "Chiropractor"}, {"name": "Dr. Kim Thor CHIROPRACTOR", "address": "324 W Norfolk Ave, Norfolk, NE 68701", "city": "Norfolk", "phone": "+1 402-316-4641", "website": "http://drkimthor.com/", "rating": 5.0, "reviews": 46, "place_id": "ChIJ_RJ_NdE_kIcR_oNnKMPYRjM", "latitude": 42.0330149, "longitude": -97.4113421, "care_type": "Chiropractor"}, {"name": "Linn Chiropractic Center, P.C.", "address": "100 W Benjamin Ave, Norfolk, NE 68701", "city": "Norfolk", "phone": "+1 402-371-8864", "website": "http://www.linnchiro.com/", "rating": 4.9, "reviews": 78, "place_id": "ChIJxw5RrcE_kIcRPcZpndI1O6Q", "latitude": 42.04775739999999, "longitude": -97.4079091, "care_type": "Chiropractor"}, {"name": "Advanced Chiropractic and Wellness", "address": "509 N 13th St, Norfolk, NE 68701", "city": "Norfolk", "phone": "+1 402-371-9000", "website": "http://www.advancedchiropracticandwellness.com/", "rating": 4.7, "reviews": 25, "place_id": "ChIJK6ovP30VkIcRRRyg-uBTEcg", "latitude": 42.0379455, "longitude": -97.4269475, "care_type": "Chiropractor"}, {"name": "Creekwood Chiropractic", "address": "110 N 37th St #405, Norfolk, NE 68701", "city": "Norfolk", "phone": "+1 402-371-0522", "website": "http://www.creekwoodchiropractic.com/", "rating": 4.4, "reviews": 17, "place_id": "ChIJB2-Q-wkVkIcRHvakonaNYmA", "latitude": 42.03396679999999, "longitude": -97.4650284, "care_type": "Chiropractor"}, {"name": "Kuchar Chiropractic", "address": "1909 Vicki Ln Suite 104, Norfolk, NE 68701", "city": "Norfolk", "phone": "+1 402-750-9596", "website": "http://www.kucharchiropractic.com/", "rating": 5.0, "reviews": 14, "place_id": "ChIJUb66SrQ_kIcR2JHT43Wihxs", "latitude": 42.0230941, "longitude": -97.4356918, "care_type": "Chiropractor"}, {"name": "Neligh Chiropractic & Acupuncture", "address": "904 Riverside Blvd Ste E, Norfolk, NE 68701", "city": "Norfolk", "phone": "+1 402-844-4878", "website": "", "rating": 4.9, "reviews": 14, "place_id": "ChIJgbqTZEk-kIcRBI-6GGhLfmw", "latitude": 42.0414918, "longitude": -97.4123334, "care_type": "Chiropractor"}, {"name": "Spence Chiropractic", "address": "107 N 29th St, Norfolk, NE 68701", "city": "Norfolk", "phone": "+1 402-371-9366", "website": "http://www.spencechiro.com/", "rating": 5.0, "reviews": 9, "place_id": "ChIJ43MTUdw_kIcRa8x2sCERQdo", "latitude": 42.033682, "longitude": -97.454892, "care_type": "Chiropractor"}, {"name": "Davis & Kassmeier Chiropractic", "address": "1502 N 13th St, Norfolk, NE 68701", "city": "Norfolk", "phone": "+1 402-371-6415", "website": "http://dkchirousa.com/", "rating": 5.0, "reviews": 4, "place_id": "ChIJGfiiRTs-kIcR-8aWrg740z0", "latitude": 42.0493184, "longitude": -97.4259254, "care_type": "Chiropractor"}, {"name": "Allied Chiropractic Health Center", "address": "419 W Norfolk Ave #5234, Norfolk, NE 68701", "city": "Norfolk", "phone": "+1 402-379-3390", "website": "", "rating": 5.0, "reviews": 2, "place_id": "ChIJAYTSOLQ_kIcRdy-VUgJNOOU", "latitude": 42.03257989999999, "longitude": -97.41276289999999, "care_type": "Chiropractor"}, {"name": "A Center For Chiropractic", "address": "120 N 27th St Suite 200, Norfolk, NE 68701", "city": "Norfolk", "phone": "+1 402-371-4673", "website": "https://www.alternativemed.info/", "rating": null, "reviews": 0, "place_id": "ChIJKxve4bQ_kIcRP1-v8x4oJqo", "latitude": 42.0336429, "longitude": -97.4505168, "care_type": "Chiropractor"}, {"name": "Cultivate Chiropractic & Wellness", "address": "110 N 37th St #405, Norfolk, NE 68701", "city": "Norfolk", "phone": "+1 402-371-4110", "website": "http://www.cultivatechiroandwellness.com/", "rating": 5.0, "reviews": 4, "place_id": "ChIJR6rtooEVkIcRQe71VAgKYek", "latitude": 42.03401179999999, "longitude": -97.46484369999999, "care_type": "Chiropractor"}, {"name": "Jon McManaman, D.C.", "address": "120 N 27th St Suite 200, Norfolk, NE 68701", "city": "Norfolk", "phone": "+1 402-371-4673", "website": "http://www.alternativemed.info/", "rating": 5.0, "reviews": 2, "place_id": "ChIJ_UQvs8o_kIcRYDryGi0yHKg", "latitude": 42.0336429, "longitude": -97.4505168, "care_type": "Chiropractor"}, {"name": "David G. Kassmeier, DC", "address": "1502 N 13th St #2381, Norfolk, NE 68701", "city": "Norfolk", "phone": "+1 402-371-6415", "website": "", "rating": 5.0, "reviews": 2, "place_id": "ChIJGfiiRTs-kIcRV8NHXRy2LzI", "latitude": 42.0492654, "longitude": -97.4260573, "care_type": "Chiropractor"}, {"name": "Stender Family Chiropractic", "address": "1106 W Benjamin Ave Suite 500, Norfolk, NE 68701", "city": "Norfolk", "phone": "+1 402-844-9145", "website": "http://stenderchiro.com/", "rating": 5.0, "reviews": 4, "place_id": "ChIJJ7Eh_tA_kIcRhoHHXpUv4Jc", "latitude": 42.0477575, "longitude": -97.4238977, "care_type": "Chiropractor"}, {"name": "David L. Timmerman, DC", "address": "509 N 13th St, Norfolk, NE 68701", "city": "Norfolk", "phone": "+1 402-371-9000", "website": "http://www.advancedchiropracticandwellness.com/", "rating": 4.2, "reviews": 5, "place_id": "ChIJK6ovP30VkIcRaDj0PBMm5gU", "latitude": 42.0380391, "longitude": -97.42682769999999, "care_type": "Chiropractor"}, {"name": "Dr. Nicholas Linn", "address": "100 W Benjamin Ave, Norfolk, NE 68701", "city": "Norfolk", "phone": "+1 402-371-8864", "website": "", "rating": 5.0, "reviews": 1, "place_id": "ChIJq6o6c0U-kIcRg3ynSX_t3Yk", "latitude": 42.047791, "longitude": -97.4079312, "care_type": "Chiropractor"}, {"name": "Uhlir Chiropractic", "address": "809 S 13th St, Norfolk, NE 68701", "city": "Norfolk", "phone": "+1 402-402-8971", "website": "https://www.uhlirchiropractic.com/", "rating": 5.0, "reviews": 2, "place_id": "ChIJu_Jy78M_kIcR1Hh2ureTvjY", "latitude": 42.0237296, "longitude": -97.42541849999999, "care_type": "Chiropractor"}, {"name": "Jeffrey A. Rub, DC", "address": "1106 W Benjamin Ave # 1100, Norfolk, NE 68701", "city": "Norfolk", "phone": "+1 402-844-3200", "website": "", "rating": 5.0, "reviews": 5, "place_id": "ChIJF7FYOzo-kIcRmsW6sRwWyOw", "latitude": 42.0477575, "longitude": -97.4238977, "care_type": "Chiropractor"}, {"name": "Dr. Greg Jorgensen", "address": "509 N 13th St, Norfolk, NE 68701", "city": "Norfolk", "phone": "+1 402-371-9000", "website": "", "rating": null, "reviews": 0, "place_id": "ChIJ__-LfTI-kIcRPYtmCxxLFsw", "latitude": 42.0380055, "longitude": -97.426876, "care_type": "Chiropractor"}, {"name": "Dr. Calvin Thor", "address": "110 N 37th St #405, Norfolk, NE 68701", "city": "Norfolk", "phone": "+1 402-371-0522", "website": "", "rating": null, "reviews": 0, "place_id": "ChIJ7SaotqAVkIcRnPFFUzQ1Png", "latitude": 42.03401179999999, "longitude": -97.46484369999999, "care_type": "Chiropractor"}, {"name": "Nicholas Kuchar", "address": "1909 Vicki Ln Suite 104, Norfolk, NE 68701", "city": "Norfolk", "phone": "+1 402-750-9596", "website": "https://www.kucharchiropractic.com/page/dr-kuchar", "rating": null, "reviews": 0, "place_id": "ChIJvfHKU9g_kIcRWNmy3PeN-kQ", "latitude": 42.0230941, "longitude": -97.4356918, "care_type": "Chiropractor"}, {"name": "Dr. Shannon Spence", "address": "107 N 29th St, Norfolk, NE 68701", "city": "Norfolk", "phone": "+1 402-371-9366", "website": "https://spencechiro.com/about/", "rating": null, "reviews": 0, "place_id": "ChIJ__97-HUVkIcRMCeEukUM0Z8", "latitude": 42.03368529999999, "longitude": -97.4548909, "care_type": "Chiropractor"}, {"name": "Dr. D.W. Hoehne", "address": "419 W Norfolk Ave, Norfolk, NE 68701", "city": "Norfolk", "phone": "+1 402-379-3390", "website": "", "rating": null, "reviews": 0, "place_id": "ChIJuWnbn8A_kIcRUrxFeYQ9T2s", "latitude": 42.0324434, "longitude": -97.4127366, "care_type": "Chiropractor"}, {"name": "Alesa J. Melcher, DC", "address": "407 S 17th St, Norfolk, NE 68701", "city": "Norfolk", "phone": "+1 402-379-4870", "website": "", "rating": null, "reviews": 0, "place_id": "ChIJ0eaYNdE_kIcR63ZsMaxPcJs", "latitude": 42.028938, "longitude": -97.432419, "care_type": "Chiropractor"}, {"name": "Charles D. Lawhead, DC", "address": "110 N 37th St, Norfolk, NE 68701", "city": "Norfolk", "phone": "+1 402-371-0522", "website": "", "rating": null, "reviews": 0, "place_id": "ChIJB2-Q-wkVkIcRZ73YGG-G-5o", "latitude": 42.0326405, "longitude": -97.465615, "care_type": "Chiropractor"}, {"name": "Dr. Wendy Meyer", "address": "904 Riverside Blvd Ste E, Norfolk, NE 68701", "city": "Norfolk", "phone": "+1 402-844-4878", "website": "", "rating": null, "reviews": 0, "place_id": "ChIJq6r64Us-kIcRjcQ_316KAuU", "latitude": 42.0413633, "longitude": -97.4121547, "care_type": "Chiropractor"}, {"name": "Midwest Health Partners", "address": "1410 N 13th St, Norfolk, NE 68701", "city": "Norfolk", "phone": "+1 402-379-2322", "website": "https://www.mwhp.com/", "rating": 3.8, "reviews": 48, "place_id": "ChIJf1NHJTs-kIcR8OjPFOEkjBs", "latitude": 42.0487832, "longitude": -97.4258837, "care_type": "Chiropractor"}, {"name": "Dr. Nathaniel Stender", "address": "100 W Benjamin Ave, Norfolk, NE 68701", "city": "Norfolk", "phone": "+1 402-371-8864", "website": "", "rating": null, "reviews": 0, "place_id": "ChIJq6o6c0U-kIcR7P32Qr4T-xs", "latitude": 42.047791, "longitude": -97.4079312, "care_type": "Chiropractor"}, {"name": "Dr. Randy Barnes", "address": "110 N 37th St #405, Norfolk, NE 68701", "city": "Norfolk", "phone": "+1 402-371-0522", "website": "https://creekwoodchiropractic.com/dr-Barnes", "rating": null, "reviews": 0, "place_id": "ChIJ7SaotqAVkIcROAcsJNTmfWU", "latitude": 42.03401179999999, "longitude": -97.46484369999999, "care_type": "Chiropractor"}, {"name": "Kevin W. Davis, DC", "address": "1502 N 13th St #2381, Norfolk, NE 68701", "city": "Norfolk", "phone": "+1 402-371-6415", "website": "", "rating": null, "reviews": 0, "place_id": "ChIJGfiiRTs-kIcRv9NCgeqFj58", "latitude": 42.0494594, "longitude": -97.42607009999999, "care_type": "Chiropractor"}, {"name": "Active Family Chiropractic & Acupuncture - Columbus", "address": "2457 33rd Ave Suite D, Columbus, NE 68601", "city": "Columbus", "phone": "+1 402-265-6800", "website": "http://www.activefamily.health/", "rating": 5.0, "reviews": 89, "place_id": "ChIJkc_oE6zrkIcROAnm7aPMh3w", "latitude": 41.4402754, "longitude": -97.3676091, "care_type": "Chiropractor"}, {"name": "Linn Family Chiropractic PC", "address": "4307 23rd St, Columbus, NE 68601", "city": "Columbus", "phone": "+1 402-564-6565", "website": "http://www.linnfamilychiropractic.com/", "rating": 4.6, "reviews": 40, "place_id": "ChIJf8iyck_pkIcRgOB-qUknK6E", "latitude": 41.4383533, "longitude": -97.3799777, "care_type": "Chiropractor"}, {"name": "Driver Chiropractic LLC", "address": "2421 23rd St, Columbus, NE 68601", "city": "Columbus", "phone": "+1 402-270-1062", "website": "https://www.driverchiropractic.com/%3FUTM_source%3DGBP_listing%26UTM_medium%3Dorganic", "rating": 4.9, "reviews": 208, "place_id": "ChIJbe3Cys3zk4cRrtgznDpIdKE", "latitude": 41.4383259, "longitude": -97.3576695, "care_type": "Chiropractor"}, {"name": "Rickert Chiropractic & Acupuncture PC", "address": "1371 29th Ave, Columbus, NE 68601", "city": "Columbus", "phone": "+1 402-564-2622", "website": "http://www.rickertchiro.com/", "rating": 5.0, "reviews": 69, "place_id": "ChIJB4qoQ-HrkIcR4s1vPsuOByw", "latitude": 41.4302149, "longitude": -97.3628799, "care_type": "Chiropractor"}, {"name": "Avenue Chiropractic & Wellness Clinic", "address": "2559 37th Ave, Columbus, NE 68601", "city": "Columbus", "phone": "+1 402-564-7514", "website": "http://avechiro.com/", "rating": 4.5, "reviews": 27, "place_id": "ChIJOVIY3PXrkIcRluzQyDcsEBI", "latitude": 41.4410514, "longitude": -97.37233289999999, "care_type": "Chiropractor"}, {"name": "Hoffmeister Chiropractic, LLC", "address": "1923 23rd St, Columbus, NE 68601", "city": "Columbus", "phone": "+1 531-230-1189", "website": "http://www.hoffmeisterchiropractic.com/", "rating": 5.0, "reviews": 11, "place_id": "ChIJ3bL0BSTrkIcRdY3UP1jAV9I", "latitude": 41.4381983, "longitude": -97.35085959999999, "care_type": "Chiropractor"}, {"name": "Dr Alicia, Chiropractor", "address": "321 23rd St E, Columbus, NE 68601", "city": "Columbus", "phone": "+1 402-860-1875", "website": "", "rating": 4.9, "reviews": 165, "place_id": "ChIJzSP7pzDpkIcRfqurHIfHQ2Y", "latitude": 41.4380455, "longitude": -97.324089, "care_type": "Chiropractor"}, {"name": "Tessendorf Chiropractic", "address": "2360 26th Ave, Columbus, NE 68601", "city": "Columbus", "phone": "+1 402-564-0193", "website": "http://tessendorfchiro.com/", "rating": 5.0, "reviews": 2, "place_id": "ChIJV2g2ufvrkIcRN2t1CaWnmEk", "latitude": 41.4394645, "longitude": -97.35923, "care_type": "Chiropractor"}, {"name": "Holt Chiropractic LLC", "address": "3215 22nd St suite C, Columbus, NE 68601", "city": "Columbus", "phone": "+1 402-835-0348", "website": "https://holtchiropracticclinic.com/", "rating": 5.0, "reviews": 27, "place_id": "ChIJH8WKzZPrkIcRGAX3Ex-8OoQ", "latitude": 41.4376828, "longitude": -97.3673981, "care_type": "Chiropractor"}, {"name": "Randy R. Hinze, DC", "address": "2421 23rd St, Columbus, NE 68601", "city": "Columbus", "phone": "+1 402-867-6835", "website": "http://www.hinzechiropractic.com/", "rating": 5.0, "reviews": 3, "place_id": "ChIJAQpzf_zrkIcRCJov_rjz9mo", "latitude": 41.4383259, "longitude": -97.3576695, "care_type": "Chiropractor"}, {"name": "Hinze Chiropractic & Acupuncture", "address": "2421 23rd St, Columbus, NE 68601", "city": "Columbus", "phone": "+1 402-867-6835", "website": "https://www.hinzechiropractic.com/%3FUTM_source%3DGMB_listing%26UTM_medium%3Dorganic", "rating": 5.0, "reviews": 71, "place_id": "ChIJAQpzf_zrkIcRy-205WsKElg", "latitude": 41.4384008, "longitude": -97.3576499, "care_type": "Chiropractor"}, {"name": "Rickert Aaron A DC", "address": "1371 29th Ave, Columbus, NE 68601", "city": "Columbus", "phone": "+1 402-564-2622", "website": "http://rickertchiro.com/", "rating": 5.0, "reviews": 1, "place_id": "ChIJB4qoQ-HrkIcRfei_0uZ42_U", "latitude": 41.4302152, "longitude": -97.3629608, "care_type": "Chiropractor"}, {"name": "Ralph Crabtree", "address": "2559 37th Ave, Columbus, NE 68601", "city": "Columbus", "phone": "+1 402-564-7514", "website": "", "rating": 5.0, "reviews": 1, "place_id": "ChIJq6ravvTrkIcR7gOIlWzl33Q", "latitude": 41.4409526, "longitude": -97.37221009999999, "care_type": "Chiropractor"}, {"name": "Travis J. Tessendorf, DC", "address": "2360 26th Ave, Columbus, NE 68601", "city": "Columbus", "phone": "+1 402-564-0193", "website": "", "rating": 4.5, "reviews": 2, "place_id": "ChIJWb9IufvrkIcR6zdwDhfyYOI", "latitude": 41.4395281, "longitude": -97.3592042, "care_type": "Chiropractor"}, {"name": "Dr. Justin Linn", "address": "4307 23rd St, Columbus, NE 68601", "city": "Columbus", "phone": "+1 402-564-6565", "website": "https://www.linnfamilychiropractic.com/", "rating": null, "reviews": 0, "place_id": "ChIJCShbXGXskIcReJvrvueWiQo", "latitude": 41.4383533, "longitude": -97.3799777, "care_type": "Chiropractor"}, {"name": "Dr. Jerry Jirka", "address": "2526 17th St #2, Columbus, NE 68601", "city": "Columbus", "phone": "+1 402-562-6776", "website": "", "rating": 5.0, "reviews": 1, "place_id": "ChIJ___P9uTrkIcRkdVkktCkR3Q", "latitude": 41.43356139999999, "longitude": -97.3588723, "care_type": "Chiropractor"}, {"name": "Lincoln Family Chiropractic", "address": "1600 S 70th St #201, Lincoln, NE 68506", "city": "Lincoln", "phone": "+1 402-484-5166", "website": "https://lincolnfamilychiro.com/", "rating": 5.0, "reviews": 221, "place_id": "ChIJJeN60J69locRPTOtF2HSyRE", "latitude": 40.7960285, "longitude": -96.62469229999999, "care_type": "Chiropractor"}, {"name": "The Joint Chiropractic", "address": "3302 O St, Lincoln, NE 68510", "city": "Lincoln", "phone": "+1 402-542-4425", "website": "https://www.thejoint.com/nebraska/lincoln/lincoln-37001", "rating": 4.7, "reviews": 395, "place_id": "ChIJC4UKqIW-locR-GHPcnboZro", "latitude": 40.8139218, "longitude": -96.6722144, "care_type": "Chiropractor"}, {"name": "Ascend Chiropractic", "address": "5611 NW 1st St Suite 105, Lincoln, NE 68521", "city": "Lincoln", "phone": "+1 402-480-6680", "website": "http://www.ascendchiropracticne.com/", "rating": 5.0, "reviews": 583, "place_id": "ChIJmYqjRuS5locRztuZSxPWKok", "latitude": 40.8667895, "longitude": -96.7234285, "care_type": "Chiropractor"}, {"name": "Advanced Chiropractic Solutions", "address": "3121 S 11th St, Lincoln, NE 68502", "city": "Lincoln", "phone": "+1 402-328-0028", "website": "https://advancedchiropracticsolutions.com/", "rating": 4.9, "reviews": 537, "place_id": "ChIJTzNQzTK-locRvWUvP5YNPQ8", "latitude": 40.7814901, "longitude": -96.70593559999999, "care_type": "Chiropractor"}, {"name": "Active Life Family Chiropractic - Pioneer Woods", "address": "4141 Pioneer Woods Dr #116, Lincoln, NE 68506", "city": "Lincoln", "phone": "+1 402-420-0440", "website": "https://www.activelifefamilychiropractic.com/%3Futm_source%3Dgoogle%26utm_medium%3Dorganic%26utm_campaign%3Dgbp_listing", "rating": 4.9, "reviews": 306, "place_id": "ChIJQ0YpsQ-WlocRpUTwCAsvq1Q", "latitude": 40.7710106, "longitude": -96.62464059999999, "care_type": "Chiropractor"}, {"name": "Lincoln Chiropractic Center", "address": "3830 Adams St, Lincoln, NE 68504", "city": "Lincoln", "phone": "+1 402-464-5567", "website": "https://lincolnchiropracticcenter.com/", "rating": 4.7, "reviews": 43, "place_id": "ChIJPTH8M6q-locRE74Qnx2UGwM", "latitude": 40.843029, "longitude": -96.66635269999999, "care_type": "Chiropractor"}, {"name": "Excel Chiropractic and Wellness", "address": "6830 S 70th St Suite 1, Lincoln, NE 68516", "city": "Lincoln", "phone": "+1 402-327-0400", "website": "https://lincolnexcel.com/", "rating": 5.0, "reviews": 450, "place_id": "ChIJZ1hV7H29locRt3v0bFoYJIg", "latitude": 40.7420653, "longitude": -96.624676, "care_type": "Chiropractor"}, {"name": "Adjusted Life Chiropractic", "address": "5601 Union Hill Rd Ste 4, Lincoln, NE 68516", "city": "Lincoln", "phone": "+1 402-413-9464", "website": "https://www.chirolincoln.com/%3Futm_source%3Dlocalsearch%26utm_medium%3Ddirectory%26utm_campaign%3Dlso", "rating": 5.0, "reviews": 200, "place_id": "ChIJIfsNacqVlocRZjn1x6xBN-0", "latitude": 40.73413559999999, "longitude": -96.6436437, "care_type": "Chiropractor"}, {"name": "Thrive Family Chiropractic", "address": "5960 Vandervoort Dr #120, Lincoln, NE 68516", "city": "Lincoln", "phone": "+1 402-615-6022", "website": "http://www.thrivelincoln.com/", "rating": 4.9, "reviews": 149, "place_id": "ChIJpSzH32iWlocRNmaydBoMOuw", "latitude": 40.755619, "longitude": -96.63801199999999, "care_type": "Chiropractor"}, {"name": "Novo Chiropractic Lincoln", "address": "8601 S 30th St #108, Lincoln, NE 68516", "city": "Lincoln", "phone": "+1 402-817-7373", "website": "https://novolincoln.com/", "rating": 4.9, "reviews": 318, "place_id": "ChIJ8Q-Xl9OVlocRSByF9PkNRIs", "latitude": 40.7254309, "longitude": -96.67864039999999, "care_type": "Chiropractor"}, {"name": "Chiropractic USA", "address": "5550 S 59th St #14, Lincoln, NE 68516", "city": "Lincoln", "phone": "+1 402-420-2872", "website": "https://lincolnchiropracticwellness.com/", "rating": 4.8, "reviews": 186, "place_id": "ChIJ93cT2DyWlocRD_HEfcvKu_k", "latitude": 40.7568326, "longitude": -96.6399213, "care_type": "Chiropractor"}, {"name": "Cornerstone Chiropractic", "address": "2295 S 48th St, Lincoln, NE 68506", "city": "Lincoln", "phone": "+1 402-843-6910", "website": "http://cornerstonechiropracticne.com/", "rating": 5.0, "reviews": 65, "place_id": "ChIJ7xnSpwi-locRcuHMK4V1wO0", "latitude": 40.78896659999999, "longitude": -96.6540254, "care_type": "Chiropractor"}, {"name": "Love Chiropractic Center", "address": "801 S 48th St, Lincoln, NE 68510", "city": "Lincoln", "phone": "+1 402-484-5353", "website": "http://lovechiropractic.net/", "rating": 4.7, "reviews": 12, "place_id": "ChIJFWk4l9K9locRwlMQ8SdCuyo", "latitude": 40.8058818, "longitude": -96.6540352, "care_type": "Chiropractor"}, {"name": "Trinity Chiropractic PC", "address": "3120 O St B, Lincoln, NE 68510", "city": "Lincoln", "phone": "+1 402-476-6767", "website": "http://www.trinitychiro.com/", "rating": 5.0, "reviews": 243, "place_id": "ChIJWzc6no--locRU5MRPKeZlRQ", "latitude": 40.813763, "longitude": -96.67555259999999, "care_type": "Chiropractor"}, {"name": "Express Life Chiropractic", "address": "8550 Andermatt Dr Ste 2, Lincoln, NE 68526", "city": "Lincoln", "phone": "+1 402-318-5797", "website": "https://www.expresslifechiropractic.com/", "rating": 4.9, "reviews": 246, "place_id": "ChIJJ9OWOZqXlocRNxGpCGOGW7w", "latitude": 40.7361107, "longitude": -96.60250359999999, "care_type": "Chiropractor"}, {"name": "Belmont Chiropractic Clinic", "address": "4401 N 7th St, Lincoln, NE 68521", "city": "Lincoln", "phone": "+1 402-476-8619", "website": "http://belmontchiropractic.com/", "rating": 4.9, "reviews": 258, "place_id": "ChIJfeGqfNO-locRGOZ4WQ1uPD8", "latitude": 40.8549855, "longitude": -96.7110774, "care_type": "Chiropractor"}, {"name": "Lincoln Disc and Nutrition Center and Hoof & Paw", "address": "4535 Normal Blvd STE 105, Lincoln, NE 68506", "city": "Lincoln", "phone": "+1 402-488-2220", "website": "https://lincolndiscandnutrition.com/", "rating": 5.0, "reviews": 76, "place_id": "ChIJOy8hNwO-locRPFqdHF2-rTI", "latitude": 40.7883459, "longitude": -96.65687179999999, "care_type": "Chiropractor"}, {"name": "Schrock Medical Clinic: Lincoln", "address": "4546 S 86th St STE B, Lincoln, NE 68526", "city": "Lincoln", "phone": "+1 402-817-1999", "website": "http://www.schrockmedical.com/lincoln", "rating": 4.9, "reviews": 93, "place_id": "ChIJfTMmsJWXlocRAUK22Na7IuM", "latitude": 40.76768879999999, "longitude": -96.6030031, "care_type": "Chiropractor"}, {"name": "Premier Integrated Health & Wellness, PC", "address": "4220 Lucile Dr Ste 2, Lincoln, NE 68506", "city": "Lincoln", "phone": "+1 402-421-1411", "website": "http://morganchiroandacu.com/", "rating": 4.9, "reviews": 189, "place_id": "ChIJR3CP82eWlocRVjl5WgtxO4E", "latitude": 40.7701509, "longitude": -96.6145415, "care_type": "Chiropractor"}, {"name": "Horak Chiropractic & Acupuncture", "address": "1640 Normandy Ct Suite B, Lincoln, NE 68512", "city": "Lincoln", "phone": "+1 402-904-7179", "website": "http://www.horakchiropractic.com/", "rating": 5.0, "reviews": 126, "place_id": "ChIJhf65dYWVlocRPXAD7Qo3E2U", "latitude": 40.756831, "longitude": -96.6969385, "care_type": "Chiropractor"}, {"name": "Complete Health Chiropractic", "address": "4645 Normal Blvd STE 200, Lincoln, NE 68506", "city": "Lincoln", "phone": "+1 402-580-4354", "website": "https://www.chclincoln.com/", "rating": 4.8, "reviews": 43, "place_id": "ChIJbwFxvMC9locRrLfYSMxFS2U", "latitude": 40.7882557, "longitude": -96.6563529, "care_type": "Chiropractor"}, {"name": "Chiropractic FIRST", "address": "7555 S 57th St STE 2A, Lincoln, NE 68516", "city": "Lincoln", "phone": "+1 402-421-7000", "website": "https://www.mylincolnchiropractor.com/%3Futm_source%3Dgmb%26utm_medium%3Dorganic", "rating": 5.0, "reviews": 55, "place_id": "ChIJZa_TWtWVlocR4dbUy3soU18", "latitude": 40.7354078, "longitude": -96.6439195, "care_type": "Chiropractor"}, {"name": "NuSpine Chiropractic", "address": "6450 O St #6, Lincoln, NE 68510", "city": "Lincoln", "phone": "+1 402-347-8519", "website": "https://www.nuspine.com/locations/nebraska/lincoln/chiropractor-68510/%3Futm_source%3Dgmb%26utm_medium%3Dmaps%26utm_campaign%3Donline", "rating": 4.3, "reviews": 43, "place_id": "ChIJnYRghDG8locRanQ-cTmoH8Q", "latitude": 40.8142204, "longitude": -96.6322021, "care_type": "Chiropractor"}, {"name": "Superior Chiropractic & Acupuncture PC", "address": "2500 Northview Rd #101, Lincoln, NE 68521", "city": "Lincoln", "phone": "+1 402-438-3033", "website": "https://www.superiorchirolincoln.com/", "rating": 4.9, "reviews": 64, "place_id": "ChIJcwVe8Ee5locRnVwujHA4Ln4", "latitude": 40.8568706, "longitude": -96.6843707, "care_type": "Chiropractor"}, {"name": "Comfort Family Chiropractic", "address": "4720 W Huntington Ave H, Lincoln, NE 68524", "city": "Lincoln", "phone": "+1 402-484-5177", "website": "https://www.comfortlincoln.com/location/air-park-lincoln", "rating": 5.0, "reviews": 165, "place_id": "ChIJTcjhcl3BlocRm1CF7kLNVxk", "latitude": 40.8395856, "longitude": -96.7865333, "care_type": "Chiropractor"}, {"name": "Southwest Chiropractic Center PC", "address": "1501 Pine Lake Rd # 2, Lincoln, NE 68512", "city": "Lincoln", "phone": "+1 402-421-8284", "website": "https://www.swchiropracticcenter.com/", "rating": 4.8, "reviews": 111, "place_id": "ChIJR3noPqSVlocRTPYfMH8xf9c", "latitude": 40.7377512, "longitude": -96.6994081, "care_type": "Chiropractor"}, {"name": "Elevated Health Chiropractic", "address": "345 Speedway Cir, Lincoln, NE 68502", "city": "Lincoln", "phone": "+1 531-500-1944", "website": "http://elevatedhealthlnk.com/", "rating": 5.0, "reviews": 102, "place_id": "ChIJw4Jz2K6_locRvVVdTUh1AK8", "latitude": 40.7817128, "longitude": -96.71619369999999, "care_type": "Chiropractor"}, {"name": "Cornhusker Chiropractic PC", "address": "2949 N 27th St Ste 201 Suite 201, Lincoln, NE 68521", "city": "Lincoln", "phone": "+1 402-466-1288", "website": "https://www.cornhuskerchiro.com/", "rating": 4.9, "reviews": 67, "place_id": "ChIJX5NgybW-locRcNfNBUQbMiM", "latitude": 40.8421597, "longitude": -96.68292249999999, "care_type": "Chiropractor"}, {"name": "South Lincoln Chiropractic", "address": "1001 S 70th St, Lincoln, NE 68510", "city": "Lincoln", "phone": "+1 402-484-8500", "website": "http://www.southlincolnchiro.com/", "rating": 5.0, "reviews": 15, "place_id": "ChIJOy8hNwO-locRDPn4Z5nV_cY", "latitude": 40.8030605, "longitude": -96.6264111, "care_type": "Chiropractor"}, {"name": "Nebraska Motion Chiropractic -(Lincoln Performance & Sports Medicine)", "address": "1220 Aries Dr, Lincoln, NE 68512", "city": "Lincoln", "phone": "+1 402-413-9943", "website": "https://www.nebraskamotion.com/", "rating": 5.0, "reviews": 41, "place_id": "ChIJI60JBQSVlocRMMl6OCnDXHk", "latitude": 40.736901, "longitude": -96.704768, "care_type": "Chiropractor"}, {"name": "Spine and Sports Chiropractic and Physical Therapy", "address": "4130 Pioneer Woods Dr #3, Lincoln, NE 68506", "city": "Lincoln", "phone": "+1 402-261-6841", "website": "http://www.spineandsports.us/", "rating": 5.0, "reviews": 396, "place_id": "ChIJp3kLdyqWlocRyBPSoQg7xg8", "latitude": 40.7709632, "longitude": -96.621386, "care_type": "Chiropractor"}, {"name": "Havelock Chiropractic Center", "address": "6132 Havelock Ave # 1, Lincoln, NE 68507", "city": "Lincoln", "phone": "+1 402-467-5143", "website": "http://havelockchiro.com/", "rating": 5.0, "reviews": 47, "place_id": "ChIJj4NYbo67locRmYO0g7MaRSo", "latitude": 40.85716619999999, "longitude": -96.63624569999999, "care_type": "Chiropractor"}, {"name": "Tarnick Chiropractic & Acupuncture PC - Chiropractor in Lincoln NE", "address": "6016 S 87th St Suite 100, Lincoln, NE 68526", "city": "Lincoln", "phone": "+1 402-483-2900", "website": "https://tarnickchiropracticandacupuncture.com/", "rating": 5.0, "reviews": 115, "place_id": "ChIJnaw9csSXlocRYFCJvTSy5aE", "latitude": 40.7512712, "longitude": -96.6022067, "care_type": "Chiropractor"}, {"name": "Mosier/Timperley Chiropractic", "address": "4645 Normal Blvd STE 200, Lincoln, NE 68506", "city": "Lincoln", "phone": "+1 402-483-6633", "website": "http://www.mtchiro.net/", "rating": 4.7, "reviews": 52, "place_id": "ChIJn5WblN29locR1sHWGxYJPq0", "latitude": 40.7883765, "longitude": -96.6563328, "care_type": "Chiropractor"}, {"name": "Active Life Family Chiropractic - Kensington", "address": "2555 Kensington Dr, Lincoln, NE 68521", "city": "Lincoln", "phone": "+1 402-420-0440", "website": "https://www.activelifefamilychiropractic.com/%3Futm_source%3Dgoogle%26utm_medium%3Dorganic%26utm_campaign%3Dgbp_listing", "rating": 4.9, "reviews": 221, "place_id": "ChIJDR098a2-locR95LpQyMJ8UY", "latitude": 40.8617393, "longitude": -96.6840816, "care_type": "Chiropractor"}, {"name": "Active Life Family Chiropractic - Northern Lights", "address": "8244 Northern Lights Dr Ste. 106, Lincoln, NE 68505", "city": "Lincoln", "phone": "+1 402-420-0440", "website": "http://www.activelifefamilychiropractic.com/%3Futm_source%3Dgoogle%26utm_medium%3Dorganic%26utm_campaign%3Dgbp_listing", "rating": 5.0, "reviews": 178, "place_id": "ChIJY6mmjcy9locRtfCkdfZP9jA", "latitude": 40.83172039999999, "longitude": -96.6077907, "care_type": "Chiropractor"}, {"name": "CoreCare Chiropractic", "address": "1265 S Cotner Blvd #26, Lincoln, NE 68510", "city": "Lincoln", "phone": "+1 402-325-0170", "website": "http://corecarechiro.com/", "rating": 5.0, "reviews": 128, "place_id": "ChIJlbDRUM69locR4-s3KO-CxLM", "latitude": 40.80074159999999, "longitude": -96.650894, "care_type": "Chiropractor"}, {"name": "ChiroLouie Chiropractic and Wellness Center", "address": "2550 Superior St #170, Lincoln, NE 68521", "city": "Lincoln", "phone": "+1 402-261-5880", "website": "", "rating": 5.0, "reviews": 41, "place_id": "ChIJKfbplke5locRQ9Qh4Wub8cU", "latitude": 40.8579678, "longitude": -96.6841077, "care_type": "Chiropractor"}, {"name": "Everwell Family Chiropractic", "address": "3801 Union Dr #200, Lincoln, NE 68516", "city": "Lincoln", "phone": "+1 402-420-5373", "website": "http://everwellfamilychiropractic.com/", "rating": 5.0, "reviews": 281, "place_id": "ChIJ11J_H4C9locRRvFRgnf8j1U", "latitude": 40.7509962, "longitude": -96.6664662, "care_type": "Chiropractor"}, {"name": "Lott Chiropractic Clinic, P.C.", "address": "7111 A St #100, Lincoln, NE 68510", "city": "Lincoln", "phone": "+1 402-489-0777", "website": "https://www.lottchiropractic.com/", "rating": 5.0, "reviews": 157, "place_id": "ChIJrSdEfq-9locRXQ7FTR6lWHI", "latitude": 40.79838, "longitude": -96.622716, "care_type": "Chiropractor"}, {"name": "WellnessOne Knee & Spine Center", "address": "2621 S 70th St Suite A, Lincoln, NE 68506", "city": "Lincoln", "phone": "+1 402-484-0200", "website": "https://wellnessonenebraska.com/", "rating": 5.0, "reviews": 114, "place_id": "ChIJ11J_H4C9locRuP_svf44NPg", "latitude": 40.7864953, "longitude": -96.6268568, "care_type": "Chiropractor"}, {"name": "Provision Chiropractic and Wellness", "address": "2755 Jamie Ln Suite 9, Lincoln, NE 68516", "city": "Lincoln", "phone": "+1 531-500-2412", "website": "https://www.provisionlincoln.com/", "rating": 5.0, "reviews": 57, "place_id": "ChIJxU1kziOVlocRB0Sht_1RzHw", "latitude": 40.7280561, "longitude": -96.6806447, "care_type": "Chiropractor"}, {"name": "Fletcher Chiropractic", "address": "5220 S 48th St #4, Lincoln, NE 68516", "city": "Lincoln", "phone": "+1 402-261-5766", "website": "https://fletcherchiropracticllc.com/", "rating": 5.0, "reviews": 38, "place_id": "ChIJL_X4zPm9locRa_nO1VXCpZ8", "latitude": 40.760989, "longitude": -96.6533513, "care_type": "Chiropractor"}, {"name": "Move\u2022ment Chiropractic and Integrative Wellness", "address": "8421 Amber Hill Ct Ste 2, Lincoln, NE 68526", "city": "Lincoln", "phone": "+1 402-489-8880", "website": "http://www.movementig.com/", "rating": 4.7, "reviews": 36, "place_id": "ChIJt3CHy42XlocRZ0PW1HCYKR8", "latitude": 40.7330047, "longitude": -96.604947, "care_type": "Chiropractor"}, {"name": "Buettenback Chiropractic", "address": "4811 NW 1st St #5, Lincoln, NE 68521", "city": "Lincoln", "phone": "+1 402-476-8483", "website": "http://www.buettenbackchiro.com/", "rating": 5.0, "reviews": 20, "place_id": "ChIJp8JEJ-q4locRGHrHPyLeNvE", "latitude": 40.8614983, "longitude": -96.7238174, "care_type": "Chiropractor"}, {"name": "Strive Chiropractic", "address": "2917 Pine Lake Rd Suite F, Lincoln, NE 68516", "city": "Lincoln", "phone": "+1 402-972-8382", "website": "http://www.strivelincoln.com/", "rating": 5.0, "reviews": 17, "place_id": "ChIJzdZf38aVlocRYbYEkCKJjrQ", "latitude": 40.7398792, "longitude": -96.6775512, "care_type": "Chiropractor"}, {"name": "Green Chiropractic", "address": "606 N 66th St, Lincoln, NE 68505", "city": "Lincoln", "phone": "+1 402-466-6454", "website": "https://www.drgreenchiro.com/", "rating": 4.9, "reviews": 37, "place_id": "ChIJO67zYEO8locR0p_C_lnt2t4", "latitude": 40.8187799, "longitude": -96.630251, "care_type": "Chiropractor"}, {"name": "Lincoln Performance & Sports Medicine - Chiropractic", "address": "1220 Aries Dr, Lincoln, NE 68512", "city": "Lincoln", "phone": "+1 402-480-7070", "website": "http://lincolnsportschiropractic.com/", "rating": 5.0, "reviews": 97, "place_id": "ChIJtQSK3m-XlocRNQHCTDmkWSw", "latitude": 40.736901, "longitude": -96.7047679, "care_type": "Chiropractor"}, {"name": "Johnson Chiropractic & Acupuncture", "address": "5251 R St STE 4, Lincoln, NE 68504", "city": "Lincoln", "phone": "+1 402-464-0444", "website": "https://www.drjkj.com/", "rating": 4.8, "reviews": 45, "place_id": "ChIJ22RZRze8locR7svGpByvSEE", "latitude": 40.8167045, "longitude": -96.64680419999999, "care_type": "Chiropractor"}, {"name": "Larson Chiropractic & Acupuncture, PC", "address": "3855 Village Dr Ste 200, Lincoln, NE 68516", "city": "Lincoln", "phone": "+1 402-421-1626", "website": "https://www.larsonchiro.com/%3FUTM_source%3DGMB_listing%26UTM_medium%3Dorganic", "rating": 5.0, "reviews": 126, "place_id": "ChIJ9TZKOhCWlocRfS7epUuCE8Y", "latitude": 40.7534109, "longitude": -96.6649226, "care_type": "Chiropractor"}, {"name": "Dr. Shane Davidson", "address": "8601 S 30th St #108, Lincoln, NE 68516", "city": "Lincoln", "phone": "+1 402-817-7373", "website": "", "rating": 5.0, "reviews": 27, "place_id": "ChIJB4c8tMyVlocRfSM5qHaKEj4", "latitude": 40.7255545, "longitude": -96.6787459, "care_type": "Chiropractor"}, {"name": "Freeman Chiropractic Center", "address": "2640 E St, Lincoln, NE 68510", "city": "Lincoln", "phone": "+1 402-475-2083", "website": "https://freemanchiroclinic.net/home.html", "rating": 4.5, "reviews": 21, "place_id": "ChIJ23tRUmC-locR2crAmBY8BBM", "latitude": 40.803802, "longitude": -96.6827125, "care_type": "Chiropractor"}, {"name": "Dr. Scott Donkin, D.C.", "address": "5540 South St #200, Lincoln, NE 68506", "city": "Lincoln", "phone": "+1 402-488-1500", "website": "http://donkinchiropractic.com/", "rating": 4.9, "reviews": 39, "place_id": "ChIJJ_l428C9locR3Sg-fZiW4wY", "latitude": 40.7919365, "longitude": -96.6446538, "care_type": "Chiropractor"}, {"name": "Care In Chiropractic", "address": "421 S 9th St, Lincoln, NE 68508", "city": "Lincoln", "phone": "+1 402-475-2273", "website": "http://careinchiropractic.com/", "rating": 5.0, "reviews": 17, "place_id": "ChIJ70AZMgK_locRkARnefChZBA", "latitude": 40.8099507, "longitude": -96.70896069999999, "care_type": "Chiropractor"}, {"name": "The Hive Wellness Center", "address": "1001 S 70th St # 107, Lincoln, NE 68510", "city": "Lincoln", "phone": "+1 402-442-0333", "website": "http://hydefamilychiropractic.com/", "rating": 5.0, "reviews": 37, "place_id": "ChIJmQp5CMy9locRyW1TKv-6kWU", "latitude": 40.8029439, "longitude": -96.626335, "care_type": "Chiropractor"}, {"name": "Heiss Chiropractic", "address": "5455 Red Rock Ln Ste 17, Lincoln, NE 68516", "city": "Lincoln", "phone": "+1 402-420-1717", "website": "http://www.heisschiro.com/", "rating": 4.9, "reviews": 59, "place_id": "ChIJNfmn_kKWlocRZ-f3U8afiOA", "latitude": 40.737325, "longitude": -96.6456008, "care_type": "Chiropractor"}, {"name": "Stubbs Chiropractic: Dr. Dana Stubbs", "address": "355 S 53rd St, Lincoln, NE 68510", "city": "Lincoln", "phone": "+1 402-476-0638", "website": "https://scheduling.drstubbschiro.com/", "rating": 5.0, "reviews": 26, "place_id": "ChIJSUsoPcSXlocRrFtJUrJvf88", "latitude": 40.810038, "longitude": -96.6479742, "care_type": "Chiropractor"}, {"name": "Champion Family Chiropractic", "address": "2935 Pine Lake Rd STE C, Lincoln, NE 68516", "city": "Lincoln", "phone": "+1 402-423-4422", "website": "https://www.championchirolincoln.com/", "rating": 5.0, "reviews": 35, "place_id": "ChIJX6pHVYSVlocRWle6P5Wnfts", "latitude": 40.7399647, "longitude": -96.6769686, "care_type": "Chiropractor"}, {"name": "Advanced Chiropractic Solutions", "address": "6205 Havelock Ave, Lincoln, NE 68507", "city": "Lincoln", "phone": "+1 402-786-0257", "website": "https://northacs.com/", "rating": 5.0, "reviews": 56, "place_id": "ChIJLxnBXAO7locRXFxkaKZP6lM", "latitude": 40.8567747, "longitude": -96.6355536, "care_type": "Chiropractor"}, {"name": "New Life Chiropractic, LLC (Located inside Van Engen Chiropractic)", "address": "7441 O St #200, Lincoln, NE 68510", "city": "Lincoln", "phone": "+1 402-486-3858", "website": "http://www.newlifechiro-lincoln.com/", "rating": 5.0, "reviews": 35, "place_id": "ChIJ29Es4f68locR_tjAETiZQss", "latitude": 40.81222289999999, "longitude": -96.61780279999999, "care_type": "Chiropractor"}, {"name": "Abundant Life Family Chiropractic", "address": "3435 S 46th St, Lincoln, NE 68506", "city": "Lincoln", "phone": "+1 402-314-4485", "website": "", "rating": 5.0, "reviews": 10, "place_id": "ChIJy8NKOvq9locRPCQ9vfl69Ng", "latitude": 40.7782233, "longitude": -96.6570055, "care_type": "Chiropractor"}, {"name": "Lincoln Wellness Center - Dr. Stan Schulte", "address": "1777 N 86th St STE 102, Lincoln, NE 68505", "city": "Lincoln", "phone": "+1 402-420-0024", "website": "https://www.drstanschulte.com/", "rating": 5.0, "reviews": 134, "place_id": "ChIJVd0OVZO8locRM7LmR5vj4o8", "latitude": 40.8305388, "longitude": -96.60500789999999, "care_type": "Chiropractor"}, {"name": "In-Line Chiropractic, LLC", "address": "3601 Calvert St Suite 10, Lincoln, NE 68506", "city": "Lincoln", "phone": "+1 402-540-2387", "website": "https://inlinechiropracticllc.com/", "rating": 5.0, "reviews": 11, "place_id": "ChIJ82loDi2XlocR0hdrW-t6cBA", "latitude": 40.7765874, "longitude": -96.6685423, "care_type": "Chiropractor"}, {"name": "Kenneth L. Love, DC", "address": "801 S 48th St, Lincoln, NE 68510", "city": "Lincoln", "phone": "+1 402-484-5353", "website": "https://www.lovechiropractic.net/", "rating": 5.0, "reviews": 1, "place_id": "ChIJFWk4l9K9locRwNJ4Le-xLBk", "latitude": 40.8058688, "longitude": -96.65406999999999, "care_type": "Chiropractor"}, {"name": "Dr. Joni Smith", "address": "4141 Pioneer Woods Dr #116, Lincoln, NE 68506", "city": "Lincoln", "phone": "+1 402-420-0440", "website": "https://www.activelifefamilychiropractic.com/us/", "rating": 5.0, "reviews": 1, "place_id": "ChIJU3SN44C9locRo4SZNh9w6g0", "latitude": 40.7710106, "longitude": -96.62464059999999, "care_type": "Chiropractor"}, {"name": "Volin Chiropractic Clinic", "address": "1645, 201 Capitol Beach Blvd #8, Lincoln, NE 68528", "city": "Lincoln", "phone": "+1 402-435-1773", "website": "https://volinchiropractic.wordpress.com/", "rating": 5.0, "reviews": 24, "place_id": "ChIJZ0eAA2W_locRY6-YZHvBxyk", "latitude": 40.8143995, "longitude": -96.7400816, "care_type": "Chiropractor"}, {"name": "Aspire Wellness: Chiropractic and Functional Nutrition", "address": "3900 Yankee Hill Rd Suite #103, Lincoln, NE 68516", "city": "Lincoln", "phone": "+1 402-230-5586", "website": "https://aspirecfn.com/", "rating": 5.0, "reviews": 20, "place_id": "ChIJPyw4RDMKR24RF3q7UnJBwpM", "latitude": 40.7270629, "longitude": -96.6647347, "care_type": "Chiropractor"}, {"name": "SoftWave Therapy Lincoln", "address": "5455 Red Rock Ln Ste 17, Lincoln, NE 68516", "city": "Lincoln", "phone": "+1 402-420-1717", "website": "http://www.softwavelincoln.com/", "rating": 5.0, "reviews": 4, "place_id": "ChIJ-7_PRXWXlocR1UTDbPopAg0", "latitude": 40.737577, "longitude": -96.645814, "care_type": "Chiropractor"}, {"name": "Dr. Nicholas Zeplin DC", "address": "8601 S 30th St #108, Lincoln, NE 68516", "city": "Lincoln", "phone": "+1 402-858-2279", "website": "", "rating": 5.0, "reviews": 19, "place_id": "ChIJhUBrS7WVlocR9XcF9IEZ2Wc", "latitude": 40.7255545, "longitude": -96.6787459, "care_type": "Chiropractor"}, {"name": "Healing Hands Chiropractic", "address": "5925 N 28th St #100, Lincoln, NE 68504", "city": "Lincoln", "phone": "+1 402-441-4160", "website": "", "rating": 4.0, "reviews": 8, "place_id": "ChIJE4JP1m25locRVjjkBK8U6JU", "latitude": 40.8740933, "longitude": -96.68014339999999, "care_type": "Chiropractor"}, {"name": "Teresa Larson", "address": "1501 Pine Lake Rd # 2, Lincoln, NE 68512", "city": "Lincoln", "phone": "+1 402-421-8284", "website": "https://www.swchiropracticcenter.com/us/", "rating": 5.0, "reviews": 1, "place_id": "ChIJAQDAPKSVlocRONFHXlDj7Eo", "latitude": 40.7376674, "longitude": -96.7004903, "care_type": "Chiropractor"}, {"name": "Active ChiroCare", "address": "4130 Pioneer Woods Dr #3, Lincoln, NE 68506", "city": "Lincoln", "phone": "+1 402-261-6841", "website": "", "rating": 4.9, "reviews": 19, "place_id": "ChIJzWoxA-WVlocR_yWZLVFomoQ", "latitude": 40.7710591, "longitude": -96.6212774, "care_type": "Chiropractor"}, {"name": "Patestas Family Chiropractic", "address": "5600 S 48th St, Lincoln, NE 68516", "city": "Lincoln", "phone": "+1 402-421-1180", "website": "", "rating": 5.0, "reviews": 6, "place_id": "ChIJBera-yeXlocRi-AnOuWw1AA", "latitude": 40.75645799999999, "longitude": -96.65319579999999, "care_type": "Chiropractor"}, {"name": "Dr. Brittney Keller", "address": "2917 Pine Lake Rd Suite F, Lincoln, NE 68516", "city": "Lincoln", "phone": "+1 402-328-2660", "website": "", "rating": 5.0, "reviews": 1, "place_id": "ChIJ7XJSe8SVlocRW5Rs83mmgfA", "latitude": 40.7398792, "longitude": -96.6775512, "care_type": "Chiropractor"}, {"name": "Dr. Justin Steinhauser", "address": "5550 S 59th St, Lincoln, NE 68516", "city": "Lincoln", "phone": "+1 402-420-2872", "website": "https://lincolnchiropracticwellness.com/dr-justin-m-steinhauser/", "rating": 5.0, "reviews": 1, "place_id": "ChIJ___vID2WlocRSb47223OU38", "latitude": 40.7567406, "longitude": -96.6398863, "care_type": "Chiropractor"}, {"name": "Ryan T. Bauer, DC", "address": "3201 Pioneers Blvd #32, Lincoln, NE 68502", "city": "Lincoln", "phone": "+1 402-484-8500", "website": "", "rating": 5.0, "reviews": 2, "place_id": "ChIJOy8hNwO-locRII_43qkutvU", "latitude": 40.769452, "longitude": -96.673991, "care_type": "Chiropractor"}, {"name": "Dr. Peter Wawers", "address": "3830 Adams St, Lincoln, NE 68504", "city": "Lincoln", "phone": "+1 402-464-5567", "website": "https://lincolnchiropracticcenter.com/", "rating": 5.0, "reviews": 4, "place_id": "ChIJc2LvNKq-locRZtfXrn-wrSo", "latitude": 40.8430293, "longitude": -96.6663511, "care_type": "Chiropractor"}, {"name": "Isaac O'Gara Chiropractic", "address": "3400 Plantation Dr Ste 100, Lincoln, NE 68516", "city": "Lincoln", "phone": "+1 402-954-5306", "website": "https://revivechirone.com/", "rating": 5.0, "reviews": 5, "place_id": "ChIJc_AF3C-9locRj3EJYDmN0MU", "latitude": 40.7530208, "longitude": -96.6700535, "care_type": "Chiropractor"}, {"name": "Havelock Chiropractic: David W. Lauer, D.C.", "address": "6132 Havelock Ave # 1, Lincoln, NE 68507", "city": "Lincoln", "phone": "+1 402-467-5143", "website": "http://havelockchiro.com/", "rating": 4.3, "reviews": 7, "place_id": "ChIJj4NYbo67locRUOHL8v7Ldi4", "latitude": 40.85716499999999, "longitude": -96.636252, "care_type": "Chiropractor"}, {"name": "Heather Elton, DC", "address": "8421 Amber Hill Ct Ste 2, Lincoln, NE 68526", "city": "Lincoln", "phone": "+1 402-489-8880", "website": "http://www.movementintegrativewellness.com/", "rating": 5.0, "reviews": 1, "place_id": "ChIJ4eAkBd-XlocRJztSl1YumnY", "latitude": 40.7331445, "longitude": -96.6050157, "care_type": "Chiropractor"}, {"name": "Lori A. Elliott, DC", "address": "5955 S 56th St #7, Lincoln, NE 68516", "city": "Lincoln", "phone": "+1 402-489-9899", "website": "", "rating": 5.0, "reviews": 25, "place_id": "ChIJaZCe6cq9locRWxb7RhjbmuY", "latitude": 40.7517776, "longitude": -96.6447906, "care_type": "Chiropractor"}, {"name": "Donkin Chiropractic", "address": "5540 South St #200, Lincoln, NE 68506", "city": "Lincoln", "phone": "+1 402-488-1500", "website": "https://donkinchiropractic.com/contact/", "rating": 5.0, "reviews": 9, "place_id": "ChIJOW3beVW9locRZT-dlPGDIDE", "latitude": 40.79192949999999, "longitude": -96.644652, "care_type": "Chiropractor"}, {"name": "NuSpine Chiropractic", "address": "3245 Pioneers Blvd Ste. 200, Lincoln, NE 68502", "city": "Lincoln", "phone": "+1 402-261-6721", "website": "https://www.nuspine.com/locations/nebraska/lincoln/chiropractor-68502/%3Futm_source%3Dgmb%26utm_medium%3Dmaps%26utm_campaign%3Donline", "rating": 4.6, "reviews": 103, "place_id": "ChIJdUKZPwO-locRmKKFhLJfdL0", "latitude": 40.7696074, "longitude": -96.6733138, "care_type": "Chiropractor"}, {"name": "Dr. Ben Buettenback", "address": "4811 NW 1st St #5, Lincoln, NE 68521", "city": "Lincoln", "phone": "+1 402-476-8483", "website": "https://www.buettenbackchiro.com/", "rating": 5.0, "reviews": 1, "place_id": "ChIJ__8vnsG4locRqfdK852o-dA", "latitude": 40.8613309, "longitude": -96.72376969999999, "care_type": "Chiropractor"}, {"name": "Auman Chiropractic & Rehab", "address": "4630 Antelope Creek Rd #155, Lincoln, NE 68506", "city": "Lincoln", "phone": "+1 402-484-7300", "website": "https://www.aumanchiropractic.com/%3Futm_source%3Dgoogle%26utm_medium%3Dorganic%26utm_campaign%3Dgbp_listing", "rating": 5.0, "reviews": 11, "place_id": "ChIJc8UIj-28locRY9KIOf9Dbwc", "latitude": 40.7872898, "longitude": -96.6553347, "care_type": "Chiropractor"}, {"name": "The Body Lab", "address": "1415 Dahlberg Dr Suite A, Lincoln, NE 68512", "city": "Lincoln", "phone": "+1 531-510-0726", "website": "http://thebodylablnk.com/", "rating": 5.0, "reviews": 339, "place_id": "ChIJG-92f5aVlocRBKpVmuX46wA", "latitude": 40.7288265, "longitude": -96.70076279999999, "care_type": "Chiropractor"}, {"name": "Restore Health", "address": "4107 Pioneer Woods Dr #111, Lincoln, NE 68506", "city": "Lincoln", "phone": "+1 402-904-8343", "website": "http://restorehealthnebraska.com/", "rating": 5.0, "reviews": 4, "place_id": "ChIJ11J_H4C9locRuuB96TacsW0", "latitude": 40.7714708, "longitude": -96.6231016, "care_type": "Chiropractor"}, {"name": "Cooksley Family Chiropractic & Wellness", "address": "8300 Old Cheney Rd Suite B, Lincoln, NE 68516", "city": "Lincoln", "phone": "+1 402-483-4646", "website": "", "rating": 5.0, "reviews": 24, "place_id": "ChIJEwfS13-9locRXmvt8UMY-kw", "latitude": 40.7560462, "longitude": -96.60722349999999, "care_type": "Chiropractor"}, {"name": "Freedom Chiropractic", "address": "5955 S 56th St #7, Lincoln, NE 68516", "city": "Lincoln", "phone": "+1 402-488-8801", "website": "", "rating": 5.0, "reviews": 6, "place_id": "ChIJaZCe6cq9locRwC3Ux3hN5XE", "latitude": 40.7517529, "longitude": -96.64491199999999, "care_type": "Chiropractor"}, {"name": "Prairie Wellness Collective", "address": "1919 S 40th St STE 320, Lincoln, NE 68506", "city": "Lincoln", "phone": "+1 531-254-5410", "website": "http://www.prairiewellnesscollective.com/", "rating": 5.0, "reviews": 33, "place_id": "ChIJ40OJfYm_locRNRmIVitUkH8", "latitude": 40.792739, "longitude": -96.6638691, "care_type": "Chiropractor"}, {"name": "Mackenzie Hyde", "address": "8215 Northwoods Dr STE 200, Lincoln, NE 685053009", "city": "Lincoln", "phone": "+1 402-442-0333", "website": "https://www.hydefamilychiropractic.com/meetthedoctor", "rating": 5.0, "reviews": 1, "place_id": "ChIJhb5Qj-28locR1xpzyxzWL0o", "latitude": 40.826925, "longitude": -96.6100063, "care_type": "Chiropractor"}, {"name": "Ryan J. Tarnick, DC", "address": "6016 S 87th St, Lincoln, NE 68526", "city": "Lincoln", "phone": "+1 402-483-2900", "website": "https://tarnickchiropracticandacupuncture.com/", "rating": 5.0, "reviews": 3, "place_id": "ChIJnaw9csSXlocRdN-deAx6uDQ", "latitude": 40.7512765, "longitude": -96.6022205, "care_type": "Chiropractor"}, {"name": "Bradlee N. Novotny, DC", "address": "4401 N 7th St, Lincoln, NE 68521", "city": "Lincoln", "phone": "+1 402-476-8619", "website": "http://belmontchiropractic.com/", "rating": 5.0, "reviews": 2, "place_id": "ChIJfeGqfNO-locRqI9MR1xI1rg", "latitude": 40.8551823, "longitude": -96.7110012, "care_type": "Chiropractor"}, {"name": "Shelby Lafler DC", "address": "4645 Normal Blvd STE 200, Lincoln, NE 68506", "city": "Lincoln", "phone": "+1 402-483-6633", "website": "https://mtchiro.net/", "rating": 5.0, "reviews": 5, "place_id": "ChIJAX7nDXS9locR9VgpgErWsYs", "latitude": 40.7882557, "longitude": -96.6563529, "care_type": "Chiropractor"}, {"name": "Dr. Maly of MTchiro", "address": "4645 Normal Blvd STE 200, Lincoln, NE 68506", "city": "Lincoln", "phone": "+1 402-483-6633", "website": "http://www.mtchiro.net/", "rating": 5.0, "reviews": 1, "place_id": "ChIJn5WblN29locRQdqiuEyY17U", "latitude": 40.7884594, "longitude": -96.6561285, "care_type": "Chiropractor"}, {"name": "Shull Chiropractic Clinic", "address": "2923 O St, Lincoln, NE 68510", "city": "Lincoln", "phone": "+1 402-476-8661", "website": "", "rating": 4.6, "reviews": 10, "place_id": "ChIJGRv_i46-locRaK7jsDTAnmU", "latitude": 40.81323099999999, "longitude": -96.6789075, "care_type": "Chiropractor"}, {"name": "Belmont Chiropractic Spinal", "address": "Lincoln, NE 68508", "city": "Lincoln", "phone": "+1 402-476-7246", "website": "", "rating": 5.0, "reviews": 1, "place_id": "ChIJq6qqqga_locR7bIPpjDLg4A", "latitude": 40.8298688, "longitude": -96.7012424, "care_type": "Chiropractor"}, {"name": "Ronald A. Volin, DC", "address": "201 Capitol Beach Blvd, Lincoln, NE 68528", "city": "Lincoln", "phone": "+1 402-435-1773", "website": "", "rating": 5.0, "reviews": 2, "place_id": "ChIJZ0eAA2W_locROgIz67248T0", "latitude": 40.8147464, "longitude": -96.7403885, "care_type": "Chiropractor"}, {"name": "ATLAS Rehab - Strength - Performance", "address": "333 Speedway Cir, Lincoln, NE 68502", "city": "Lincoln", "phone": "+1 402-799-1834", "website": "http://atlasrsp.com/", "rating": 5.0, "reviews": 5, "place_id": "ChIJpTITXZmXlocRopi5SEawwFY", "latitude": 40.7837409, "longitude": -96.71586959999999, "care_type": "Chiropractor"}, {"name": "Denison Salisbury", "address": "3121 S 11th St, Lincoln, NE 68502", "city": "Lincoln", "phone": "+1 402-328-0028", "website": "", "rating": 5.0, "reviews": 2, "place_id": "ChIJq6oa1zS-locRijT6PgeuGpo", "latitude": 40.7815191, "longitude": -96.7060509, "care_type": "Chiropractor"}, {"name": "Cherry Hill Chiropractic Center", "address": "3830 Adams St, Lincoln, NE 68504", "city": "Lincoln", "phone": "+1 402-483-7646", "website": "", "rating": 5.0, "reviews": 2, "place_id": "ChIJwYogReK8locRSBa1-9vBfr4", "latitude": 40.8430303, "longitude": -96.6663511, "care_type": "Chiropractor"}, {"name": "Andrew Butzke", "address": "4130 Pioneer Woods Dr #3, Lincoln, NE 68506", "city": "Lincoln", "phone": "+1 402-261-6841", "website": "https://spineandsports.us/dr-andrew-c-butzke/", "rating": 5.0, "reviews": 1, "place_id": "ChIJAQDwKIC9locR8u4zcBnwRrw", "latitude": 40.7709926, "longitude": -96.6212116, "care_type": "Chiropractor"}, {"name": "Premer Health & Performance | Dr. Taylor Premer", "address": "3400 Plantation Dr Ste 100, Lincoln, NE 68516", "city": "Lincoln", "phone": "+1 402-413-1979", "website": "https://premerhealth.com/", "rating": 5.0, "reviews": 10, "place_id": "ChIJP3TqoJWVlocRVH0UtVBLTI0", "latitude": 40.7530208, "longitude": -96.6700535, "care_type": "Chiropractor"}, {"name": "Corey L. Dousharm DC", "address": "4645 Normal Blvd STE 200, Lincoln, NE 68506", "city": "Lincoln", "phone": "+1 402-483-6633", "website": "", "rating": 5.0, "reviews": 1, "place_id": "ChIJy4EEm929locRy7SlK8GyCmI", "latitude": 40.788269, "longitude": -96.656352, "care_type": "Chiropractor"}, {"name": "Healthy Start Chiropractic, Performance & Fitness", "address": "5710 S 53rd St, Lincoln, NE 68516", "city": "Lincoln", "phone": "+1 402-423-4325", "website": "http://healthystartchiro.com/", "rating": 5.0, "reviews": 39, "place_id": "ChIJZ8zaj2iWlocRcR2a7TYtMK8", "latitude": 40.7548441, "longitude": -96.6468299, "care_type": "Chiropractor"}, {"name": "Eric L Timperley D.C.", "address": "4645 Normal Blvd STE 200, Lincoln, NE 68506", "city": "Lincoln", "phone": "+1 402-483-6633", "website": "http://mtchiro.net/", "rating": 5.0, "reviews": 4, "place_id": "ChIJy4EEm929locRXuLduFjgke0", "latitude": 40.788269, "longitude": -96.656352, "care_type": "Chiropractor"}, {"name": "Dr. Jeffrey Freeman", "address": "2640 E St, Lincoln, NE 68510", "city": "Lincoln", "phone": "+1 402-475-0283", "website": "", "rating": 5.0, "reviews": 1, "place_id": "ChIJK8FdUmC-locRF05Lcdu-CxM", "latitude": 40.8037759, "longitude": -96.682717, "care_type": "Chiropractor"}, {"name": "Tanner Burt DC", "address": "7111 A St #100, Lincoln, NE 68510", "city": "Lincoln", "phone": "+1 402-489-0777", "website": "", "rating": null, "reviews": 0, "place_id": "ChIJ3xhnHye9locRU7SbiRymeQQ", "latitude": 40.798378, "longitude": -96.62272399999999, "care_type": "Chiropractor"}, {"name": "Resonate Wellness LLC", "address": "5611 NW 1st St #102, Lincoln, NE 68521", "city": "Lincoln", "phone": "+1 402-915-3983", "website": "https://www.resonatewellnessne.com/", "rating": null, "reviews": 0, "place_id": "ChIJd95CMRS5locRSZA1yYFWhn4", "latitude": 40.8668015, "longitude": -96.72337689999999, "care_type": "Chiropractor"}, {"name": "Dr. Austin R. Weaver", "address": "1600 S 70th St #201, Lincoln, NE 68506", "city": "Lincoln", "phone": "+1 402-483-4409", "website": "https://drweaverchiropractic.com/", "rating": null, "reviews": 0, "place_id": "ChIJnxYwDJy9locRtyQbGuJwG-0", "latitude": 40.7960517, "longitude": -96.6247001, "care_type": "Chiropractor"}, {"name": "Complete health chiropractor", "address": "4645 Normal Blvd, Lincoln, NE 68506", "city": "Lincoln", "phone": "", "website": "", "rating": null, "reviews": 0, "place_id": "ChIJNRSpPQC9locRx1ENfnOO4LQ", "latitude": 40.7881347, "longitude": -96.6563731, "care_type": "Chiropractor"}, {"name": "Hoogeveen Chiropractic Wellness Center", "address": "1301 Fort Crook Rd S, Bellevue, NE 68005", "city": "Bellevue", "phone": "+1 402-291-2580", "website": "https://www.hoogeveenchiropractic.com/", "rating": 4.9, "reviews": 329, "place_id": "ChIJb9H-AUOIk4cRryC4wMM85bI", "latitude": 41.1471422, "longitude": -95.92663209999999, "care_type": "Chiropractor"}, {"name": "Nebraska Integrated Health - Bellevue West (Formerly Akridge & Akridge Chiropractic)", "address": "3811 Twin Creek Dr #102, Bellevue, NE 68123", "city": "Bellevue", "phone": "+1 402-884-4774", "website": "https://www.nebraskaintegratedhealth.com/", "rating": 4.9, "reviews": 209, "place_id": "ChIJQQMZi-6Jk4cRLQX0urOUD2w", "latitude": 41.1406831, "longitude": -95.9707854, "care_type": "Chiropractor"}, {"name": "Behm Muscle & Joint Clinic", "address": "3503 Samson Way #117, Bellevue, NE 68123", "city": "Bellevue", "phone": "+1 402-292-1450", "website": "https://www.behmmjc.com/", "rating": 5.0, "reviews": 205, "place_id": "ChIJjeqUaemJk4cR7IUcDXgfX4s", "latitude": 41.1410313, "longitude": -95.9661114, "care_type": "Chiropractor"}, {"name": "Heartland Chiropractic Clinic", "address": "2418 Cornhusker Rd, Bellevue, NE 68123", "city": "Bellevue", "phone": "+1 402-291-2121", "website": "http://www.heartlandchiro.com/about-us/", "rating": 4.9, "reviews": 12, "place_id": "ChIJ-Ybbdq6Jk4cRYkRgvDf-fz0", "latitude": 41.1600648, "longitude": -95.94674119999999, "care_type": "Chiropractor"}, {"name": "Smith Thomas L DC", "address": "2418 Cornhusker Rd, Bellevue, NE 68123", "city": "Bellevue", "phone": "+1 402-291-2121", "website": "http://www.heartlandchiro.com/", "rating": 5.0, "reviews": 12, "place_id": "ChIJ-Ybbdq6Jk4cRd1hllRoO6kc", "latitude": 41.1600447, "longitude": -95.94675989999999, "care_type": "Chiropractor"}, {"name": "Niemeyer Family Chiropractic", "address": "2211 Capehart Rd Ste 102, Bellevue, NE 68123", "city": "Bellevue", "phone": "+1 402-590-2199", "website": "http://bellevuefamilychiro.com/", "rating": 5.0, "reviews": 37, "place_id": "ChIJUSXojy12lIcRYmxlVKgH8xY", "latitude": 41.1176767, "longitude": -95.9445484, "care_type": "Chiropractor"}, {"name": "Hoogeveen Adam J DC", "address": "1301 Fort Crook Rd S, Bellevue, NE 68005", "city": "Bellevue", "phone": "+1 402-291-2580", "website": "http://www.hoogeveenchiropractic.com/", "rating": 5.0, "reviews": 1, "place_id": "ChIJSRLkjjiIk4cRKlWAg_fSvDU", "latitude": 41.1471445, "longitude": -95.9266433, "care_type": "Chiropractor"}, {"name": "Bessmer Chiropractic PC", "address": "11525 S 36th St, Bellevue, NE 68123", "city": "Bellevue", "phone": "+1 402-292-1337", "website": "https://www.bessmerchiropractic.com/", "rating": 4.9, "reviews": 30, "place_id": "ChIJA5EHtuiJk4cRbvKY_iHneOQ", "latitude": 41.13786899999999, "longitude": -95.966946, "care_type": "Chiropractor"}, {"name": "Dr. Todd Niemeyer", "address": "2211 Capehart Rd Ste 102, Bellevue, NE 68123", "city": "Bellevue", "phone": "+1 402-590-2199", "website": "https://bellevuefamilychiro.com/", "rating": 5.0, "reviews": 3, "place_id": "ChIJYWkadjJ2lIcROuxY2CZeEjA", "latitude": 41.1176767, "longitude": -95.9445484, "care_type": "Chiropractor"}, {"name": "Dr. Gregory Hoogeveen", "address": "1301 Fort Crook Rd S, Bellevue, NE 68005", "city": "Bellevue", "phone": "+1 402-291-2580", "website": "", "rating": 5.0, "reviews": 1, "place_id": "ChIJcwt86TiIk4cRGz7xxLDZTsU", "latitude": 41.1471422, "longitude": -95.92663209999999, "care_type": "Chiropractor"}, {"name": "Adam Behm", "address": "3503 Samson Way #117, Bellevue, NE 68123", "city": "Bellevue", "phone": "+1 402-292-1450", "website": "https://www.behmmjc.com/", "rating": 5.0, "reviews": 2, "place_id": "ChIJdddBXemJk4cRWn669tuZAY0", "latitude": 41.1413972, "longitude": -95.96619899999999, "care_type": "Chiropractor"}, {"name": "Dr. Thomas Smith", "address": "2418 Cornhusker Rd, Bellevue, NE 68123", "city": "Bellevue", "phone": "+1 402-291-2121", "website": "", "rating": 5.0, "reviews": 1, "place_id": "ChIJq6pWfK6Jk4cR9DKh7uiFoj0", "latitude": 41.16005, "longitude": -95.94673, "care_type": "Chiropractor"}, {"name": "Fremont Chiropractic Clinic", "address": "1920 N Bell St, Fremont, NE 68025", "city": "Fremont", "phone": "+1 402-727-7219", "website": "https://fremontchiropracticne.com/", "rating": 5.0, "reviews": 30, "place_id": "ChIJI22PMNNgkYcR2nqH-j9SwHc", "latitude": 41.4476667, "longitude": -96.4831736, "care_type": "Chiropractor"}, {"name": "Stinnette Chiropractic", "address": "2155 E 23rd St Suite A, Fremont, NE 68025", "city": "Fremont", "phone": "+1 402-721-0336", "website": "https://www.stinnettechiropractic.com/", "rating": 4.9, "reviews": 81, "place_id": "ChIJfbDDk-dgkYcRYaUgPUZU_io", "latitude": 41.4503105, "longitude": -96.4686423, "care_type": "Chiropractor"}, {"name": "Schollmeyer Family Chiropractic", "address": "2415 E 23rd Ave S Suite 200, Fremont, NE 68025", "city": "Fremont", "phone": "+1 402-721-5500", "website": "https://www.schollmeyerchiro.com/", "rating": 4.9, "reviews": 101, "place_id": "ChIJWxV26c9gkYcRnvCHSKazxLc", "latitude": 41.4508138, "longitude": -96.4664641, "care_type": "Chiropractor"}, {"name": "Dalton Chiropractic", "address": "2127 E 23rd Ave S, Fremont, NE 68025", "city": "Fremont", "phone": "+1 402-727-1677", "website": "https://www.daltonchiro.com/", "rating": 4.8, "reviews": 48, "place_id": "ChIJLW3jkedgkYcRYupAMBZebCE", "latitude": 41.4503506, "longitude": -96.4692761, "care_type": "Chiropractor"}, {"name": "Brainard Chiropractic", "address": "1410 N Bell St, Fremont, NE 68025", "city": "Fremont", "phone": "+1 402-727-8668", "website": "https://www.brainardchiropractic.com/", "rating": 5.0, "reviews": 20, "place_id": "ChIJ5zlavshgkYcR8cmKUYRy8C8", "latitude": 41.442618, "longitude": -96.483162, "care_type": "Chiropractor"}, {"name": "Duncan Chiropractic Health Center LLC", "address": "215 E 22nd St, Fremont, NE 68025", "city": "Fremont", "phone": "+1 402-721-6372", "website": "http://www.duncanchiro.com/", "rating": 4.9, "reviews": 152, "place_id": "ChIJ57uxb0tnkYcRNOcd1eJonGQ", "latitude": 41.4502356, "longitude": -96.4946875, "care_type": "Chiropractor"}, {"name": "Heartland Chiropractic Clinic", "address": "1715 N Bell St, Fremont, NE 68025", "city": "Fremont", "phone": "+1 402-721-1060", "website": "https://www.heartlandchiropracticfremont.com/", "rating": 5.0, "reviews": 28, "place_id": "ChIJx8-IAt1gkYcRAfT69Kj-iJE", "latitude": 41.44571639999999, "longitude": -96.4836922, "care_type": "Chiropractor"}, {"name": "Kate Z Duncan, DC", "address": "215 E 22nd St, Fremont, NE 68025", "city": "Fremont", "phone": "+1 402-721-6372", "website": "http://www.duncanchiro.com/", "rating": 4.6, "reviews": 9, "place_id": "ChIJ57uxb0tnkYcRUXpXX_KtwPU", "latitude": 41.4502356, "longitude": -96.4946875, "care_type": "Chiropractor"}, {"name": "Luke Eikmeier", "address": "1920 N Bell St, Fremont, NE 68025", "city": "Fremont", "phone": "+1 402-727-7219", "website": "https://fremontchiropracticne.com/meet-the-doctor", "rating": 5.0, "reviews": 1, "place_id": "ChIJ_W2PWc9gkYcR3930_7fpPZQ", "latitude": 41.4476667, "longitude": -96.4831736, "care_type": "Chiropractor"}, {"name": "Franzluebbers Jerusha A DC", "address": "1152 E 16th St Suite 2, Fremont, NE 68025", "city": "Fremont", "phone": "+1 402-727-7219", "website": "http://www.fremontchiropracticne.com/", "rating": 5.0, "reviews": 1, "place_id": "ChIJVRPjkedgkYcRxJUPjkCZT-Y", "latitude": 41.444449, "longitude": -96.4826226, "care_type": "Chiropractor"}, {"name": "Randy J. Camenzind, DC", "address": "1715 N Bell St, Fremont, NE 68025", "city": "Fremont", "phone": "+1 402-721-1060", "website": "", "rating": 5.0, "reviews": 1, "place_id": "ChIJx8-IAt1gkYcRylHzTuTqFbk", "latitude": 41.44571639999999, "longitude": -96.4836922, "care_type": "Chiropractor"}, {"name": "Mahnke Chiropractic Center", "address": "748 E Military Ave, Fremont, NE 68025", "city": "Fremont", "phone": "+1 402-721-2818", "website": "", "rating": null, "reviews": 0, "place_id": "ChIJJ9o2N7RgkYcRtYAi02qXvcc", "latitude": 41.4356403, "longitude": -96.4886405, "care_type": "Chiropractor"}, {"name": "Troy G. Brainard, DC", "address": "1410 N Bell St, Fremont, NE 68025", "city": "Fremont", "phone": "+1 402-727-8668", "website": "", "rating": null, "reviews": 0, "place_id": "ChIJIzdavshgkYcRXc0nJ0-kC7s", "latitude": 41.4426478, "longitude": -96.48304549999999, "care_type": "Chiropractor"}, {"name": "Scott Stinnette", "address": "2155 E 23rd Ave S A, Fremont, NE 68025", "city": "Fremont", "phone": "+1 402-721-0336", "website": "", "rating": null, "reviews": 0, "place_id": "ChIJwSMENeZgkYcRHnf0nir3alM", "latitude": 41.4505882, "longitude": -96.4688491, "care_type": "Chiropractor"}, {"name": "Hastings Family Chiropractic, P.C.", "address": "321 N Burlington Ave, Hastings, NE 68901", "city": "Hastings", "phone": "+1 402-204-4806", "website": "https://www.hastingsfamilychiropractic.com/", "rating": 4.9, "reviews": 107, "place_id": "ChIJHzrvv-OjmYcRPW8iMDvQzwc", "latitude": 40.5869053, "longitude": -98.392854, "care_type": "Chiropractor"}, {"name": "Midwest Spine & Function LLC", "address": "1113 Theatre Dr Ste. 104, Hastings, NE 68901", "city": "Hastings", "phone": "+1 402-303-8989", "website": "http://midwestspinene.com/", "rating": 5.0, "reviews": 24, "place_id": "ChIJpci51mKhmYcRleU8VCffxSs", "latitude": 40.5965177, "longitude": -98.4240694, "care_type": "Chiropractor"}, {"name": "Fisk Chiropractic Sports Care LLC", "address": "422 N Hastings Ave #201, Hastings, NE 68901", "city": "Hastings", "phone": "+1 402-834-0224", "website": "http://www.fiskchiropractic.com/", "rating": 5.0, "reviews": 28, "place_id": "ChIJgaaBs0yjmYcRYXxE23kmESA", "latitude": 40.5876218, "longitude": -98.38951399999999, "care_type": "Chiropractor"}, {"name": "Whole Healing Chiropractic & Acupuncture", "address": "223 E 14th St #9, Hastings, NE 68901", "city": "Hastings", "phone": "+1 402-469-2248", "website": "https://www.wholehealingchiroandacu.com/", "rating": 5.0, "reviews": 57, "place_id": "ChIJw25TBRyjmYcRO9kprXgmEzQ", "latitude": 40.6014905, "longitude": -98.378734, "care_type": "Chiropractor"}, {"name": "Murray Natural Integrated Health LLC", "address": "1934 W 2nd St, Hastings, NE 68901", "city": "Hastings", "phone": "+1 402-463-4257", "website": "https://murraynaturalhealth.com/", "rating": 4.9, "reviews": 264, "place_id": "ChIJIUBk60ShmYcRLQ7v8tVWY-8", "latitude": 40.5856353, "longitude": -98.41002309999999, "care_type": "Chiropractor"}, {"name": "Active Family Chiropractic & Acupuncture - Burlington", "address": "208 S Burlington Ave Suite #103A, Hastings, NE 68901", "city": "Hastings", "phone": "+1 402-249-5500", "website": "https://www.activefamily.health/", "rating": 4.9, "reviews": 279, "place_id": "ChIJNVg_-JmjmYcRt3ojk6wzJRo", "latitude": 40.5820467, "longitude": -98.3929824, "care_type": "Chiropractor"}, {"name": "Adams County Chiropractic", "address": "406 N Minnesota Ave, Hastings, NE 68901", "city": "Hastings", "phone": "+1 402-463-5111", "website": "https://www.adamscountychiropracticlinic.com/", "rating": 4.7, "reviews": 25, "place_id": "ChIJOfyVstqjmYcR48FXriBSeZQ", "latitude": 40.5871986, "longitude": -98.3829773, "care_type": "Chiropractor"}, {"name": "John A. Cerveny, DC", "address": "406 N Minnesota Ave, Hastings, NE 68901", "city": "Hastings", "phone": "+1 402-463-5111", "website": "", "rating": 5.0, "reviews": 1, "place_id": "ChIJOfyVstqjmYcR6kIycF7tp1g", "latitude": 40.58719869999999, "longitude": -98.3829773, "care_type": "Chiropractor"}, {"name": "Schuldt Chiropractic", "address": "2608 W 2nd St, Hastings, NE 68901", "city": "Hastings", "phone": "+1 402-461-3755", "website": "", "rating": null, "reviews": 0, "place_id": "ChIJIS7KpzihmYcRLv0cb6TdjRQ", "latitude": 40.5857408, "longitude": -98.4183752, "care_type": "Chiropractor"}, {"name": "Vernon Walden", "address": "114 University Ave, Hastings, NE 68901", "city": "Hastings", "phone": "", "website": "", "rating": null, "reviews": 0, "place_id": "ChIJS-rlbNKjmYcR-9dWAglT2W8", "latitude": 40.5913493, "longitude": -98.38163569999999, "care_type": "Chiropractor"}, {"name": "Schulz Scott L DC", "address": "235 N St Joseph Ave, Hastings, NE 68901", "city": "Hastings", "phone": "+1 402-463-3363", "website": "", "rating": null, "reviews": 0, "place_id": "ChIJC3QIYeOjmYcRI8HrjpFcHVI", "latitude": 40.5859366, "longitude": -98.38775249999999, "care_type": "Chiropractor"}, {"name": "Dr. Josh Grammer", "address": "208 S Burlington Ave Suite #103A, Hastings, NE 68901", "city": "Hastings", "phone": "+1 402-249-5500", "website": "", "rating": null, "reviews": 0, "place_id": "ChIJ__-vMjCimYcR0nCRZDS8wZ4", "latitude": 40.5820467, "longitude": -98.3929824, "care_type": "Chiropractor"}, {"name": "Michaelis Chiropractic Clinic", "address": "502 W 1st St, McCook, NE 69001", "city": "McCook", "phone": "+1 308-345-2000", "website": "http://michaelischiropractic.com/", "rating": 4.6, "reviews": 30, "place_id": "ChIJq2p6ZZmAdYcR7mYB9na3qH0", "latitude": 40.2018431, "longitude": -100.6274348, "care_type": "Chiropractor"}, {"name": "Hinze Chiropractic", "address": "306 W D St #101, McCook, NE 69001", "city": "McCook", "phone": "+1 308-345-8699", "website": "https://www.mccookchiropractic.com/about-us", "rating": 4.8, "reviews": 6, "place_id": "ChIJndmxKJqAdYcR66eGkIrOJns", "latitude": 40.2005801, "longitude": -100.6288257, "care_type": "Chiropractor"}, {"name": "Brian P. Michaelis, DC", "address": "502 W 1st St, McCook, NE 69001", "city": "McCook", "phone": "+1 308-345-2000", "website": "", "rating": 5.0, "reviews": 4, "place_id": "ChIJq2p6ZZmAdYcR6BCmhmH6VBs", "latitude": 40.20180819999999, "longitude": -100.6274466, "care_type": "Chiropractor"}, {"name": "308 Chiropractic", "address": "2105 W J St, McCook, NE 69001", "city": "McCook", "phone": "+1 308-777-2476", "website": "https://308chiropractic.com/", "rating": null, "reviews": 0, "place_id": "ChIJF-UJXOiBdYcRWBOPwKKz6AM", "latitude": 40.2073375, "longitude": -100.6527524, "care_type": "Chiropractor"}, {"name": "Nielsen Chiropractic Health Center", "address": "114 W C St, McCook, NE 69001", "city": "McCook", "phone": "+1 308-345-2995", "website": "https://m.facebook.com/pages/Nielsen-Chiropractic-Health-Center/117150611678973", "rating": 5.0, "reviews": 2, "place_id": "ChIJ06vwlZuAdYcR2SESHNOB0vI", "latitude": 40.1994467, "longitude": -100.6267596, "care_type": "Chiropractor"}, {"name": "Better Life Chiropractic & Wellness", "address": "605 1st Corso, Nebraska City, NE 68410", "city": "Nebraska City", "phone": "+1 402-873-6999", "website": "https://experiencebetterlife.com/", "rating": 4.9, "reviews": 203, "place_id": "ChIJB5C4FFlalIcRGN6Q_3FEmz4", "latitude": 40.6754307, "longitude": -95.8529678, "care_type": "Chiropractor"}, {"name": "Higley Family Chiropractic", "address": "1202 Central Ave, Nebraska City, NE 68410", "city": "Nebraska City", "phone": "+1 402-713-5105", "website": "https://www.higleyfamilychiro.com/", "rating": 4.7, "reviews": 13, "place_id": "ChIJa68eGfdalIcRP-8B4tlQjUI", "latitude": 40.6768159, "longitude": -95.8603698, "care_type": "Chiropractor"}, {"name": "McGinley Chiropractic Center", "address": "1218 Central Ave, Nebraska City, NE 68410", "city": "Nebraska City", "phone": "+1 402-873-7399", "website": "https://mcginleychiropractic.com/", "rating": 5.0, "reviews": 48, "place_id": "ChIJfTFxIvdalIcRcbLQGP8MM9k", "latitude": 40.676871, "longitude": -95.8610774, "care_type": "Chiropractor"}, {"name": "Abundant Life Chiropractic", "address": "1807 4th Corso, Nebraska City, NE 68410", "city": "Nebraska City", "phone": "+1 402-874-9044", "website": "", "rating": 5.0, "reviews": 1, "place_id": "ChIJPwzJ5-1alIcRAoT6gGkEyyo", "latitude": 40.67279389999999, "longitude": -95.86822169999999, "care_type": "Chiropractor"}, {"name": "Saunders County Chiropractic & Acupuncture, PC", "address": "1320 East 31st St, Wahoo, NE 68066", "city": "Wahoo", "phone": "+1 402-277-7180", "website": "http://saunderscountychiro.com/", "rating": 5.0, "reviews": 56, "place_id": "ChIJ5wLIHwBPkYcRAtmTLyrsOts", "latitude": 41.23581859999999, "longitude": -96.60207439999999, "care_type": "Chiropractor"}, {"name": "Dr. Paul Sutton, DC", "address": "31st St, Wahoo, NE 68066", "city": "Wahoo", "phone": "+1 402-277-7180", "website": "http://saunderscountychiro.com/", "rating": 5.0, "reviews": 4, "place_id": "ChIJ_f_7HQBPkYcRzQSdl_mUiUs", "latitude": 41.23581859999999, "longitude": -96.60207439999999, "care_type": "Chiropractor"}, {"name": "Volin Chiropractic Clinic", "address": "520 N Linden St, Wahoo, NE 68066", "city": "Wahoo", "phone": "+1 402-443-1773", "website": "https://volinchiropractic.wordpress.com/", "rating": 5.0, "reviews": 3, "place_id": "ChIJI43EJlVOkYcRt5vNQi1A3YA", "latitude": 41.2103283, "longitude": -96.61828249999999, "care_type": "Chiropractor"}, {"name": "Wahoo Chiropractic Center", "address": "216 W 3rd St, Wahoo, NE 68066", "city": "Wahoo", "phone": "+1 402-443-4164", "website": "", "rating": null, "reviews": 0, "place_id": "ChIJUzB5e_9OkYcR_kla_KhFAnQ", "latitude": 41.2083006, "longitude": -96.62179379999999, "care_type": "Chiropractor"}, {"name": "Lake Wanahoo Clinic", "address": "31st St, Wahoo, NE 68066", "city": "Wahoo", "phone": "+1 402-277-7180", "website": "http://www.saunderscountychiro.com/", "rating": 5.0, "reviews": 1, "place_id": "ChIJO1FtxpRPkYcRdBoihmj2ik0", "latitude": 41.2358769, "longitude": -96.600455, "care_type": "Chiropractor"}, {"name": "Herman Chiropractic", "address": "1302 W 7th St, Wayne, NE 68787", "city": "Wayne", "phone": "+1 402-375-3450", "website": "https://www.hermanchiro.com/", "rating": 4.9, "reviews": 130, "place_id": "ChIJRTIUf9_TkYcREttYqg1-Spc", "latitude": 42.2360082, "longitude": -97.034814, "care_type": "Chiropractor"}, {"name": "Wayne Sport and Spine Center, LLC", "address": "214 N Pearl St, Wayne, NE 68787", "city": "Wayne", "phone": "+1 402-375-3000", "website": "http://waynesportandspine.com/", "rating": 4.6, "reviews": 11, "place_id": "ChIJBd3XG8XTkYcR5Zydl-5tZP0", "latitude": 42.230919, "longitude": -97.019578, "care_type": "Chiropractor"}, {"name": "Mark Chiropractic & Acupuncture - Chiropractor in Scottsbluff NE", "address": "218 W 27th St, Scottsbluff, NE 69361", "city": "Scottsbluff", "phone": "+1 308-633-2200", "website": "https://markchiro.com/", "rating": 4.9, "reviews": 233, "place_id": "ChIJoeGxIMRRZYcR5n24OWb0_cE", "latitude": 41.873657, "longitude": -103.6667874, "care_type": "Chiropractor"}, {"name": "Chiropractic Health & Wellness", "address": "1124 Broadway Suite B, Scottsbluff, NE 69361", "city": "Scottsbluff", "phone": "+1 308-633-3106", "website": "http://chirohw.com/", "rating": 5.0, "reviews": 11, "place_id": "ChIJfU-Yq2lRZYcRiAlRuwVrIJY", "latitude": 41.8580555, "longitude": -103.6630922, "care_type": "Chiropractor"}, {"name": "Scottsbluff Family Chiropractic", "address": "24 W 17th St, Scottsbluff, NE 69361", "city": "Scottsbluff", "phone": "+1 308-630-0551", "website": "http://scottsbluffamilychiropractic.com/", "rating": 5.0, "reviews": 3, "place_id": "ChIJFwEda7xRZYcR0ZikMM6Ofsg", "latitude": 41.8630961, "longitude": -103.6639612, "care_type": "Chiropractor"}, {"name": "Care Chiropractic and Acupuncture", "address": "21 E 20th St, Scottsbluff, NE 69361", "city": "Scottsbluff", "phone": "+1 308-635-8190", "website": "http://scottsbluffchiro.com/", "rating": 5.0, "reviews": 50, "place_id": "ChIJLctxVL5RZYcReQHThbdMLso", "latitude": 41.8668492, "longitude": -103.6617108, "care_type": "Chiropractor"}, {"name": "Bluffs Chiropractic Clinic PC", "address": "226 W 38th St, Scottsbluff, NE 69361", "city": "Scottsbluff", "phone": "+1 308-632-7094", "website": "https://bluffschiro.wixsite.com/website", "rating": 4.9, "reviews": 29, "place_id": "ChIJM13RaNlRZYcRO18QwV-BxMw", "latitude": 41.8843, "longitude": -103.667, "care_type": "Chiropractor"}, {"name": "Jachin Miller - Miller Family Chiropractic", "address": "2809 Ave. B #103, Scottsbluff, NE 69361", "city": "Scottsbluff", "phone": "+1 308-633-6073", "website": "", "rating": 5.0, "reviews": 12, "place_id": "ChIJq6pqPM9RZYcR7DOUFQcq-yM", "latitude": 41.8753759, "longitude": -103.665385, "care_type": "Chiropractor"}, {"name": "Monument Chiropractic PC", "address": "713 W 27th St, Scottsbluff, NE 69361", "city": "Scottsbluff", "phone": "+1 308-632-2255", "website": "http://monumentchiropracticclinic.com/", "rating": 5.0, "reviews": 5, "place_id": "ChIJX-x_Pc9RZYcRgF3zjOYmbbI", "latitude": 41.8740023, "longitude": -103.6728242, "care_type": "Chiropractor"}, {"name": "Wills Chiropractic Clinic, P.C.", "address": "416 Valley View Dr Suite 1300, Scottsbluff, NE 69361", "city": "Scottsbluff", "phone": "+1 308-436-7176", "website": "http://www.willsclinic.com/", "rating": 5.0, "reviews": 11, "place_id": "ChIJfavx9jlRZYcREnq_sXRNick", "latitude": 41.8786615, "longitude": -103.6569017, "care_type": "Chiropractor"}, {"name": "Beamon Kristin M DC", "address": "24 W 17th St, Scottsbluff, NE 69361", "city": "Scottsbluff", "phone": "+1 308-630-0551", "website": "http://scottsbluffamilychiropractic.com/", "rating": 5.0, "reviews": 3, "place_id": "ChIJ-6sya7xRZYcR4B0qeoNEjnU", "latitude": 41.8630961, "longitude": -103.6639612, "care_type": "Chiropractor"}, {"name": "Dr. Scott Ruff", "address": "1124 Broadway Suite B, Scottsbluff, NE 69361", "city": "Scottsbluff", "phone": "+1 308-633-3106", "website": "", "rating": 5.0, "reviews": 2, "place_id": "ChIJC9x0GqNRZYcRXmFJYVZ5oB4", "latitude": 41.8580555, "longitude": -103.6630922, "care_type": "Chiropractor"}, {"name": "Advantage Chiropractic & Acupuncture", "address": "1930 E 20th Pl STE 200E, Scottsbluff, NE 69361", "city": "Scottsbluff", "phone": "+1 308-633-1425", "website": "", "rating": 5.0, "reviews": 5, "place_id": "ChIJnR9IjFVRZYcRm9w8C867sYc", "latitude": 41.8652951, "longitude": -103.6382982, "care_type": "Chiropractor"}, {"name": "Wittler Chiropractic", "address": "1012 W 36th St, Scottsbluff, NE 69361", "city": "Scottsbluff", "phone": "+1 308-635-3001", "website": "", "rating": 5.0, "reviews": 1, "place_id": "ChIJ3wpW_NNRZYcR1QjIvo5rsLw", "latitude": 41.8819163, "longitude": -103.6774821, "care_type": "Chiropractor"}, {"name": "Dr. Kira Bowhay", "address": "226 W 38th St, Scottsbluff, NE 69361", "city": "Scottsbluff", "phone": "+1 308-632-7094", "website": "", "rating": 5.0, "reviews": 1, "place_id": "ChIJM13RaNlRZYcRQ8kgU06-54s", "latitude": 41.8843, "longitude": -103.667, "care_type": "Chiropractor"}, {"name": "Dr. Samuel Mark", "address": "218 W 27th St, Scottsbluff, NE 69361", "city": "Scottsbluff", "phone": "+1 308-633-2200", "website": "https://markchiro.com/", "rating": 5.0, "reviews": 1, "place_id": "ChIJq6o5n8ZRZYcRqRXIj-BIudk", "latitude": 41.8735816, "longitude": -103.6667654, "care_type": "Chiropractor"}, {"name": "Thomas K. Tomoi, DC", "address": "713 W 27th St, Scottsbluff, NE 69361", "city": "Scottsbluff", "phone": "+1 308-632-2255", "website": "http://monumentchiropractic.com/", "rating": null, "reviews": 0, "place_id": "ChIJX-x_Pc9RZYcR6mBLLNsdvqI", "latitude": 41.87408689999999, "longitude": -103.6729057, "care_type": "Chiropractor"}, {"name": "Levi Bowlin", "address": "1930 E 20th Pl STE 200E, Scottsbluff, NE 693612874", "city": "Scottsbluff", "phone": "+1 308-633-1425", "website": "", "rating": 5.0, "reviews": 6, "place_id": "ChIJO85IsolRZYcRNG_X5th3NzE", "latitude": 41.8652951, "longitude": -103.6382982, "care_type": "Chiropractor"}, {"name": "Chiropractic Concepts", "address": "1605 10th St, Gering, NE 69341", "city": "Gering", "phone": "+1 308-436-2801", "website": "http://chiropractic-concepts.com/", "rating": 5.0, "reviews": 396, "place_id": "ChIJU1OmxzhRZYcRtehHKgew4BE", "latitude": 41.8249685, "longitude": -103.6608081, "care_type": "Chiropractor"}, {"name": "Miller Family Chiropractic", "address": "2809 Ave. B #103, Scottsbluff, NE 69361", "city": "Scottsbluff", "phone": "+1 308-633-6073", "website": "", "rating": null, "reviews": 0, "place_id": "ChIJUXc_4jhRZYcR1Hqc9gkb5xE", "latitude": 41.8754482, "longitude": -103.6653729, "care_type": "Chiropractor"}, {"name": "Dakota Good Life Chiropractic", "address": "121 E 28th St, South Sioux City, NE 68776", "city": "South Sioux City", "phone": "+1 402-241-7497", "website": "http://www.dakotagoodlifechiro.com/", "rating": 5.0, "reviews": 2, "place_id": "ChIJu7ErebMHjocRiMDatGLqD58", "latitude": 42.4636377, "longitude": -96.41317939999999, "care_type": "Chiropractor"}, {"name": "Tri-State Physicians & Physical Therapy Clinic: Tim E. Luse, DC", "address": "3900 Dakota Ave Ste 6, South Sioux City, NE 68776", "city": "South Sioux City", "phone": "+1 402-494-5173", "website": "https://www.tristatephysicians.com/", "rating": null, "reviews": 0, "place_id": "ChIJ73bGblMHjocRk-vzyF2laQc", "latitude": 42.4510224, "longitude": -96.4129825, "care_type": "Chiropractor"}, {"name": "Vitality Chiropractic Lifestyle Center", "address": "10 N Spruce St, Ogallala, NE 69153", "city": "Ogallala", "phone": "+1 308-284-0838", "website": "http://www.vitalityne.com/", "rating": 4.9, "reviews": 83, "place_id": "ChIJ3fGlZojCdocR2lo28bPANtg", "latitude": 41.124247, "longitude": -101.7191502, "care_type": "Chiropractor"}, {"name": "Weiss Chiropractic PC", "address": "113 W 3rd St, Ogallala, NE 69153", "city": "Ogallala", "phone": "+1 308-882-8020", "website": "https://drcalvinweiss.com/%3FUTM_source%3DGMB_listing%26UTM_medium%3Dorganic", "rating": 4.9, "reviews": 113, "place_id": "ChIJabY0MHuEa4cRuAKDrU9r2Vk", "latitude": 41.1267104, "longitude": -101.7201931, "care_type": "Chiropractor"}, {"name": "HD Chiropractic", "address": "106 W 1st St, Ogallala, NE 69153", "city": "Ogallala", "phone": "+1 308-284-1069", "website": "http://hdchiropracticogallala.com/", "rating": 5.0, "reviews": 23, "place_id": "ChIJfZNvKPnDdocRn6eg_P3wFp4", "latitude": 41.1246087, "longitude": -101.7195096, "care_type": "Chiropractor"}, {"name": "Sutton Chiropractic Clinic", "address": "600 E 1st St, Ogallala, NE 69153", "city": "Ogallala", "phone": "+1 308-284-2068", "website": "", "rating": 5.0, "reviews": 5, "place_id": "ChIJHews14bCdocRVrTyfa_stgc", "latitude": 41.1252874, "longitude": -101.7127929, "care_type": "Chiropractor"}, {"name": "Dr. Nicolas Fanning", "address": "10 N Spruce St, Ogallala, NE 69153", "city": "Ogallala", "phone": "+1 308-284-0838", "website": "", "rating": 5.0, "reviews": 1, "place_id": "ChIJVVUFZIjCdocRtEeqD9_nDB8", "latitude": 41.1241849, "longitude": -101.7192397, "care_type": "Chiropractor"}, {"name": "Hannah Davis (HD) Chiropractic", "address": "106 W 1st St, Ogallala, NE 69153", "city": "Ogallala", "phone": "", "website": "", "rating": null, "reviews": 0, "place_id": "ChIJ3SNWtNnDdocRepmg_CztPgw", "latitude": 41.1246087, "longitude": -101.7195096, "care_type": "Chiropractor"}, {"name": "Adapt Chiropractic Company", "address": "8410 S 73rd Plaza Suite 108, Papillion, NE 68046", "city": "Papillion", "phone": "+1 402-452-3726", "website": "https://www.adaptchiroco.com/", "rating": 5.0, "reviews": 189, "place_id": "ChIJqZ5OxY2Lk4cRayknX9DcNUs", "latitude": 41.1758651, "longitude": -96.0268325, "care_type": "Chiropractor"}, {"name": "Sarpy Chiropractic Papillion", "address": "10701 S 72nd St #120, Papillion, NE 68133", "city": "Papillion", "phone": "+1 402-593-9930", "website": "https://www.sarpychiro.com/papillion/", "rating": 5.0, "reviews": 216, "place_id": "ChIJqza-GGKKk4cRXIrOhYQ8d2U", "latitude": 41.1513634, "longitude": -96.0222094, "care_type": "Chiropractor"}, {"name": "New Beginnings Chiropractic", "address": "1413 S Washington St Suite 210, Papillion, NE 68046", "city": "Papillion", "phone": "+1 402-882-6392", "website": "http://newbeginningspapillion.com/", "rating": 4.9, "reviews": 51, "place_id": "ChIJlSJ_dQCLk4cRRIuAcFCc_Cs", "latitude": 41.138055, "longitude": -96.0421971, "care_type": "Chiropractor"}, {"name": "Franck Chiropractic", "address": "955 N Adams St #11, Papillion, NE 68046", "city": "Papillion", "phone": "+1 402-933-5593", "website": "https://franckchiropractic.com/", "rating": 5.0, "reviews": 91, "place_id": "ChIJmVmdzRmLk4cRxh5lF30EIrs", "latitude": 41.17200039999999, "longitude": -96.04385959999999, "care_type": "Chiropractor"}, {"name": "ReConnect Chiropractic", "address": "607 Pinnacle Dr Suite A, Papillion, NE 68046", "city": "Papillion", "phone": "+1 402-532-1900", "website": "https://www.reconnectchiropracticomaha.com/", "rating": 4.9, "reviews": 58, "place_id": "ChIJoeJrTlWKk4cR0LEILr7X96c", "latitude": 41.16218689999999, "longitude": -96.02520899999999, "care_type": "Chiropractor"}, {"name": "Naber Chiropractic", "address": "11336 S 96th St #119, Papillion, NE 68046", "city": "Papillion", "phone": "+1 402-331-4001", "website": "https://naberchiropractic.com/", "rating": 5.0, "reviews": 21, "place_id": "ChIJ3XfbTcqKk4cR_OfdAowUqS8", "latitude": 41.1450153, "longitude": -96.0658413, "care_type": "Chiropractor"}, {"name": "Thurman Chiropractic", "address": "1215 Golden Gate Dr, Papillion, NE 68046", "city": "Papillion", "phone": "+1 402-618-7468", "website": "https://thurmanchiropractic.com/", "rating": 5.0, "reviews": 83, "place_id": "ChIJWf5mW-GLk4cR0ITqLYf3Dc8", "latitude": 41.1431691, "longitude": -96.0412566, "care_type": "Chiropractor"}, {"name": "Troy D. Naber, DC", "address": "11336 S 96th St #119, Papillion, NE 68046", "city": "Papillion", "phone": "+1 402-331-4001", "website": "http://www.naberchiropractic.com/", "rating": 5.0, "reviews": 3, "place_id": "ChIJ3XfbTcqKk4cRpYZDQEffA3s", "latitude": 41.1451567, "longitude": -96.0657756, "care_type": "Chiropractor"}, {"name": "Young Chiropractic & Rehabilitation Center", "address": "10351 Portal Rd Suite 103, La Vista, NE 68128", "city": "La Vista", "phone": "+1 402-339-2283", "website": "http://www.keepthebodyyoung.com/", "rating": 4.9, "reviews": 308, "place_id": "ChIJ15sTnTOLk4cRUQNkwDWKxdI", "latitude": 41.1713447, "longitude": -96.0749053, "care_type": "Chiropractor"}, {"name": "Pain West", "address": "701 Pinnacle Dr Suite 105, Papillion, NE 68046", "city": "Papillion", "phone": "+1 402-505-7989", "website": "http://painwest.com/", "rating": 4.8, "reviews": 386, "place_id": "ChIJ77OOwaqLk4cRW6KRvm8vY_I", "latitude": 41.1628187, "longitude": -96.0241538, "care_type": "Chiropractor"}, {"name": "Complete Balance Chiropractic", "address": "7320 Harrison St, Ralston, NE 68128", "city": "Ralston", "phone": "+1 402-452-3350", "website": "https://www.ralstonchiropractor.com/", "rating": 5.0, "reviews": 246, "place_id": "ChIJGWMxYZqMk4cRHRv3PYF9UIk", "latitude": 41.1917299, "longitude": -96.02497439999999, "care_type": "Chiropractor"}, {"name": "La Vista Chiropractic & Wellness Center", "address": "7202 Giles Rd SUITE 7, La Vista, NE 68128", "city": "La Vista", "phone": "+1 402-932-6006", "website": "http://www.lavistachiropractic.com/", "rating": 5.0, "reviews": 307, "place_id": "ChIJrWkVC6eLk4cRH4OyUzTU1IU", "latitude": 41.1767507, "longitude": -96.02442309999999, "care_type": "Chiropractor"}, {"name": "Brentwood Chiropractic", "address": "7514 S 84th St, La Vista, NE 68128", "city": "La Vista", "phone": "+1 531-359-1853", "website": "http://www.brentwoodrelief.com/", "rating": 5.0, "reviews": 18, "place_id": "ChIJDTmLjGKLk4cRlmxRSgA3rtE", "latitude": 41.1820713, "longitude": -96.0435464, "care_type": "Chiropractor"}, {"name": "Eric Heien", "address": "607 Pinnacle Dr Suite A, Papillion, NE 68046", "city": "Papillion", "phone": "+1 402-592-2234", "website": "", "rating": 5.0, "reviews": 1, "place_id": "ChIJVVVFZlWKk4cRU8u6swdNIdU", "latitude": 41.1622277, "longitude": -96.02503639999999, "care_type": "Chiropractor"}, {"name": "Papillion Chiropractic", "address": "701 Pinnacle Dr Suite 103, Papillion, NE 68046", "city": "Papillion", "phone": "+1 402-932-8384", "website": "", "rating": 4.5, "reviews": 6, "place_id": "ChIJsb2pP1WKk4cRrA7ZQBp5jKo", "latitude": 41.1627662, "longitude": -96.0241753, "care_type": "Chiropractor"}, {"name": "Boeckenhauer Tonya DC", "address": "741 Pinnacle Dr, Papillion, NE 68046", "city": "Papillion", "phone": "+1 402-932-8384", "website": "http://www.papillionchiropractic.com/", "rating": null, "reviews": 0, "place_id": "ChIJ3Zvbh_-Kk4cRsGFTSTijIoo", "latitude": 41.1637968, "longitude": -96.0241806, "care_type": "Chiropractor"}, {"name": "Advanced Chiropractic & Neurology, PC", "address": "8825 S 117th St, La Vista, NE 68128", "city": "La Vista", "phone": "+1 402-597-2869", "website": "https://www.omahaspinecare.com/", "rating": 5.0, "reviews": 36, "place_id": "ChIJ45JiMo30k4cRRRRe4qY0xWw", "latitude": 41.1707395, "longitude": -96.0943769, "care_type": "Chiropractor"}, {"name": "Randy K. Gerdts, DC", "address": "7514 S 84th St, La Vista, NE 68128", "city": "La Vista", "phone": "+1 402-934-5750", "website": "http://40dollarchiropractic.com/", "rating": 5.0, "reviews": 7, "place_id": "ChIJHzr4o2uLk4cR63hQ11Dpv1M", "latitude": 41.18211, "longitude": -96.0435463, "care_type": "Chiropractor"}, {"name": "Walk In Chiropractic", "address": "7514 S 84th St, La Vista, NE 68128", "city": "La Vista", "phone": "+1 531-359-3721", "website": "https://brentwoodrelief.com/BW_Intake.htm", "rating": 4.9, "reviews": 120, "place_id": "ChIJ1bSJ0BSLk4cRTQ96bqGDoH4", "latitude": 41.1820327, "longitude": -96.04354649999999, "care_type": "Chiropractor"}, {"name": "Meylor Chiropractic and Acupuncture", "address": "9633 Giles Rd, La Vista, NE 68128", "city": "La Vista", "phone": "+1 402-884-4790", "website": "http://drmeylor.com/", "rating": 5.0, "reviews": 134, "place_id": "ChIJlxij_DOLk4cREY4Kd0CJfvE", "latitude": 41.1753235, "longitude": -96.0625453, "care_type": "Chiropractor"}, {"name": "Seward Chiropractic Center PC", "address": "729 Seward St Unit #4, Seward, NE 68434", "city": "Seward", "phone": "+1 402-643-3696", "website": "https://www.sewardchiropracticcenter.com/", "rating": 5.0, "reviews": 2, "place_id": "ChIJUSjoNQQol4cRsWxdhA5u0jk", "latitude": 40.9076358, "longitude": -97.10094579999999, "care_type": "Chiropractor"}, {"name": "Hackbart Chiropractic Center", "address": "508 N 6th St, Seward, NE 68434", "city": "Seward", "phone": "+1 402-646-2020", "website": "http://hackbartchiropractic.com/", "rating": 4.9, "reviews": 236, "place_id": "ChIJsZyIUhsol4cRB1c8SlOaKu4", "latitude": 40.9119526, "longitude": -97.0988512, "care_type": "Chiropractor"}, {"name": "Svoboda Chiropractic PC", "address": "306 S 4th St #200, Seward, NE 68434", "city": "Seward", "phone": "+1 402-643-4244", "website": "", "rating": 4.6, "reviews": 11, "place_id": "ChIJMR1twwMol4cRF8mQ5YGvvHk", "latitude": 40.905803, "longitude": -97.096361, "care_type": "Chiropractor"}, {"name": "Rooted Movement", "address": "729 Seward St Unit #4, Seward, NE 68434", "city": "Seward", "phone": "+1 402-803-1002", "website": "https://www.rootedmovementchiro.com/", "rating": 5.0, "reviews": 6, "place_id": "ChIJxTJ1pLPXlocRlg1CwfqeQKU", "latitude": 40.9076199, "longitude": -97.10098029999999, "care_type": "Chiropractor"}, {"name": "Bell Chiropractic", "address": "905 Main St, Seward, NE 68434", "city": "Seward", "phone": "+1 402-643-6565", "website": "https://www.bellchiropracticseward.com/%3Futm_source%3DGBL", "rating": 4.9, "reviews": 38, "place_id": "ChIJVz0F5AUol4cR7X3SqKnGTm8", "latitude": 40.9067273, "longitude": -97.1028197, "care_type": "Chiropractor"}, {"name": "Crist Family Chiropractic Clinic", "address": "1106 Main Ave, Crete, NE 68333", "city": "Crete", "phone": "+1 402-826-5097", "website": "http://countrysidechiropractic.net/", "rating": 5.0, "reviews": 4, "place_id": "ChIJcU1xnAHllocR9pMcz0pfjEE", "latitude": 40.6235667, "longitude": -96.9611353, "care_type": "Chiropractor"}, {"name": "Alpha Omega Chiropractic", "address": "1212 Ivy Ave, Crete, NE 68333", "city": "Crete", "phone": "+1 402-381-3033", "website": "https://alphaomegachiro.com/", "rating": 5.0, "reviews": 26, "place_id": "ChIJWf8QwlvllocRNjzCIpZeCnA", "latitude": 40.6245608, "longitude": -96.95643659999999, "care_type": "Chiropractor"}, {"name": "Crete Chiropractic Center", "address": "220 E 13th St, Crete, NE 68333", "city": "Crete", "phone": "+1 402-826-5151", "website": "https://www.cretechiropracticcenter.com/", "rating": 5.0, "reviews": 9, "place_id": "ChIJP9X8HwHllocRpaQZFsN0pMw", "latitude": 40.6253308, "longitude": -96.95986169999999, "care_type": "Chiropractor"}, {"name": "Countryside Chiropractic PC", "address": "12100 W Roca Rd, Crete, NE 68333", "city": "Crete", "phone": "+1 402-826-5097", "website": "", "rating": null, "reviews": 0, "place_id": "ChIJoftCdiTvlocRyMnHU207u-Q", "latitude": 40.657725, "longitude": -96.885125, "care_type": "Chiropractor"}, {"name": "Revive Chiropractic North Platte", "address": "601 S Dewey St # 1, North Platte, NE 69101", "city": "North Platte", "phone": "+1 308-221-6899", "website": "https://www.revivechironp.com/%3Futm_source%3DGBP%26utm_medium%3Dorganic", "rating": 4.9, "reviews": 56, "place_id": "ChIJebzul-gidocRsu36g41bH38", "latitude": 41.1285735, "longitude": -100.7624751, "care_type": "Chiropractor"}, {"name": "Chiropractic Wellness Center", "address": "Chiropractic Wellness Center, 1863 W A St P.C, North Platte, NE 69101", "city": "North Platte", "phone": "+1 308-532-3536", "website": "http://www.chiropracticwellnesscenter.biz/", "rating": 5.0, "reviews": 5, "place_id": "ChIJf6u_jdgidocRINVF5wGs-70", "latitude": 41.13501309999999, "longitude": -100.7861693, "care_type": "Chiropractor"}, {"name": "Hoover Chiropractic", "address": "601 S Jeffers St, North Platte, NE 69101", "city": "North Platte", "phone": "+1 308-532-8880", "website": "http://www.hooverchirocenter.com/", "rating": 5.0, "reviews": 126, "place_id": "ChIJV1lDuOUidocRhn97RmjfHOk", "latitude": 41.1287294, "longitude": -100.7635637, "care_type": "Chiropractor"}, {"name": "River Valley Chiropractic", "address": "1717 E 4th St, North Platte, NE 69101", "city": "North Platte", "phone": "+1 308-534-5840", "website": "http://www.northplattechirocare.com/", "rating": 4.6, "reviews": 11, "place_id": "ChIJDWM_-k0idocRASkruO3GQcU", "latitude": 41.1340583, "longitude": -100.7430491, "care_type": "Chiropractor"}, {"name": "Schufeldt Chiropractic Clinic", "address": "414 N Willow St, North Platte, NE 69101", "city": "North Platte", "phone": "+1 308-534-2300", "website": "http://www.schufeldtchiropractic.com/", "rating": 4.9, "reviews": 16, "place_id": "ChIJYfvqRR0jdocR8SM4_OdrGf0", "latitude": 41.137612, "longitude": -100.7670964, "care_type": "Chiropractor"}, {"name": "Riverside Chiropractic", "address": "901 S Willow St, North Platte, NE 69101", "city": "North Platte", "phone": "+1 308-534-1134", "website": "https://m.facebook.com/RiversideChiropracticNorthPlatte/%3Fref%3Dbookmarks", "rating": 5.0, "reviews": 18, "place_id": "ChIJtScnjPMidocRx7d4XYNapVU", "latitude": 41.12593469999999, "longitude": -100.7675811, "care_type": "Chiropractor"}, {"name": "Jorgensen Chiropractic Care", "address": "110 S Sherman Ave, North Platte, NE 69101", "city": "North Platte", "phone": "+1 308-534-1870", "website": "http://jorgchiro.com/", "rating": 4.4, "reviews": 9, "place_id": "ChIJDcw9yNgidocRgo6MQNOoCsI", "latitude": 41.1332015, "longitude": -100.7839126, "care_type": "Chiropractor"}, {"name": "North Platte Chiro Clinic", "address": "1114 W A St #1116, North Platte, NE 69101", "city": "North Platte", "phone": "+1 308-534-3948", "website": "https://www.northplattechiropractic.com/", "rating": 3.0, "reviews": 2, "place_id": "ChIJCTiYZeAidocRiXro1eso04U", "latitude": 41.1333127, "longitude": -100.7770332, "care_type": "Chiropractor"}, {"name": "A Holistic Approach, Dr. Lana Klein DC PC", "address": "523 N Dewey St, North Platte, NE 69101", "city": "North Platte", "phone": "+1 308-532-3377", "website": "", "rating": 4.3, "reviews": 11, "place_id": "ChIJL2tSEgIjdocR-Xy32efQrk4", "latitude": 41.138118, "longitude": -100.761347, "care_type": "Chiropractor"}, {"name": "Dr. Dawn Erdman", "address": "1863 W A St, North Platte, NE 69101", "city": "North Platte", "phone": "+1 308-532-3536", "website": "http://chiropracticwellnesscenter.biz/", "rating": 4.0, "reviews": 4, "place_id": "ChIJf6u_jdgidocRmjeNFOP6UQw", "latitude": 41.1335525, "longitude": -100.7852955, "care_type": "Chiropractor"}, {"name": "Precision Spinal Care", "address": "620 S Jeffers St, North Platte, NE 69101", "city": "North Platte", "phone": "+1 308-221-2880", "website": "http://nucca.us/", "rating": 5.0, "reviews": 10, "place_id": "ChIJHVU7-_oidocRMLpkNRihFSg", "latitude": 41.1282138, "longitude": -100.764202, "care_type": "Chiropractor"}, {"name": "Lawrence H. Schufeldt, DC", "address": "414 N Willow St, North Platte, NE 69101", "city": "North Platte", "phone": "+1 308-534-2300", "website": "", "rating": 5.0, "reviews": 2, "place_id": "ChIJYfvqRR0jdocRNJatzgLiQt4", "latitude": 41.137612, "longitude": -100.7670964, "care_type": "Chiropractor"}, {"name": "Allen C. Huff, DC", "address": "620 S Jeffers St, North Platte, NE 69101", "city": "North Platte", "phone": "+1 308-221-2880", "website": "", "rating": 4.0, "reviews": 1, "place_id": "ChIJHVU7-_oidocR72fg8mCb_3A", "latitude": 41.1281965, "longitude": -100.7642686, "care_type": "Chiropractor"}, {"name": "Dr. Megan Jorgensen", "address": "110 S Sherman Ave, North Platte, NE 69101", "city": "North Platte", "phone": "+1 308-534-1870", "website": "", "rating": 1.0, "reviews": 1, "place_id": "ChIJ__9bxtgidocRupwom57x--A", "latitude": 41.1332424, "longitude": -100.7839418, "care_type": "Chiropractor"}, {"name": "Matt M. Wehr, DC", "address": "620 S Jeffers St, North Platte, NE 69101", "city": "North Platte", "phone": "+1 308-221-2880", "website": "", "rating": null, "reviews": 0, "place_id": "ChIJHVU7-_oidocR6kx9H-JUPE0", "latitude": 41.1281945, "longitude": -100.764265, "care_type": "Chiropractor"}, {"name": "Dr. Jeffrey Hoover", "address": "601 S Jeffers St, North Platte, NE 69101", "city": "North Platte", "phone": "+1 308-532-8880", "website": "", "rating": null, "reviews": 0, "place_id": "ChIJAQDQ8-UidocRb6i7R1wDcj8", "latitude": 41.1287294, "longitude": -100.7635637, "care_type": "Chiropractor"}, {"name": "Dr. Jered Jorgensen", "address": "110 S Sherman Ave, North Platte, NE 69101", "city": "North Platte", "phone": "+1 308-534-1870", "website": "", "rating": 3.0, "reviews": 2, "place_id": "ChIJ__9bxtgidocRHISgFSY_1uY", "latitude": 41.1332424, "longitude": -100.7839418, "care_type": "Chiropractor"},