[{"name": "Absolute Best Chiropractic", "address": "1929 California St, Carson City, NV 89701", "city": "Carson City", "phone": "+1 775-884-4994", "website": "https://www.absolutebestchiropractic.com/", "rating": 4.9, "reviews": 57, "place_id": "ChIJ3ZrNMm2gmYARlcw666SX63g", "latitude": 39.1497392, "longitude": -119.7655306, "care_type": "Chiropractor"}, {"name": "The Joint Chiropractic", "address": "4849 Cochise St Unit 1, Carson City, NV 89703", "city": "Carson City", "phone": "+1 775-252-3274", "website": "https://www.thejoint.com/nevada/carson-city/carson-city-36014", "rating": 4.8, "reviews": 603, "place_id": "ChIJj1UiU4GhmYARBtznAJn55Gk", "latitude": 39.1235781, "longitude": -119.7725072, "care_type": "Chiropractor"}, {"name": "Carson Tahoe Chiropractic", "address": "601 E Washington St, Carson City, NV 89701", "city": "Carson City", "phone": "+1 775-882-7085", "website": "http://www.carsontahoechiro.com/", "rating": 5.0, "reviews": 4, "place_id": "ChIJr-ieHJkKmYARAqIvYkxKAnc", "latitude": 39.1681677, "longitude": -119.76247, "care_type": "Chiropractor"}, {"name": "Lisa Getas, DC", "address": "200 W Long St, Carson City, NV 89703", "city": "Carson City", "phone": "+1 775-883-6001", "website": "https://www.doctorlisadc.com/", "rating": 4.8, "reviews": 18, "place_id": "ChIJbUtB170KmYARMbCoINDNsiY", "latitude": 39.174269, "longitude": -119.7679863, "care_type": "Chiropractor"}, {"name": "Advanced Chiropractic & Wellness Center", "address": "3232 Carmine St, Carson City, NV 89706", "city": "Carson City", "phone": "+1 775-883-4114", "website": "https://drpastro.com/%3Futm_source%3DGoogle_my_business", "rating": 4.6, "reviews": 36, "place_id": "ChIJiaQEu3oKmYARc3Wd4WZOs30", "latitude": 39.1790893, "longitude": -119.7319308, "care_type": "Chiropractor"}, {"name": "John J. Ediss, DC", "address": "601 E Washington St, Carson City, NV 89701", "city": "Carson City", "phone": "+1 775-882-7085", "website": "https://www.carsontahoechiro.com/index.php%3Fp%3D407896", "rating": 5.0, "reviews": 6, "place_id": "ChIJr-ieHJkKmYARnuz5AMRVbCg", "latitude": 39.1681788, "longitude": -119.7624785, "care_type": "Chiropractor"}, {"name": "Carson Family Chiropractic", "address": "177 E 7th St, Carson City, NV 89701", "city": "Carson City", "phone": "+1 775-230-4578", "website": "https://www.practicalchiro.com/contact", "rating": 5.0, "reviews": 1, "place_id": "ChIJ5YzmlfmhmYART4aJQDyjZQ8", "latitude": 39.1597748, "longitude": -119.7663573, "care_type": "Chiropractor"}, {"name": "The Joint Chiropractic", "address": "10220 W Charleston Blvd Suite 2, Las Vegas, NV 89135", "city": "Las Vegas", "phone": "+1 702-935-6222", "website": "https://www.thejoint.com/nevada/las-vegas/summerlin-36002", "rating": 4.8, "reviews": 575, "place_id": "ChIJSc9zwIG_yIARy2rUfrNzqgk", "latitude": 36.1605031, "longitude": -115.3188741, "care_type": "Chiropractor"}, {"name": "LifeClinic of Summerlin, NV", "address": "10721 W Charleston Blvd, Las Vegas, NV 89135", "city": "Las Vegas", "phone": "+1 702-214-6158", "website": "https://lifeclinics.us/locationssummerlin-nevada-lifeclinic-chiropractic-rehabilitation-2", "rating": 4.9, "reviews": 62, "place_id": "ChIJ_8CE16q_yIARMH-wiJM8Imk", "latitude": 36.1581722, "longitude": -115.327743, "care_type": "Chiropractor"}, {"name": "Spinal Care of Nevada - Summerlin", "address": "1930 Village Center Cir H11, Las Vegas, NV 89134", "city": "Las Vegas", "phone": "+1 702-566-4673", "website": "https://drdevin.com/", "rating": 4.9, "reviews": 489, "place_id": "ChIJ2xZ-_KC4yIARXhRd5Y6s4Iw", "latitude": 36.194415, "longitude": -115.3049981, "care_type": "Chiropractor"}, {"name": "Southern Nevada Chiropractic Car Accident Treatment Centers", "address": "7664 W Lake Mead Blvd # 101, Las Vegas, NV 89128", "city": "Las Vegas", "phone": "+1 702-688-8540", "website": "https://lasvegascaraccidenttreatment.com/", "rating": 4.9, "reviews": 79, "place_id": "ChIJJ1WTo8fByIARI59hbNrcmSA", "latitude": 36.1965369, "longitude": -115.2620649, "care_type": "Chiropractor"}, {"name": "Red Rock Chiropractic & Wellness Center", "address": "11035 Lavender Hill Dr Suite160-117, Las Vegas, NV 89135", "city": "Las Vegas", "phone": "+1 702-880-5335", "website": "http://redrockchiropractic.com/%3Futm_source%3DGMBlisting%26utm_medium%3Dorganic", "rating": 4.0, "reviews": 27, "place_id": "ChIJDWWAScLDyIARYt211ZJ5ny4", "latitude": 36.1449096, "longitude": -115.3344096, "care_type": "Chiropractor"}, {"name": "ChiropracTed Summerlin", "address": "1081 S Cimarron Rd, Las Vegas, NV 89145", "city": "Las Vegas", "phone": "+1 702-903-5177", "website": "http://www.chiropracted.com/", "rating": 4.2, "reviews": 5, "place_id": "ChIJU_EPTRrByIARLz2MIHSBHfQ", "latitude": 36.1606706, "longitude": -115.2713028, "care_type": "Chiropractor"}, {"name": "Back In Motion Chiropractic", "address": "1925 Village Center Cir #120, Las Vegas, NV 89134", "city": "Las Vegas", "phone": "+1 702-476-9683", "website": "https://backinmotionlv.com/", "rating": 5.0, "reviews": 46, "place_id": "ChIJJ19wlpG_yIARgaU_uk0MTMo", "latitude": 36.1926239, "longitude": -115.3035031, "care_type": "Chiropractor"}, {"name": "Align Med Summerlin", "address": "221 N Buffalo Dr STE B, Las Vegas, NV 89145", "city": "Las Vegas", "phone": "+1 702-702-5446", "website": "https://www.myalignmed.com/", "rating": 4.7, "reviews": 64, "place_id": "ChIJv-eA1gLByIARij5LH2dGBeQ", "latitude": 36.1753035, "longitude": -115.2609311, "care_type": "Chiropractor"}, {"name": "Sienna Spine and Wellness", "address": "10180 W Tropicana Ave Suite 134, Las Vegas, NV 89147", "city": "Las Vegas", "phone": "+1 702-857-7171", "website": "https://siennaspineandwellness.com/", "rating": 5.0, "reviews": 41, "place_id": "ChIJ9RszFAG5yIARMPSE6oXjdBo", "latitude": 36.1008863, "longitude": -115.3147217, "care_type": "Chiropractor"}, {"name": "Lake Mead Chiropractic", "address": "8576 W Lake Mead Blvd, Las Vegas, NV 89128", "city": "Las Vegas", "phone": "+1 702-255-3003", "website": "https://lakemeadchiropractic.com/", "rating": 5.0, "reviews": 43, "place_id": "ChIJh6PwOQDAyIARP74knX7s-ts", "latitude": 36.200835, "longitude": -115.2805423, "care_type": "Chiropractor"}, {"name": "Sportif Chiropractic", "address": "10595 Discovery Dr #3, Las Vegas, NV 89135", "city": "Las Vegas", "phone": "+1 702-877-1200", "website": "http://www.sportifchiro.com/", "rating": 4.9, "reviews": 82, "place_id": "ChIJq6qqqlfAyIARh5JglCY9qY0", "latitude": 36.122299, "longitude": -115.3254278, "care_type": "Chiropractor"}, {"name": "Dr. Chris Robey, DC", "address": "10040 Alta Dr #140, Las Vegas, NV 89145", "city": "Las Vegas", "phone": "+1 702-990-2290", "website": "https://crovettiortho.com/dr-chris-robey/", "rating": 5.0, "reviews": 62, "place_id": "ChIJ_08ie4PJyIARLVKLbVCyjk4", "latitude": 36.1698913, "longitude": -115.3131131, "care_type": "Chiropractor"}, {"name": "Living Well Chiropractic", "address": "7219 W Sahara Ave #140, Las Vegas, NV 89117", "city": "Las Vegas", "phone": "+1 702-878-2225", "website": "https://www.lwchiropractic.com/", "rating": 4.8, "reviews": 125, "place_id": "ChIJU5cP3a-_yIARIssaBCx0wak", "latitude": 36.1427, "longitude": -115.2501256, "care_type": "Chiropractor"}, {"name": "The Spine Center", "address": "7380 W Sahara Ave # 100, Las Vegas, NV 89117", "city": "Las Vegas", "phone": "+1 702-252-7246", "website": "https://www.spinecenterlv.com/", "rating": 4.9, "reviews": 475, "place_id": "ChIJnzhOJMLAyIARxxbGPc8Qm-8", "latitude": 36.1441417, "longitude": -115.2538573, "care_type": "Chiropractor"}, {"name": "Southern Nevada Chiropractic Car Accident Treatment Centers", "address": "9670 W Tropicana Ave #110, Las Vegas, NV 89147", "city": "Las Vegas", "phone": "+1 702-688-8540", "website": "https://lasvegascaraccidenttreatment.com/", "rating": 5.0, "reviews": 355, "place_id": "ChIJ-XKgErm4yIAR4512rQrnED8", "latitude": 36.1008389, "longitude": -115.3033139, "care_type": "Chiropractor"}, {"name": "Anchor Chiropractic", "address": "4175 S Riley St #105, Las Vegas, NV 89147", "city": "Las Vegas", "phone": "+1 702-778-8664", "website": "http://www.your-anchor.com/", "rating": 4.9, "reviews": 367, "place_id": "ChIJN_ujfr24yIAR781_uPdeRy4", "latitude": 36.1136949, "longitude": -115.2842809, "care_type": "Chiropractor"}, {"name": "Dr. Margaret R Colucci", "address": "2085 Village Center Cir #110, Las Vegas, NV 89134", "city": "Las Vegas", "phone": "+1 702-880-5335", "website": "http://redrockchiropractic.com/", "rating": 5.0, "reviews": 5, "place_id": "ChIJp1m5XMLDyIARkhQmjZILPbY", "latitude": 36.190705, "longitude": -115.3034434, "care_type": "Chiropractor"}, {"name": "Dr. Terry Akers, DC", "address": "2931 N Tenaya Wy #106, Las Vegas, NV 89128", "city": "Las Vegas", "phone": "+1 702-822-1212", "website": "", "rating": 4.6, "reviews": 51, "place_id": "ChIJu9sqB5vqyIARSXzYKDvkFT8", "latitude": 36.2145802, "longitude": -115.2508634, "care_type": "Chiropractor"}, {"name": "Vitality Family Chiropractic", "address": "Parking lot, 1171 S Buffalo Dr, Las Vegas, NV 89117", "city": "Las Vegas", "phone": "+1 702-425-9998", "website": "https://www.chirovitalitylv.com/", "rating": 4.8, "reviews": 16, "place_id": "ChIJK7R_iozAyIARW0JPWZ7v9p4", "latitude": 36.157734, "longitude": -115.263004, "care_type": "Chiropractor"}, {"name": "The Las Vegas Chiropractor", "address": "1500 E Tropicana Ave Suite 102, Las Vegas, NV 89119", "city": "Las Vegas", "phone": "+1 725-247-1531", "website": "http://www.thelasvegaschiro.com/", "rating": 5.0, "reviews": 845, "place_id": "ChIJq2DF2V1LBmMRtEZ27uIv0cA", "latitude": 36.1014013, "longitude": -115.132636, "care_type": "Chiropractor"}, {"name": "Dr. Devin Luzod", "address": "1930 Village Center Cir Ste 11, Las Vegas, NV 89134", "city": "Las Vegas", "phone": "+1 702-566-4673", "website": "https://drdevin.com/", "rating": 5.0, "reviews": 2, "place_id": "ChIJWSemP-C_yIARxYUyrLc-hoo", "latitude": 36.1938176, "longitude": -115.3058135, "care_type": "Chiropractor"}, {"name": "Chiropractic Healing Center", "address": "7250 Peak Dr #106, Las Vegas, NV 89128", "city": "Las Vegas", "phone": "+1 702-215-2090", "website": "https://www.chirohealinglv.com/", "rating": 4.9, "reviews": 34, "place_id": "ChIJ7Zn29ZzqyIARui1pY1mTYoI", "latitude": 36.21143, "longitude": -115.2512059, "care_type": "Chiropractor"}, {"name": "Vegas Family Chiropractic", "address": "9630 W Skye Canyon Park Dr #160, Las Vegas, NV 89166", "city": "Las Vegas", "phone": "+1 702-209-2722", "website": "http://www.vegasfamilychiropractic.com/", "rating": 4.8, "reviews": 92, "place_id": "ChIJgWorOLTsyIARNlokRaswInw", "latitude": 36.3157074, "longitude": -115.3065534, "care_type": "Chiropractor"}, {"name": "Southern Nevada Chiropractic Car Accident Treatment Centers", "address": "4750 W Sahara Ave #28, Las Vegas, NV 89102", "city": "Las Vegas", "phone": "+1 702-688-8540", "website": "https://lasvegascaraccidenttreatment.com/", "rating": 5.0, "reviews": 291, "place_id": "ChIJMz7VLDXByIARNaObvwJkoU8", "latitude": 36.1455069, "longitude": -115.2066085, "care_type": "Chiropractor"}, {"name": "West Charleston Chiropractic Dr. Kipling G. Hansen", "address": "6212 W Charleston Blvd # 100, Las Vegas, NV 89146", "city": "Las Vegas", "phone": "+1 702-877-6767", "website": "http://www.drhansenlasvegas.com/", "rating": 4.8, "reviews": 25, "place_id": "ChIJnbAdchvByIARBL8AuI1kw4Q", "latitude": 36.159498, "longitude": -115.229287, "care_type": "Chiropractor"}, {"name": "Dr. John Fitzgerald", "address": "900 S Pavilion Center Dr, Las Vegas, NV 89135", "city": "Las Vegas", "phone": "+1 702-372-5195", "website": "https://drjohnfitzgerald.com/contact-us/", "rating": 5.0, "reviews": 9, "place_id": "ChIJq6raFKq4yIAR1hMFoaek3Q8", "latitude": 36.161078, "longitude": -115.3296337, "care_type": "Chiropractor"}, {"name": "Canyon Lake Chiropractic and Physical Therapy", "address": "2980 S Jones Blvd Suite C, Las Vegas, NV 89146", "city": "Las Vegas", "phone": "+1 702-256-2225", "website": "https://canyonlakechiropracticandphysicaltherapy.com/", "rating": 4.9, "reviews": 251, "place_id": "ChIJRwYdB5fAyIARV2f98scrlRQ", "latitude": 36.1353741, "longitude": -115.2245551, "care_type": "Chiropractor"}, {"name": "Holistic Synergy", "address": "Great American Plaza, 8350 W Sahara Ave Suite 250, Las Vegas, NV 89117", "city": "Las Vegas", "phone": "+1 702-240-0012", "website": "https://drtinochiropractic.com/", "rating": 5.0, "reviews": 106, "place_id": "ChIJmyfy1SLAyIARmCD-uAxgJP8", "latitude": 36.14540849999999, "longitude": -115.2734328, "care_type": "Chiropractor"}, {"name": "Q Wellness & Family Chiropractic", "address": "5980 S Durango Dr #113-114, Las Vegas, NV 89113", "city": "Las Vegas", "phone": "+1 702-858-8824", "website": "https://qwellnesscenters.com/", "rating": 5.0, "reviews": 332, "place_id": "ChIJY5dKwbTGyIAR0gMaeRAr6Us", "latitude": 36.079927, "longitude": -115.2788738, "care_type": "Chiropractor"}, {"name": "The Neck and Back Clinics \u2013 Northwest", "address": "3430 N Buffalo Dr #110, Las Vegas, NV 89129", "city": "Las Vegas", "phone": "+1 702-255-5930", "website": "https://www.theneckandbackclinics.com/locations/northwest-las-vegas", "rating": 4.8, "reviews": 172, "place_id": "ChIJV1ajjpXqyIAR7bpzTTqngxo", "latitude": 36.22227549999999, "longitude": -115.259646, "care_type": "Chiropractor"}, {"name": "Spinal Rehabilitation Center", "address": "911 N Buffalo Dr #101, Las Vegas, NV 89128", "city": "Las Vegas", "phone": "+1 702-629-3900", "website": "https://www.spinalrc.com/locations/summerlin/", "rating": 4.9, "reviews": 166, "place_id": "ChIJEW_N96TByIARVs1g0Bl6iuE", "latitude": 36.1816598, "longitude": -115.2612496, "care_type": "Chiropractor"}, {"name": "Active Body Chiropractic", "address": "8945 W Post Rd # 105, Las Vegas, NV 89148", "city": "Las Vegas", "phone": "+1 702-254-1222", "website": "http://www.activebodyvegas.com/", "rating": 4.9, "reviews": 56, "place_id": "ChIJvY1s3H64yIARMV05qRl655Q", "latitude": 36.072989, "longitude": -115.287194, "care_type": "Chiropractor"}, {"name": "Southern Nevada Chiropractic Car Accident Treatment Centers", "address": "7280 W Azure Dr #130, Las Vegas, NV 89130", "city": "Las Vegas", "phone": "+1 702-688-8540", "website": "http://www.lasvegascaraccidenttreatment.com/", "rating": 5.0, "reviews": 51, "place_id": "ChIJeXzSt6HryIAR2GL2tAVL2AA", "latitude": 36.2744822, "longitude": -115.2536402, "care_type": "Chiropractor"}, {"name": "Greenawalt Chiropractic", "address": "7500 W Sahara Ave, Las Vegas, NV 89117", "city": "Las Vegas", "phone": "+1 702-363-8989", "website": "https://greenawaltchirolv.com/", "rating": 4.7, "reviews": 102, "place_id": "ChIJSZ4668HAyIAR03XhuncE_Ao", "latitude": 36.1441117, "longitude": -115.2554435, "care_type": "Chiropractor"}, {"name": "Centennial Wellness Center", "address": "1928 Rock Springs Dr, Las Vegas, NV 89128", "city": "Las Vegas", "phone": "+1 702-458-2225", "website": "http://centennialwellnesscenter.com/", "rating": 5.0, "reviews": 2, "place_id": "ChIJgShAgXnByIARvNn1NOPT4L0", "latitude": 36.1947191, "longitude": -115.2461524, "care_type": "Chiropractor"}, {"name": "Grimes Family Chiropractic", "address": "5785 Centennial Center Blvd STE 140, Las Vegas, NV 89149", "city": "Las Vegas", "phone": "+1 702-233-2372", "website": "https://www.grimeschiro.com/%3Futm_source%3DGBP%26utm_medium%3Dorganic", "rating": 5.0, "reviews": 292, "place_id": "ChIJw4SV4z_ryIAR2kBUVY6E5mA", "latitude": 36.2650589, "longitude": -115.2604028, "care_type": "Chiropractor"}, {"name": "Gerber Chiropractic", "address": "2851 N Tenaya Wy, Las Vegas, NV 89128", "city": "Las Vegas", "phone": "+1 702-878-0056", "website": "https://drsgerber.com/", "rating": 4.6, "reviews": 26, "place_id": "ChIJ_QFTvvzAyIARXJglPtTNgOM", "latitude": 36.2126166, "longitude": -115.2502026, "care_type": "Chiropractor"}, {"name": "Akers Chiropractic", "address": "2931 N Tenaya Wy, Las Vegas, NV 89128", "city": "Las Vegas", "phone": "+1 702-822-1212", "website": "https://www.dr-akers.com/", "rating": 4.8, "reviews": 127, "place_id": "ChIJEYXVBpvqyIARkJ6Ba719NKA", "latitude": 36.2147271, "longitude": -115.2507974, "care_type": "Chiropractor"}, {"name": "The Neck and Back Clinics \u2013 Southwest", "address": "8678 Spring Mountain Rd #130, Las Vegas, NV 89117", "city": "Las Vegas", "phone": "+1 702-384-0000", "website": "https://www.theneckandbackclinics.com/locations/southwest-las-vegas", "rating": 4.9, "reviews": 126, "place_id": "ChIJD9rWFKnAyIARpzT-niwHXIc", "latitude": 36.1275717, "longitude": -115.2808286, "care_type": "Chiropractor"}, {"name": "Integrated Pain Relief Center - Lake Mead", "address": "7312 W Cheyenne Ave # 6, Las Vegas, NV 89129", "city": "Las Vegas", "phone": "+1 702-948-2520", "website": "https://integratedpainreliefcenter.com/", "rating": 5.0, "reviews": 43, "place_id": "ChIJZykgoGfByIARBnC0gSrJXso", "latitude": 36.21891129999999, "longitude": -115.2528758, "care_type": "Chiropractor"}, {"name": "Canyon Lake Chiropractic and Physical Therapy", "address": "4975 S Fort Apache Rd #103, Las Vegas, NV 89148", "city": "Las Vegas", "phone": "+1 702-254-8675", "website": "https://canyonlakechiropracticandphysicaltherapy.com/", "rating": 5.0, "reviews": 174, "place_id": "ChIJrTsZIebHyIARMzMjV0efwyg", "latitude": 36.0983393, "longitude": -115.2990705, "care_type": "Chiropractor"}, {"name": "Heron Chiropractic Center", "address": "Parking lot, 7465 W Lake Mead Blvd #227, Las Vegas, NV 89128", "city": "Las Vegas", "phone": "+1 702-804-0044", "website": "https://sites.google.com/view/drbobheron", "rating": 4.6, "reviews": 10, "place_id": "ChIJb6YfCZvqyIARCm0_TjAcIPs", "latitude": 36.194953, "longitude": -115.2563, "care_type": "Chiropractor"}, {"name": "Chiropractic Healing Center. Dr Cheree Sandness Johnson", "address": "7250 Peak Dr #106, Las Vegas, NV 89128", "city": "Las Vegas", "phone": "+1 702-215-2090", "website": "https://www.chirohealinglv.com/about-us/meet-the-doctors/", "rating": 5.0, "reviews": 15, "place_id": "ChIJWxkxi5zqyIARVD5Cv3memQA", "latitude": 36.21143, "longitude": -115.2512059, "care_type": "Chiropractor"}, {"name": "Ronald L. Greenawalt, DC", "address": "7500 W Sahara Ave, Las Vegas, NV 89117", "city": "Las Vegas", "phone": "+1 702-363-8989", "website": "http://www.greenawaltchirolv.com/", "rating": 4.4, "reviews": 13, "place_id": "ChIJSZ4668HAyIARUcDERa8OZi0", "latitude": 36.144094, "longitude": -115.255454, "care_type": "Chiropractor"}, {"name": "MacKay Chiropractic", "address": "7450 W Cheyenne Ave Ste 114, Las Vegas, NV 89129", "city": "Las Vegas", "phone": "+1 702-655-2999", "website": "", "rating": 5.0, "reviews": 16, "place_id": "ChIJq9_dLpbqyIAR6rIdw5cC_u8", "latitude": 36.2189836, "longitude": -115.2586048, "care_type": "Chiropractor"}, {"name": "Hernandez Chiropractic", "address": "2829 S Rainbow Blvd, Las Vegas, NV 89146", "city": "Las Vegas", "phone": "+1 702-478-6388", "website": "http://www.hernandezchirolv.com/", "rating": 5.0, "reviews": 262, "place_id": "ChIJpY-uzejByIARfZgc51vH9qo", "latitude": 36.1378171, "longitude": -115.2434493, "care_type": "Chiropractor"}, {"name": "Excelsia Injury Care Summerlin", "address": "241 N Buffalo Dr # 100, Las Vegas, NV 89145", "city": "Las Vegas", "phone": "+1 702-852-1390", "website": "https://www.excelsiainjurycare.com/location/summerlin/", "rating": 5.0, "reviews": 8, "place_id": "ChIJf_03o6PByIAR6F89P049hs8", "latitude": 36.1756328, "longitude": -115.2602785, "care_type": "Chiropractor"}, {"name": "The Las Vegas Pain and Wellness Center", "address": "5650 W Flamingo Rd A, Las Vegas, NV 89103", "city": "Las Vegas", "phone": "+1 702-232-4610", "website": "http://www.lvpwc.com/", "rating": 4.8, "reviews": 54, "place_id": "ChIJqf9n4mO_yIARL9YANrLLUp0", "latitude": 36.1151895, "longitude": -115.2189064, "care_type": "Chiropractor"}, {"name": "Matthew K. Mortensen, DC", "address": "8576 W Lake Mead Blvd, Las Vegas, NV 89128", "city": "Las Vegas", "phone": "+1 702-255-3003", "website": "https://lakemeadchiropractic.com/", "rating": 4.5, "reviews": 8, "place_id": "ChIJh6PwOQDAyIARoMg-z_VFRuA", "latitude": 36.2008512, "longitude": -115.2805678, "care_type": "Chiropractor"}, {"name": "The Joint Chiropractic", "address": "5060 S Fort Apache Rd #100, Las Vegas, NV 89148", "city": "Las Vegas", "phone": "+1 702-803-9250", "website": "https://www.thejoint.com/nevada/las-vegas/tropicana-beltway-36009", "rating": 4.8, "reviews": 418, "place_id": "ChIJueRYOL24yIARwF3yRLUwAto", "latitude": 36.0966477, "longitude": -115.2967382, "care_type": "Chiropractor"}, {"name": "Galla Chiropractic Group", "address": "9330 W Flamingo Rd #112a, Las Vegas, NV 89147", "city": "Las Vegas", "phone": "+1 702-932-6100", "website": "https://www.gallachiropractic.com/", "rating": 5.0, "reviews": 528, "place_id": "ChIJKx8sQK24yIAR-miAP76vXuM", "latitude": 36.1160018, "longitude": -115.2938986, "care_type": "Chiropractor"}, {"name": "A Touch Above Chiropractic", "address": "7945 W Sahara Ave Suite 206, Las Vegas, NV 89117", "city": "Las Vegas", "phone": "+1 702-233-1100", "website": "https://www.atouchabovechiropractic.com/%3Futm_source%3DGBP%26utm_medium%3Dorganic", "rating": 4.7, "reviews": 15, "place_id": "ChIJsaCi17PHyIARARoJpFxyaqY", "latitude": 36.1423831, "longitude": -115.2646735, "care_type": "Chiropractor"}, {"name": "Dr. John T. Kenny", "address": "7398 Smoke Ranch Rd #290, Las Vegas, NV 89128", "city": "Las Vegas", "phone": "+1 702-254-0766", "website": "http://nwhealthgroup.com/", "rating": 5.0, "reviews": 2, "place_id": "ChIJ_dBp3iDAyIARU8ugRt45Yv8", "latitude": 36.2037874, "longitude": -115.2556977, "care_type": "Chiropractor"}, {"name": "Nevada Chiropractic Rehabilitation Center", "address": "3900 W Charleston Blvd #140, Las Vegas, NV 89102", "city": "Las Vegas", "phone": "+1 702-310-5528", "website": "http://www.nevadachiropracticrc.com/", "rating": 4.8, "reviews": 6, "place_id": "ChIJTbMDomDByIARCJBpMLNlDGQ", "latitude": 36.159545, "longitude": -115.1928161, "care_type": "Chiropractor"}, {"name": "Chiropractic Nevada", "address": "1928 E Sahara Ave, Las Vegas, NV 89104", "city": "Las Vegas", "phone": "+1 702-457-4727", "website": "https://chirobd.nv.gov/", "rating": 4.8, "reviews": 22, "place_id": "ChIJjX5BYpfEyIARQIaDjfhEfsw", "latitude": 36.1447181, "longitude": -115.1217041, "care_type": "Chiropractor"}, {"name": "Vida Chiropractic Injury Clinic and Wellness Center Dr. Cesar Quintana", "address": "2352 E Bonanza Rd, Las Vegas, NV 89101", "city": "Las Vegas", "phone": "+1 702-678-8888", "website": "http://www.vidavegaschiro.com/", "rating": 5.0, "reviews": 57, "place_id": "ChIJmTcug4LDyIAReTy0giamQmg", "latitude": 36.1726699, "longitude": -115.1178319, "care_type": "Chiropractor"}, {"name": "Flamingo Chiropractic", "address": "3585 E Flamingo Rd, Las Vegas, NV 89121", "city": "Las Vegas", "phone": "+1 702-435-8900", "website": "https://flamingochiro.com/", "rating": 4.8, "reviews": 117, "place_id": "ChIJUaFTetTayIARhZFIUzHkZos", "latitude": 36.1148719, "longitude": -115.0970306, "care_type": "Chiropractor"}, {"name": "Tony Vu", "address": "10595 Discovery Dr #3, Las Vegas, NV 89135", "city": "Las Vegas", "phone": "+1 702-877-1200", "website": "https://www.sportifchiro.com/", "rating": 5.0, "reviews": 2, "place_id": "ChIJb292gSa_yIARxUECvSMsj9c", "latitude": 36.1221632, "longitude": -115.3254326, "care_type": "Chiropractor"}, {"name": "C1 Chiropractic", "address": "2625 S Rainbow Blvd Ste D106, Las Vegas, NV 89146", "city": "Las Vegas", "phone": "+1 702-333-1993", "website": "https://www.c1chirocare.com/", "rating": 5.0, "reviews": 17, "place_id": "ChIJfasi7tvAyIAR-XH5EekUI1M", "latitude": 36.141328, "longitude": -115.2430321, "care_type": "Chiropractor"}, {"name": "MaxHealth Center - Spring Valley", "address": "5506 S Fort Apache Rd Suite 110, Las Vegas, NV 89148", "city": "Las Vegas", "phone": "+1 702-898-3311", "website": "https://www.maxhealthlv.com/spring-valley/", "rating": 5.0, "reviews": 286, "place_id": "ChIJj5yfJJC4yIARlNFfK6SlsGs", "latitude": 36.0884137, "longitude": -115.2964312, "care_type": "Chiropractor"}, {"name": "Spring Mountain Chiropractic Physicians", "address": "6330 Spring Mountain Rd C, Las Vegas, NV 89146", "city": "Las Vegas", "phone": "+1 702-873-2261", "website": "https://springmtnmed.com/services/chiropractic/", "rating": 5.0, "reviews": 2, "place_id": "ChIJJSCNcKfGyIARd5Qy0x4s1sY", "latitude": 36.1259924, "longitude": -115.2305057, "care_type": "Chiropractor"}, {"name": "Vegas Valley Chiropractic", "address": "3230 E Charleston Blvd #109, Las Vegas, NV 89104", "city": "Las Vegas", "phone": "+1 702-478-6914", "website": "https://vegasvalleychiro.com/", "rating": 5.0, "reviews": 134, "place_id": "ChIJnSKS3qnEyIARi5Qgnsc6q58", "latitude": 36.159288, "longitude": -115.1016277, "care_type": "Chiropractor"}, {"name": "Central City Chiropractic", "address": "2650 S Maryland Pkwy Suite A-2, Las Vegas, NV 89109", "city": "Las Vegas", "phone": "+1 702-735-0000", "website": "https://sut18003.wixsite.com/centralcitychiroprac", "rating": 5.0, "reviews": 15, "place_id": "ChIJW5HYBobEyIARBDgQz-4LvjE", "latitude": 36.1420511, "longitude": -115.1352208, "care_type": "Chiropractor"}, {"name": "Power Up Chiropractic Center", "address": "8960 W Tropicana Ave # 500, Las Vegas, NV 89147", "city": "Las Vegas", "phone": "+1 702-979-6264", "website": "http://powerupchiropractic.com/", "rating": 5.0, "reviews": 185, "place_id": "ChIJZeH9HaG4yIAR40XsC33Vc1M", "latitude": 36.1008948, "longitude": -115.28688, "care_type": "Chiropractor"}, {"name": "Rivas Chiropractic PLLC", "address": "4495 W Hacienda Ave Suite 3, Las Vegas, NV 89118", "city": "Las Vegas", "phone": "+1 702-721-7624", "website": "http://rivaschiro.com/", "rating": 5.0, "reviews": 33, "place_id": "ChIJ__-Pfw_FyIARhr-1bxa0JQA", "latitude": 36.0932306, "longitude": -115.201426, "care_type": "Chiropractor"}, {"name": "Las Vegas Valley Chiropractic", "address": "546 N Eastern Ave #150, Las Vegas, NV 89101", "city": "Las Vegas", "phone": "+1 702-384-3367", "website": "", "rating": 5.0, "reviews": 1, "place_id": "ChIJ8WCDdZ_EyIARCEkbpyIg25s", "latitude": 36.1718544, "longitude": -115.1151912, "care_type": "Chiropractor"}, {"name": "Valley Spine & Health Center", "address": "9075 S Eastern Ave #4, Las Vegas, NV 89123", "city": "Las Vegas", "phone": "+1 702-312-7920", "website": "http://valleyspine.net/", "rating": 4.6, "reviews": 141, "place_id": "ChIJ3ZuYOkjOyIARbXgXbiZ6B0k", "latitude": 36.0252424, "longitude": -115.1192699, "care_type": "Chiropractor"}, {"name": "Alliance Chiropractic Group", "address": "5288 Spring Mountain Rd #200, Las Vegas, NV 89146", "city": "Las Vegas", "phone": "+1 702-826-2298", "website": "https://www.facebook.com/AllianceChiro168/", "rating": 5.0, "reviews": 1, "place_id": "ChIJ-QK_LcjGyIARgQCl2ZByOJQ", "latitude": 36.1265291, "longitude": -115.2132639, "care_type": "Chiropractor"}, {"name": "Canyon Chiropractic Clinic", "address": "263 Spring Valley Pkwy Ste E, Spring Creek, NV 89815", "city": "Spring Creek", "phone": "+1 775-753-9395", "website": "https://canyoncc.net/", "rating": 5.0, "reviews": 26, "place_id": "ChIJs7IBm3f_pYAR2MnLFm9LDKs", "latitude": 40.78620129999999, "longitude": -115.6768507, "care_type": "Chiropractor"}, {"name": "Campbell Chiropractic Wellness Center", "address": "4955 S Durango Dr #106, Las Vegas, NV 89113", "city": "Las Vegas", "phone": "+1 702-734-8844", "website": "http://campbellchiropracticwellness.com/", "rating": 4.9, "reviews": 100, "place_id": "ChIJP6QDQHzHyIARKOQUumcrWwc", "latitude": 36.0992968, "longitude": -115.2799616, "care_type": "Chiropractor"}, {"name": "Halo Wellness Clinic", "address": "5920 S Rainbow Blvd Suite 5, Las Vegas, NV 89118", "city": "Las Vegas", "phone": "+1 702-917-1716", "website": "http://halochiro.org/", "rating": 5.0, "reviews": 205, "place_id": "ChIJiW6JLHm4yIARvDEF2EhOQd8", "latitude": 36.0811614, "longitude": -115.2421264, "care_type": "Chiropractor"}, {"name": "NUYU Chiropractic", "address": "6965 S Rainbow Blvd #110, Las Vegas, NV 89118", "city": "Las Vegas", "phone": "+1 702-722-2225", "website": "https://www.nuyuchiropractic.com/", "rating": 4.9, "reviews": 14, "place_id": "ChIJ_bcONsnHyIARxPpBe_VXQFc", "latitude": 36.0622938, "longitude": -115.2432094, "care_type": "Chiropractor"}, {"name": "Buffalo Wellness Chiropractic Care", "address": "6420 Spring Mountain Rd #18, Las Vegas, NV 89146", "city": "Las Vegas", "phone": "+1 702-898-8300", "website": "https://buffaloinjurylv.com/%3Futm_source%3Dgmb%26utm_campaign%3Ddispenza", "rating": 5.0, "reviews": 14, "place_id": "ChIJyyi-NNTGyIARz6SbzqngmGI", "latitude": 36.1259024, "longitude": -115.232111, "care_type": "Chiropractor"}, {"name": "U&I Chiropractic", "address": "5597 S Rainbow Blvd #140, Las Vegas, NV 89118", "city": "Las Vegas", "phone": "+1 702-665-5200", "website": "", "rating": 5.0, "reviews": 42, "place_id": "ChIJ2SZVDQzHyIARv0vyDXdq43A", "latitude": 36.0875159, "longitude": -115.243704, "care_type": "Chiropractor"}, {"name": "Daniel C. Lai, DC", "address": "6330 Spring Mountain Rd C, Las Vegas, NV 89146", "city": "Las Vegas", "phone": "+1 702-873-2261", "website": "", "rating": 5.0, "reviews": 4, "place_id": "ChIJJSCNcKfGyIAR-WnhMtNDW3g", "latitude": 36.125972, "longitude": -115.2302488, "care_type": "Chiropractor"}, {"name": "Matthew G. Roach, DC", "address": "5650 W Flamingo Rd A, Las Vegas, NV 89103", "city": "Las Vegas", "phone": "+1 702-871-3420", "website": "", "rating": 4.8, "reviews": 20, "place_id": "ChIJE3Cbh8HGyIARW9S2pn5mzpA", "latitude": 36.1151989, "longitude": -115.2188815, "care_type": "Chiropractor"}, {"name": "Back In Action Chiropractic, Dr. Michelle Binkowski, DC", "address": "5552 S Fort Apache Rd # 110, Las Vegas, NV 89148", "city": "Las Vegas", "phone": "+1 702-970-4325", "website": "https://backinactionchiropracticlv.com/", "rating": 5.0, "reviews": 52, "place_id": "ChIJx3RK_X-5yIAR7fF3LsJ0uRE", "latitude": 36.0877649, "longitude": -115.2969392, "care_type": "Chiropractor"}, {"name": "Arthur G. Rossi Jr, DC", "address": "4815 W Russell Rd #6F, Las Vegas, NV 89118", "city": "Las Vegas", "phone": "+1 702-982-1112", "website": "http://www.drartrossi.com/", "rating": 4.9, "reviews": 41, "place_id": "ChIJw9k9G-bDyIARq12Rf27dSX4", "latitude": 36.0857311, "longitude": -115.2064232, "care_type": "Chiropractor"}, {"name": "Southern Nevada Chiropractic Car Accident Treatment Centers", "address": "7935 Blue Diamond Rd #102, Las Vegas, NV 89178", "city": "Las Vegas", "phone": "+1 702-688-8540", "website": "https://www.lasvegascaraccidenttreatment.com/", "rating": 5.0, "reviews": 70, "place_id": "ChIJBc5ImFLJyIARbRYf4wF6w0Q", "latitude": 36.0194358, "longitude": -115.2638168, "care_type": "Chiropractor"}, {"name": "Unlimited Wellness Institute", "address": "6141 S Rainbow Blvd suite 115 suite 115, Las Vegas, NV 89118", "city": "Las Vegas", "phone": "+1 702-920-6556", "website": "http://www.johnflorendo.com/", "rating": 5.0, "reviews": 56, "place_id": "ChIJZ50IN67HyIARLEykYeUTrj4", "latitude": 36.0776223, "longitude": -115.2445376, "care_type": "Chiropractor"}, {"name": "Wise Chiropractic, Inc.", "address": "6332 S Rainbow Blvd #120, Las Vegas, NV 89118", "city": "Las Vegas", "phone": "+1 702-248-6292", "website": "http://www.wisechiropractor.com/", "rating": 5.0, "reviews": 13, "place_id": "ChIJs1kgN6nHyIARHC4O2mtUrLM", "latitude": 36.0735454, "longitude": -115.2420633, "care_type": "Chiropractor"}, {"name": "Scott Forbes, D.C.,CDL/DOT Medical Examiner", "address": "2626 S Rainbow Blvd Suite 105, Las Vegas, NV 89146", "city": "Las Vegas", "phone": "+1 702-877-0707", "website": "https://www.forbeschiropracticlasvegas.com/dot-physicals/", "rating": 4.7, "reviews": 75, "place_id": "ChIJIQJyjmDByIAR3Dw_6q70FE4", "latitude": 36.1414726, "longitude": -115.2422623, "care_type": "Chiropractor"}, {"name": "MaxHealth Center - Jones", "address": "2610 S Jones Blvd, Las Vegas, NV 89146", "city": "Las Vegas", "phone": "+1 702-898-3311", "website": "http://www.maxhealthlv.com/", "rating": 4.8, "reviews": 54, "place_id": "ChIJCdsPesLDyIAR2KP4ntOh8mI", "latitude": 36.1420505, "longitude": -115.2247048, "care_type": "Chiropractor"}, {"name": "Spinal Rehabilitation Center", "address": "2626 S Rainbow Blvd Ste 107 and 109, Las Vegas, NV 89146", "city": "Las Vegas", "phone": "+1 702-675-4500", "website": "https://www.spinalrc.com/locations/south-rainbow/%3Futm_source%3DGMBSocialClimb%26utm_medium%3DSpinalRehabilitationCenter", "rating": 4.9, "reviews": 202, "place_id": "ChIJ9Qn92NvAyIARSlweVhxC2_0", "latitude": 36.1416877, "longitude": -115.242379, "care_type": "Chiropractor"}, {"name": "CHIRO MAMAS", "address": "Bottega Exchange, 6675 S. TENAYA WAY, SUITE #200 OFFICE #19, 6675 S Tenaya Way Bldg, Las Vegas, NV 89113", "city": "Las Vegas", "phone": "+1 725-250-2699", "website": "http://www.chiro-mamas.com/", "rating": 4.9, "reviews": 33, "place_id": "ChIJo3m3N2TDwoARBY268nY6JnA", "latitude": 36.067014, "longitude": -115.2521753, "care_type": "Chiropractor"}, {"name": "Complete Care 3.0", "address": "3935 S Durango Dr c1, Las Vegas, NV 89147", "city": "Las Vegas", "phone": "+1 725-200-2273", "website": "https://completecare3.com/", "rating": 5.0, "reviews": 104, "place_id": "ChIJgfsw9q7ByIAR5wrF5kEHxvE", "latitude": 36.119865, "longitude": -115.2793477, "care_type": "Chiropractor"}, {"name": "Schleusner Chiropractic", "address": "2091 E Sahara Ave, Las Vegas, NV 89104", "city": "Las Vegas", "phone": "+1 702-732-4044", "website": "https://www.schleusnerchiropractic.com/", "rating": 5.0, "reviews": 556, "place_id": "ChIJnSXi63bDyIAR1Kyo5JjUsqs", "latitude": 36.1440188, "longitude": -115.1235836, "care_type": "Chiropractor"}, {"name": "Wachs Chiropractic, DOT, and CDL Physicals", "address": "5775 S Rainbow Blvd #103, Las Vegas, NV 89118", "city": "Las Vegas", "phone": "+1 702-562-8800", "website": "https://dotnearme.com/", "rating": 4.8, "reviews": 16, "place_id": "ChIJBxp6nWDHyIARb1eWYFgLN58", "latitude": 36.0835743, "longitude": -115.2431293, "care_type": "Chiropractor"}, {"name": "Active Health Chiropractic", "address": "7445 S Durango Dr #105, Las Vegas, NV 89113", "city": "Las Vegas", "phone": "+1 702-453-5000", "website": "http://www.activehealthlasvegas.com/", "rating": 4.7, "reviews": 35, "place_id": "ChIJeaNzXvfHyIAR8T2GjkwMLLU", "latitude": 36.0530091, "longitude": -115.2804922, "care_type": "Chiropractor"}, {"name": "NuSpine Chiropractic", "address": "9435 W Tropicana Ave Ste 107, Las Vegas, NV 89147", "city": "Las Vegas", "phone": "+1 702-477-0000", "website": "https://nuspine.com/locations/tropicana-west", "rating": 4.8, "reviews": 311, "place_id": "ChIJJYbmHEm5yIARfgUYXc7yUIQ", "latitude": 36.0996613, "longitude": -115.3001808, "care_type": "Chiropractor"}, {"name": "Rising Path Chiropractic", "address": "5980 S Durango Dr #113-114, Las Vegas, NV 89113", "city": "Las Vegas", "phone": "+1 702-773-2340", "website": "http://risingpathchiropractic.com/", "rating": 5.0, "reviews": 33, "place_id": "ChIJlwIHHvrHyIAR25F3wO9Aib0", "latitude": 36.0798688, "longitude": -115.2788372, "care_type": "Chiropractor"}, {"name": "Weston Chiropractic", "address": "5650 W Flamingo Rd A, Las Vegas, NV 89103", "city": "Las Vegas", "phone": "+1 702-871-3420", "website": "http://chiropractor-vegas.com/", "rating": 4.5, "reviews": 17, "place_id": "ChIJE3Cbh8HGyIARez9db6jlW54", "latitude": 36.1151989, "longitude": -115.2188815, "care_type": "Chiropractor"}, {"name": "Dr Norbert Lukowski DC", "address": "5215 S Durango Dr #101, Las Vegas, NV 89113", "city": "Las Vegas", "phone": "+1 702-485-4612", "website": "", "rating": 5.0, "reviews": 21, "place_id": "ChIJW5XlXWHHyIAR36tMmDzDhQQ", "latitude": 36.0942073, "longitude": -115.2799853, "care_type": "Chiropractor"}, {"name": "Chiropractic With A Twist", "address": "8995 W Flamingo Rd Suite #115, Las Vegas, NV 89147", "city": "Las Vegas", "phone": "+1 702-518-8588", "website": "http://www.watchiropractic.com/", "rating": 4.9, "reviews": 42, "place_id": "ChIJ-aVB4WzHyIARIubeq-6Ghr0", "latitude": 36.1144588, "longitude": -115.2876136, "care_type": "Chiropractor"}, {"name": "Naeun Chiropractic Health Center", "address": "8993 W Flamingo Rd UNIT 102, Las Vegas, NV 89147", "city": "Las Vegas", "phone": "+1 702-739-9919", "website": "https://naeunvegas.com/", "rating": 5.0, "reviews": 2, "place_id": "ChIJzxb3uKu4yIARjC_XXw1kG9E", "latitude": 36.1139292, "longitude": -115.287659, "care_type": "Chiropractor"}, {"name": "L & K Chiropractic", "address": "5693 S Jones Blvd #116, Las Vegas, NV 89118", "city": "Las Vegas", "phone": "+1 702-735-0212", "website": "", "rating": 5.0, "reviews": 3, "place_id": "ChIJe7IDIgDHyIAR-1qE_LCQlh8", "latitude": 36.0862874, "longitude": -115.2261344, "care_type": "Chiropractor"}, {"name": "Don V. Vuong, DC", "address": "7445 S Durango Dr #105, Las Vegas, NV 89113", "city": "Las Vegas", "phone": "+1 702-453-5000", "website": "http://www.activehealthlasvegas.com/", "rating": 4.3, "reviews": 6, "place_id": "ChIJeaNzXvfHyIARwnHTmjoyklw", "latitude": 36.0528988, "longitude": -115.2802539, "care_type": "Chiropractor"}, {"name": "Spring Mountain Pain Center", "address": "6260 Spring Mountain Rd # 105, Las Vegas, NV 89146", "city": "Las Vegas", "phone": "+1 702-896-6279", "website": "", "rating": null, "reviews": 0, "place_id": "ChIJp2zOYNHGyIARjHsYUfRetSM", "latitude": 36.126429, "longitude": -115.228477, "care_type": "Chiropractor"}, {"name": "Essential Chiropractic Inc.", "address": "6376 W Spring Mountain Rd # 4D, Las Vegas, NV 89146", "city": "Las Vegas", "phone": "+1 702-300-6014", "website": "http://www.essentialchiro4u.com/", "rating": null, "reviews": 0, "place_id": "ChIJ3TiqGtTGyIARsPKFLp3euA8", "latitude": 36.1260519, "longitude": -115.2311306, "care_type": "Chiropractor"}, {"name": "Essential Chiropractic Inc.", "address": "101 S Rainbow Blvd # 22, Las Vegas, NV 89145", "city": "Las Vegas", "phone": "+1 702-888-1114", "website": "http://essentialchiro4u.com/", "rating": 5.0, "reviews": 1, "place_id": "ChIJb1TFmo3ByIARmmoNE_TaJtw", "latitude": 36.1721489, "longitude": -115.2428648, "care_type": "Chiropractor"}, {"name": "Southern Nevada Chiropractic Car Accident Treatment Centers", "address": "1701 N Green Valley Pkwy Bldg 8-A, Henderson, NV 89074", "city": "Henderson", "phone": "+1 702-688-8540", "website": "http://www.lasvegascaraccidenttreatment.com/", "rating": 5.0, "reviews": 190, "place_id": "ChIJiT77i1DRyIARlFeedZrQ2WU", "latitude": 36.0355576, "longitude": -115.0867613, "care_type": "Chiropractor"}, {"name": "Southern Nevada Chiropractic Car Accident Treatment Centers", "address": "4800 E Bonanza Rd STE 2, Las Vegas, NV 89110", "city": "Las Vegas", "phone": "+1 702-688-8540", "website": "https://lasvegascaraccidenttreatment.com/", "rating": 5.0, "reviews": 521, "place_id": "ChIJ2Zd4_pjcyIAR4EJxMEaLWA4", "latitude": 36.1742679, "longitude": -115.0685159, "care_type": "Chiropractor"}, {"name": "Pain & Injury Chiropractic Center", "address": "4815 W Russell Rd #6F, Las Vegas, NV 89118", "city": "Las Vegas", "phone": "+1 702-982-1112", "website": "http://drartrossi.com/", "rating": 5.0, "reviews": 19, "place_id": "ChIJT4Xmv_nDyIARM803PLY7L_Q", "latitude": 36.0857311, "longitude": -115.2064232, "care_type": "Chiropractor"}, {"name": "ZenFlex Auto Accident Treatment Center - Travis Hites D.C.", "address": "4955 S Durango Dr # 126, Las Vegas, NV 89113", "city": "Las Vegas", "phone": "+1 702-201-9368", "website": "http://www.zenflex.co/", "rating": 5.0, "reviews": 32, "place_id": "ChIJ0e98nWDHyIARampue5b-720", "latitude": 36.0991016, "longitude": -115.2799064, "care_type": "Chiropractor"}, {"name": "The Neck and Back Clinics \u2013 Green Valley St. Rose", "address": "2960 St Rose Pkwy #150, Henderson, NV 89052", "city": "Henderson", "phone": "+1 702-617-4598", "website": "https://www.theneckandbackclinics.com/locations/green-valley-st-rose", "rating": 4.9, "reviews": 113, "place_id": "ChIJ9XIH0WzOyIARKozAsw8gd4I", "latitude": 36.0061379, "longitude": -115.117969, "care_type": "Chiropractor"}, {"name": "Gentle Care Chiropractic", "address": "5700 Spring Mountain Rd suite c, Las Vegas, NV 89146", "city": "Las Vegas", "phone": "+1 702-320-5750", "website": "", "rating": null, "reviews": 0, "place_id": "ChIJmQgZ287GyIARU_HUS2NtEhE", "latitude": 36.1265011, "longitude": -115.2189944, "care_type": "Chiropractor"}, {"name": "Kinetik Clinic", "address": "8989 W Flamingo Rd Ste 9, Las Vegas, NV 89147", "city": "Las Vegas", "phone": "+1 702-530-6588", "website": "https://kinetikchiropractic.com/", "rating": 5.0, "reviews": 7, "place_id": "ChIJnWXZFt25yIARuFJW3w1adWs", "latitude": 36.1137787, "longitude": -115.287141, "care_type": "Chiropractor"}, {"name": "Advanced Chiropractic", "address": "Charland Square, 1231 E Charleston Blvd, Las Vegas, NV 89104", "city": "Las Vegas", "phone": "+1 702-385-5075", "website": "", "rating": 4.3, "reviews": 12, "place_id": "ChIJ-722dnnDyIARhji-QSi5eBI", "latitude": 36.1594883, "longitude": -115.1357404, "care_type": "Chiropractor"}, {"name": "Leavitt Daniel C DC", "address": "4901 W Desert Inn Rd, Las Vegas, NV 89146", "city": "Las Vegas", "phone": "", "website": "", "rating": 5.0, "reviews": 2, "place_id": "ChIJP2BvhbbGyIAR2YWC4xnlW6o", "latitude": 36.1296952, "longitude": -115.2086931, "care_type": "Chiropractor"}, {"name": "NuDisc Advanced Spinal Regeneration", "address": "7259 W Sahara Ave #110, Las Vegas, NV 89117", "city": "Las Vegas", "phone": "+1 702-659-6509", "website": "https://www.nudisc.com/", "rating": 5.0, "reviews": 1, "place_id": "ChIJ_SyjtwXHyIARvofQfgo1VQU", "latitude": 36.1425769, "longitude": -115.2511203, "care_type": "Chiropractor"}, {"name": "Sonny W. Ho, DC", "address": "3047 S Decatur Blvd, Las Vegas, NV 89102", "city": "Las Vegas", "phone": "+1 702-222-3288", "website": "", "rating": 5.0, "reviews": 7, "place_id": "ChIJY5dKwbTGyIARlAorAcQxd8c", "latitude": 36.134504, "longitude": -115.208453, "care_type": "Chiropractor"}, {"name": "James W. Campbell, DC", "address": "4955 S Durango Dr, Las Vegas, NV 89113", "city": "Las Vegas", "phone": "+1 702-734-8844", "website": "", "rating": 3.8, "reviews": 10, "place_id": "ChIJRXJ3nWDHyIARO2wozhxMlvE", "latitude": 36.0992968, "longitude": -115.2799616, "care_type": "Chiropractor"}, {"name": "Dr. Jaime Diorio", "address": "7380 W Sahara Ave # 100, Las Vegas, NV 89117", "city": "Las Vegas", "phone": "+1 702-252-7246", "website": "https://www.spinecenterlv.com/team/jaime-diorio-phillips-d-c/", "rating": 5.0, "reviews": 10, "place_id": "ChIJTXduIcLAyIARHCtVAJGzdfA", "latitude": 36.14416569999999, "longitude": -115.2538209, "care_type": "Chiropractor"}, {"name": "Apache Health Center", "address": "3555 S Fort Apache Rd #151, Las Vegas, NV 89147", "city": "Las Vegas", "phone": "+1 702-858-7800", "website": "https://www.facebook.com/ApacheHealthCenter/", "rating": 4.9, "reviews": 47, "place_id": "ChIJU76_hU-_yIARUsm4jNZULmM", "latitude": 36.124735, "longitude": -115.297985, "care_type": "Chiropractor"}, {"name": "Dr. Nancy Fallon", "address": "2725 S Jones Blvd Suite 105, Las Vegas, NV 89146", "city": "Las Vegas", "phone": "+1 702-248-4488", "website": "https://www.drfallon.com/", "rating": 5.0, "reviews": 1, "place_id": "ChIJqyenyC_ByIAR3i0TcVjOMAY", "latitude": 36.1398721, "longitude": -115.2256626, "care_type": "Chiropractor"}, {"name": "BIAC LV", "address": "5552 S Fort Apache Rd # 110, Las Vegas, NV 89148", "city": "Las Vegas", "phone": "+1 702-970-4325", "website": "http://www.backinactionchiropracticlv.com/", "rating": 5.0, "reviews": 2, "place_id": "ChIJ9TSSbju5yIAR5lav47PjGe4", "latitude": 36.0877649, "longitude": -115.2969392, "care_type": "Chiropractor"}, {"name": "Universal Chiropractic", "address": "3110 S Rainbow Blvd #101, Las Vegas, NV 89146", "city": "Las Vegas", "phone": "+1 702-821-1111", "website": "", "rating": null, "reviews": 0, "place_id": "ChIJs0-82bTByIARpnuhVij4tsw", "latitude": 36.1327402, "longitude": -115.2422107, "care_type": "Chiropractor"}, {"name": "Excel Chiropractic", "address": "9455 W Russell Rd c, Las Vegas, NV 89148", "city": "Las Vegas", "phone": "+1 702-220-7646", "website": "http://excelchiropracticlv.com/", "rating": 5.0, "reviews": 53, "place_id": "ChIJZ_PO05G4yIARzlV9nwWW81I", "latitude": 36.0846255, "longitude": -115.2992232, "care_type": "Chiropractor"}, {"name": "LV Holistic Health", "address": "8879 W Flamingo Rd #101, Las Vegas, NV 89147", "city": "Las Vegas", "phone": "+1 702-646-1150", "website": "", "rating": 4.5, "reviews": 22, "place_id": "ChIJ313X1JvByIARogKPAEpgjns", "latitude": 36.1138905, "longitude": -115.2854532, "care_type": "Chiropractor"}, {"name": "Total Body Balance", "address": "6985 W Sahara Ave, Las Vegas, NV 89117", "city": "Las Vegas", "phone": "", "website": "", "rating": null, "reviews": 0, "place_id": "ChIJ7bHIVwDByIARxxYqOHkAkg0", "latitude": 36.143745, "longitude": -115.2443925, "care_type": "Chiropractor"}, {"name": "Chiropractic Physicians of Las Vegas", "address": "6085 W Twain Ave #201, Las Vegas, NV 89103", "city": "Las Vegas", "phone": "+1 702-368-3463", "website": "https://www.finechiropractic.com/", "rating": 4.6, "reviews": 16, "place_id": "ChIJsxm8zpfGyIARutGtklgfhnQ", "latitude": 36.1213974, "longitude": -115.2244574, "care_type": "Chiropractor"}, {"name": "HealthSource Chiropractic of Henderson - Green Valley", "address": "601 Whitney Ranch Dr C-12, Henderson, NV 89014", "city": "Henderson", "phone": "+1 702-816-5111", "website": "https://www.healthsourcechiro.com/location/henderson-green-valley", "rating": 5.0, "reviews": 113, "place_id": "ChIJ1TF6FlzQyIARDYW361QyF5g", "latitude": 36.0642704, "longitude": -115.0541145, "care_type": "Chiropractor"}, {"name": "Dr. Francis Raines", "address": "2625 S Rainbow Blvd Ste D106, Las Vegas, NV 89146", "city": "Las Vegas", "phone": "+1 702-333-1993", "website": "", "rating": null, "reviews": 0, "place_id": "ChIJCZFq7NvAyIAR8iFxZLCo0DY", "latitude": 36.1420006, "longitude": -115.2434804, "care_type": "Chiropractor"}, {"name": "Spring Mountain Chiropractic", "address": "2201 E Postal Dr #9, Pahrump, NV 89048", "city": "Pahrump", "phone": "", "website": "", "rating": 4.2, "reviews": 29, "place_id": "ChIJP7SaUds5xoARLgdX0QzHv2Q", "latitude": 36.1940134, "longitude": -115.9769583, "care_type": "Chiropractor"}, {"name": "Valley Spine & Sports Institute", "address": "Ponderosa Plaza, 6823 Ponderosa Way, Las Vegas, NV 89118", "city": "Las Vegas", "phone": "+1 702-362-0112", "website": "", "rating": null, "reviews": 0, "place_id": "ChIJK--puK3HyIARKaqr96efaHU", "latitude": 36.0789681, "longitude": -115.2407689, "care_type": "Chiropractor"}, {"name": "Dr. Eric Galla", "address": "9330 W Flamingo Rd A, Las Vegas, NV 89147", "city": "Las Vegas", "phone": "+1 702-932-6100", "website": "https://www.gallachiropractic.com/", "rating": 5.0, "reviews": 1, "place_id": "ChIJVVUlNK24yIARCyugVGYYt2w", "latitude": 36.1160018, "longitude": -115.2938986, "care_type": "Chiropractor"}, {"name": "Body Resonance Myofascial Wellness Center", "address": "8724 Spanish Ridge Ave #120, Las Vegas, NV 89148", "city": "Las Vegas", "phone": "+1 702-776-8881", "website": "http://www.bodymfr.com/", "rating": 5.0, "reviews": 30, "place_id": "ChIJl6ZYTuvHyIARQhCjiAVKulg", "latitude": 36.089075, "longitude": -115.28196, "care_type": "Chiropractor"}, {"name": "Hurt Less Play More", "address": "3311 S Rainbow Blvd Ste. 112, Las Vegas, NV 89146", "city": "Las Vegas", "phone": "+1 702-465-1733", "website": "http://www.hurtlessplaymore.com/", "rating": null, "reviews": 0, "place_id": "ChIJs-NowzzAyIAR12dX7H3ZKrM", "latitude": 36.1291505, "longitude": -115.2435268, "care_type": "Chiropractor"}, {"name": "Andy J. Lam, DC", "address": "7997 W Sahara Ave, Las Vegas, NV 89117", "city": "Las Vegas", "phone": "+1 702-405-6105", "website": "http://www.meridianwellnesslv.com/", "rating": 5.0, "reviews": 2, "place_id": "ChIJZToe45XAyIARMc-c9m_9P1A", "latitude": 36.1427515, "longitude": -115.2650979, "care_type": "Chiropractor"}, {"name": "The Joint Chiropractic", "address": "9500 S Eastern Ave Suite 120, Las Vegas, NV 89123", "city": "Las Vegas", "phone": "+1 702-842-9551", "website": "https://www.thejoint.com/nevada/las-vegas/eastern-and-richmar-36005", "rating": 4.7, "reviews": 566, "place_id": "ChIJb_rPvEDOyIARz53ByKlBB0Q", "latitude": 36.016508, "longitude": -115.1170032, "care_type": "Chiropractor"}, {"name": "Spinal Rehabilitation Center", "address": "4416 E Bonanza Rd UNIT 150, Las Vegas, NV 89110", "city": "Las Vegas", "phone": "+1 702-431-8100", "website": "https://www.spinalrc.com/", "rating": 4.9, "reviews": 360, "place_id": "ChIJ_y_6I6XcyIARCTxmlGP4zTs", "latitude": 36.17399109999999, "longitude": -115.0796591, "care_type": "Chiropractor"}, {"name": "Glen Samuel Cochrane, DC", "address": "4308 Chafer Drive, Las Vegas, NV 89101", "city": "Las Vegas", "phone": "+1 702-333-1995", "website": "http://www.yourlasvegaschiropractor.com/", "rating": 5.0, "reviews": 13, "place_id": "ChIJVVXlI-rEyIARgHE7rJ26ZcI", "latitude": 36.1619232, "longitude": -115.1399727, "care_type": "Chiropractor"}, {"name": "Greater Good Chiropractic & Wellness LLC", "address": "5181 Camino Al Norte Ste 100, North Las Vegas, NV 89031", "city": "North Las Vegas", "phone": "+1 702-347-8200", "website": "http://www.greatergoodchiro.com/", "rating": 4.8, "reviews": 34, "place_id": "ChIJXc1WosbpyIAR84PjH-68HWA", "latitude": 36.2540522, "longitude": -115.1546522, "care_type": "Chiropractor"}, {"name": "Desert Pines Rehabilitation - Auto Injury Care", "address": "3551 E Bonanza Rd #110, Las Vegas, NV 89110", "city": "Las Vegas", "phone": "+1 702-437-0800", "website": "http://www.desertpinesrehab.com/", "rating": 4.8, "reviews": 23, "place_id": "ChIJgwnxrE3DyIARwsVNJyI7uk4", "latitude": 36.1726928, "longitude": -115.0973345, "care_type": "Chiropractor"}, {"name": "Align Med Nellis & MRI", "address": "2208 S Nellis Blvd #1-a, Las Vegas, NV 89104", "city": "Las Vegas", "phone": "+1 702-702-5446", "website": "https://www.myalignmed.com/", "rating": 4.8, "reviews": 235, "place_id": "ChIJH-MGaRPbyIARDIMX-ugLC5w", "latitude": 36.1469942, "longitude": -115.0642769, "care_type": "Chiropractor"}, {"name": "Excelsia Injury Care North Las Vegas", "address": "3603 Las Vegas Blvd N Ste 110, Las Vegas, NV 89115", "city": "Las Vegas", "phone": "+1 702-867-1745", "website": "https://www.excelsiainjurycare.com/location/north-las-vegas/", "rating": 5.0, "reviews": 315, "place_id": "ChIJJ0AcA13pyIARI-IFH382Jho", "latitude": 36.22658759999999, "longitude": -115.0815355, "care_type": "Chiropractor"}, {"name": "Southern Nevada Chiropractic Car Accident Treatment Centers", "address": "1527 W Craig Rd #8, North Las Vegas, NV 89032", "city": "North Las Vegas", "phone": "+1 702-688-8540", "website": "https://www.lasvegascaraccidenttreatment.com/", "rating": 5.0, "reviews": 282, "place_id": "ChIJSYea8MLpyIARB1YYtJhcStY", "latitude": 36.2377548, "longitude": -115.1629659, "care_type": "Chiropractor"}, {"name": "Hogan Chiropractic Wellness Center", "address": "2675 E Flamingo Rd SUITE 9, Las Vegas, NV 89121", "city": "Las Vegas", "phone": "+1 702-650-2227", "website": "https://drkenhogan.com/", "rating": 5.0, "reviews": 314, "place_id": "ChIJybeW6iDFyIARDrbu9cC-ji8", "latitude": 36.1145, "longitude": -115.1140161, "care_type": "Chiropractor"}, {"name": "Integrated Pain Relief Center - Nellis", "address": "1900 N Nellis Blvd Suite 104, Las Vegas, NV 89115", "city": "Las Vegas", "phone": "+1 702-948-2520", "website": "https://integratedpainreliefcenter.com/", "rating": 4.9, "reviews": 53, "place_id": "ChIJGSbCwNzdyIARlX5gauxPiFQ", "latitude": 36.1948376, "longitude": -115.061334, "care_type": "Chiropractor"}, {"name": "Precision Chiropractic Care", "address": "3530 E Flamingo Rd #140, Las Vegas, NV 89121", "city": "Las Vegas", "phone": "+1 702-722-2622", "website": "https://www.pccgroupnv.com/", "rating": 5.0, "reviews": 19, "place_id": "ChIJdVlH-ETFyIARF4UQY9G53vY", "latitude": 36.1159937, "longitude": -115.0984974, "care_type": "Chiropractor"}, {"name": "Spinal Rehabilitation Center", "address": "2415 Las Vegas Blvd N #105, North Las Vegas, NV 89030", "city": "North Las Vegas", "phone": "+1 702-382-3400", "website": "http://www.spinalrc.com/", "rating": 4.9, "reviews": 172, "place_id": "ChIJSfmIgN3CyIARvQ3DukPtrzI", "latitude": 36.2039767, "longitude": -115.1178629, "care_type": "Chiropractor"}, {"name": "Nellis Chiropractic - Andre Grove DC", "address": "2875 S Nellis Blvd a7, Las Vegas, NV 89121", "city": "Las Vegas", "phone": "+1 702-438-8383", "website": "", "rating": 2.8, "reviews": 6, "place_id": "ChIJtzrEdhfbyIAR8dbCQ-Ffn_w", "latitude": 36.1376617, "longitude": -115.0669115, "care_type": "Chiropractor"}, {"name": "Elite Health", "address": "5181 Camino Al Norte Ste 100, North Las Vegas, NV 89031", "city": "North Las Vegas", "phone": "+1 702-426-5883", "website": "https://www.elitehealthnow.com/", "rating": 5.0, "reviews": 3, "place_id": "ChIJZ3L0Ku7pyIARnBEZd04elZ0", "latitude": 36.2541357, "longitude": -115.154686, "care_type": "Chiropractor"}, {"name": "Dr. Douglas P. Manfra DC.", "address": "4500 E Bonanza Rd D, Las Vegas, NV 89110", "city": "Las Vegas", "phone": "+1 702-388-0599", "website": "https://www.chiroinlasvegas.com/", "rating": 4.8, "reviews": 49, "place_id": "ChIJOzJ3ZKPcyIARwEUgv__8HV4", "latitude": 36.1738919, "longitude": -115.0775759, "care_type": "Chiropractor"}, {"name": "Julie D. Schleusner, DC", "address": "2091 E Sahara Ave, Las Vegas, NV 89104", "city": "Las Vegas", "phone": "+1 702-732-4044", "website": "", "rating": 5.0, "reviews": 3, "place_id": "ChIJ752iVZfEyIARxkzSpUc74GU", "latitude": 36.1440419, "longitude": -115.1236333, "care_type": "Chiropractor"}, {"name": "Dickinson Chiropractic of Nevada, LLC", "address": "5960 Losee Rd UNIT 124, North Las Vegas, NV 89081", "city": "North Las Vegas", "phone": "+1 702-608-3362", "website": "http://www.dickinsonchiro-nevada.com/", "rating": 4.7, "reviews": 77, "place_id": "ChIJF_-YGGDoyIAREAFBR9Blo7k", "latitude": 36.2679885, "longitude": -115.1154953, "care_type": "Chiropractor"}, {"name": "Chiropractic Works", "address": "5105 E Sahara Ave UNIT 144, Las Vegas, NV 89142", "city": "Las Vegas", "phone": "+1 702-457-9000", "website": "http://www.chiropracticworkslasvegas.com/", "rating": 5.0, "reviews": 22, "place_id": "ChIJpZ7JuxPbyIARPlpUFN6BdUY", "latitude": 36.1442248, "longitude": -115.0629811, "care_type": "Chiropractor"}, {"name": "Rancho Chiropractic", "address": "1504 S Eastern Ave, Las Vegas, NV 89104", "city": "Las Vegas", "phone": "+1 702-642-1881", "website": "", "rating": 5.0, "reviews": 3, "place_id": "ChIJd2-yxiDDyIARx5xIS8OMwSw", "latitude": 36.15269809999999, "longitude": -115.1191285, "care_type": "Chiropractor"}, {"name": "Injury Rehab", "address": "600 S Rancho Dr #113B, Las Vegas, NV 89106", "city": "Las Vegas", "phone": "+1 702-509-5098", "website": "https://injuryrehab.org/", "rating": 5.0, "reviews": 104, "place_id": "ChIJy0oH55fAyIAR6O4Y0SXsLGY", "latitude": 36.163615, "longitude": -115.1733704, "care_type": "Chiropractor"}, {"name": "Complete Care Injury Center", "address": "2325 W Charleston Blvd, Las Vegas, NV 89102", "city": "Las Vegas", "phone": "+1 702-870-2007", "website": "https://www.completecare.org/", "rating": 5.0, "reviews": 556, "place_id": "ChIJLRmcKunDyIAR-yxXVk0x9gs", "latitude": 36.158521, "longitude": -115.17379, "care_type": "Chiropractor"}, {"name": "Curletto John P DC", "address": "5105 E Sahara Ave UNIT 144, Las Vegas, NV 89142", "city": "Las Vegas", "phone": "+1 702-457-9000", "website": "http://www.chiropracticworkslasvegas.com/", "rating": 5.0, "reviews": 1, "place_id": "ChIJeTD6I6XcyIARYR290_sBDAU", "latitude": 36.1442831, "longitude": -115.0625725, "care_type": "Chiropractor"}, {"name": "One Stop Injury Center", "address": "1264 S Nellis Blvd, Las Vegas, NV 89104", "city": "Las Vegas", "phone": "+1 702-462-2233", "website": "https://onestopinjurycenter.com/", "rating": 5.0, "reviews": 1, "place_id": "ChIJo9eScufbyIARC3MEjir_lvo", "latitude": 36.1571961, "longitude": -115.0603282, "care_type": "Chiropractor"}, {"name": "Alivio/E.D.I.W", "address": "520 S 9th St, Las Vegas, NV 89101", "city": "Las Vegas", "phone": "+1 702-333-1995", "website": "https://yourlasvegaschiropractor.com/", "rating": 4.9, "reviews": 70, "place_id": "ChIJ2d-tJurEyIARUiHYhsqieuU", "latitude": 36.1619232, "longitude": -115.1399727, "care_type": "Chiropractor"}, {"name": "Sahara Health Care", "address": "1605 S Maryland Pkwy, Las Vegas, NV 89104", "city": "Las Vegas", "phone": "+1 702-382-0211", "website": "https://www.drlong4u.com/", "rating": 4.8, "reviews": 18, "place_id": "ChIJQ8kmGn7DyIARzlKmc1EHfno", "latitude": 36.1521098, "longitude": -115.1367354, "care_type": "Chiropractor"}, {"name": "Larry P. Schleusner, DC", "address": "2091 E Sahara Ave, Las Vegas, NV 89104", "city": "Las Vegas", "phone": "+1 702-732-4044", "website": "", "rating": 5.0, "reviews": 2, "place_id": "ChIJ752iVZfEyIARg1qTOPE_qwk", "latitude": 36.1440482, "longitude": -115.1237415, "care_type": "Chiropractor"}, {"name": "Nevada Wellness & Recovery Center", "address": "1380 E Sahara Ave, Las Vegas, NV 89104", "city": "Las Vegas", "phone": "+1 702-656-3333", "website": "", "rating": null, "reviews": 0, "place_id": "ChIJFR1mNYTEyIARiJZhQl2jkUw", "latitude": 36.144568, "longitude": -115.1341258, "care_type": "Chiropractor"}, {"name": "Preferred Chiropractic", "address": "2700 E Lake Mead Blvd #10, North Las Vegas, NV 89030", "city": "North Las Vegas", "phone": "+1 702-399-6655", "website": "https://www.zhealthehr.com/appointmentPortal/b8158ad5-4499-43c7-b993-2b3f0d464e51", "rating": 4.9, "reviews": 36, "place_id": "ChIJrQB3yyDDyIARP2LEzAQDHEs", "latitude": 36.19653479999999, "longitude": -115.1120317, "care_type": "Chiropractor"}, {"name": "Unity Chiropractic & Wellness", "address": "2000 S Eastern Ave Suite #D, Las Vegas, NV 89104", "city": "Las Vegas", "phone": "+1 725-206-5562", "website": "https://unitychiropracticlv.com/", "rating": 5.0, "reviews": 13, "place_id": "ChIJ6eHTpLjFyIAR7JWFHkCJ2Og", "latitude": 36.1478908, "longitude": -115.1192857, "care_type": "Chiropractor"}, {"name": "Clinical Chiropractic", "address": "320 N Nellis Blvd UNIT 6, Las Vegas, NV 89110", "city": "Las Vegas", "phone": "+1 702-522-4444", "website": "https://www.clinicalchiropracticlasvegas.com/", "rating": null, "reviews": 0, "place_id": "ChIJI6DUCgDbyIARaHIHyhS7Wqg", "latitude": 36.1644588, "longitude": -115.0605927, "care_type": "Chiropractor"}, {"name": "Andrei Razsadin, DC", "address": "3737 Pecos-McLeod Interconnect Int, Las Vegas, NV 89121", "city": "Las Vegas", "phone": "+1 702-369-5436", "website": "https://www.aohclv.com/", "rating": 4.9, "reviews": 63, "place_id": "ChIJT-RRMCjFyIAR3or2v_jQXMc", "latitude": 36.121795, "longitude": -115.1051339, "care_type": "Chiropractor"}, {"name": "Las Vegas Valley Care", "address": "2290 N McDaniel St # 2A, North Las Vegas, NV 89030", "city": "North Las Vegas", "phone": "+1 702-873-2307", "website": "http://www.lvvalleycare.com/", "rating": 5.0, "reviews": 26, "place_id": "ChIJh--AwtvAyIARUJBs0pXDdWA", "latitude": 36.2000068, "longitude": -115.1199427, "care_type": "Chiropractor"}, {"name": "Advanced Neuro Spinal Solutions", "address": "3505 E Flamingo Rd, Las Vegas, NV 89121", "city": "Las Vegas", "phone": "+1 702-798-1112", "website": "http://www.thebuildabrainprogram.com/", "rating": 4.8, "reviews": 18, "place_id": "ChIJrQ7piivFyIAR5moWe-lc7b4", "latitude": 36.114364, "longitude": -115.098387, "care_type": "Chiropractor"}, {"name": "Advantage Chiropractic and Rehabilitation Center", "address": "3613 S Eastern Ave, Las Vegas, NV 89169", "city": "Las Vegas", "phone": "+1 702-570-9051", "website": "http://www.advantagecrc.com/", "rating": 5.0, "reviews": 32, "place_id": "ChIJ_Zy7gkjByIAR8-q9YUYCG-I", "latitude": 36.1238692, "longitude": -115.1191504, "care_type": "Chiropractor"}, {"name": "Dr. George Ritter", "address": "1812 Santa Paula Dr, Las Vegas, NV 89104", "city": "Las Vegas", "phone": "+1 702-731-5028", "website": "", "rating": 5.0, "reviews": 1, "place_id": "ChIJVVUpl4fDyIAR8oHYJaKdHFM", "latitude": 36.1492373, "longitude": -115.1512774, "care_type": "Chiropractor"}, {"name": "Summit Integrated Health", "address": "2590 Nature Park Dr, North Las Vegas, NV 89084", "city": "North Las Vegas", "phone": "+1 702-636-2843", "website": "https://summitintegratedhealth.com/", "rating": 4.7, "reviews": 312, "place_id": "ChIJtanPuvHpyIARZETDpWHcvC4", "latitude": 36.2894618, "longitude": -115.177557, "care_type": "Chiropractor"}, {"name": "Beyond Rehab Health Center", "address": "3100 E Charleston Blvd #107, Las Vegas, NV 89104", "city": "Las Vegas", "phone": "+1 702-333-1848", "website": "http://www.beyondrhcwu.com/", "rating": 4.9, "reviews": 76, "place_id": "ChIJq6rF51fDyIARJ0oxYvW8Fl0", "latitude": 36.1594204, "longitude": -115.1049047, "care_type": "Chiropractor"}, {"name": "The Joint Chiropractic", "address": "5515 Camino Al Norte Ste. 105, North Las Vegas, NV 89031", "city": "North Las Vegas", "phone": "+1 702-831-5487", "website": "https://www.thejoint.com/nevada/north-las-vegas/north-las-vegas-36016", "rating": 4.5, "reviews": 173, "place_id": "ChIJechs6nzpyIARDUaEde9sO0g", "latitude": 36.2601207, "longitude": -115.1559433, "care_type": "Chiropractor"}, {"name": "Valencia Sports & Family Chiro", "address": "235 N Eastern Ave #119, Las Vegas, NV 89101", "city": "Las Vegas", "phone": "+1 702-307-4004", "website": "", "rating": 5.0, "reviews": 7, "place_id": "ChIJ8YGnPl3DyIAR5ZTNVfGatx8", "latitude": 36.1653148, "longitude": -115.1168116, "care_type": "Chiropractor"}, {"name": "Eric Sakowski, DC", "address": "2091 E Sahara Ave, Las Vegas, NV 89104", "city": "Las Vegas", "phone": "+1 702-732-4044", "website": "", "rating": 5.0, "reviews": 8, "place_id": "ChIJ752iVZfEyIARLloR66lFdwg", "latitude": 36.1440419, "longitude": -115.1236333, "care_type": "Chiropractor"}, {"name": "Best Care Chiropractic", "address": "2501 E Cheyenne Ave, North Las Vegas, NV 89030", "city": "North Las Vegas", "phone": "+1 702-642-9672", "website": "http://bestcarechiro.com/", "rating": 5.0, "reviews": 120, "place_id": "ChIJKXvcZiDDyIARehxQXdZPcs0", "latitude": 36.217443, "longitude": -115.116581, "care_type": "Chiropractor"}, {"name": "Dr. Bananto", "address": "4250 E Bonanza Rd STE 8, Las Vegas, NV 89110", "city": "Las Vegas", "phone": "+1 702-595-8835", "website": "", "rating": 5.0, "reviews": 1, "place_id": "ChIJJ_kTPDLdyIARtNT0v1-tk88", "latitude": 36.1740073, "longitude": -115.0835833, "care_type": "Chiropractor"}, {"name": "The Neck and Back Clinics \u2013 Northeast", "address": "2425 N Lamb Blvd #100, Las Vegas, NV 89115", "city": "Las Vegas", "phone": "+1 702-644-9155", "website": "https://www.theneckandbackclinics.com/locations/northeast-las-vegas", "rating": 4.8, "reviews": 175, "place_id": "ChIJnSoTQdjcyIARfbOoFxy2wjI", "latitude": 36.2035082, "longitude": -115.0805427, "care_type": "Chiropractor"}, {"name": "The Neck and Back Clinics - Downtown", "address": "333 N Rancho Dr Suite 150, Las Vegas, NV 89106", "city": "Las Vegas", "phone": "+1 702-333-1513", "website": "https://theneckandbackclinics.com/clinics/downtown/", "rating": 5.0, "reviews": 1, "place_id": "ChIJ0doIN7nDyIARh4q9zYRdTOw", "latitude": 36.1763018, "longitude": -115.1756482, "care_type": "Chiropractor"}, {"name": "Strickland John DC", "address": "1928 E Sahara Ave, Las Vegas, NV 89104", "city": "Las Vegas", "phone": "+1 702-457-4727", "website": "", "rating": 4.9, "reviews": 33, "place_id": "ChIJswelY5fEyIARGBe1XfEEESE", "latitude": 36.1446537, "longitude": -115.1217239, "care_type": "Chiropractor"}, {"name": "Chiropractic Plus Car Accident Care", "address": "3315 W Craig Rd #105, North Las Vegas, NV 89032", "city": "North Las Vegas", "phone": "+1 702-489-7555", "website": "http://www.pain.vegas/", "rating": 5.0, "reviews": 28, "place_id": "ChIJ229PW_TpyIARjVGmvyQcbWY", "latitude": 36.2389309, "longitude": -115.1853262, "care_type": "Chiropractor"}, {"name": "Northeastern Chiropractic CTR Bonanza-Lamb", "address": "4500 E Bonanza Rd D, Las Vegas, NV 89110", "city": "Las Vegas", "phone": "+1 702-388-0599", "website": "http://www.chiroinlasvegas.com/", "rating": 4.3, "reviews": 6, "place_id": "ChIJCdR2ZKPcyIAR8NqvqQuP2U8", "latitude": 36.1738972, "longitude": -115.0774729, "care_type": "Chiropractor"}, {"name": "James T. Overland Sr, DC", "address": "6512, 2700 E Lake Mead Blvd #10, North Las Vegas, NV 89030", "city": "North Las Vegas", "phone": "+1 702-399-6655", "website": "https://www.zhealthehr.com/appointmentPortal/b8158ad5-4499-43c7-b993-2b3f0d464e51", "rating": 4.3, "reviews": 11, "place_id": "ChIJrQB3yyDDyIARKqkoCaeQ7H0", "latitude": 36.19653479999999, "longitude": -115.1120317, "care_type": "Chiropractor"}, {"name": "Donald A. Evans, DC", "address": "4555 E Charleston Blvd Suite 101, Las Vegas, NV 89104", "city": "Las Vegas", "phone": "+1 702-457-2225", "website": "", "rating": 4.5, "reviews": 6, "place_id": "ChIJBakLblzbyIARmZGjQnzZOOo", "latitude": 36.1585604, "longitude": -115.0758081, "care_type": "Chiropractor"}, {"name": "Allan P. Long, DC", "address": "1605 S Maryland Pkwy, Las Vegas, NV 89104", "city": "Las Vegas", "phone": "+1 702-382-0211", "website": "https://drlong4u.com/", "rating": 4.6, "reviews": 10, "place_id": "ChIJQ8kmGn7DyIAR8TWPhTOwDb0", "latitude": 36.1521098, "longitude": -115.1367354, "care_type": "Chiropractor"}, {"name": "Alberto E. Achaval, DC", "address": "830 E Charleston Blvd, Las Vegas, NV 89104", "city": "Las Vegas", "phone": "+1 702-388-4048", "website": "", "rating": 4.8, "reviews": 4, "place_id": "ChIJ07Yzg4LDyIAR5tqsDPsJMQ8", "latitude": 36.1585894, "longitude": -115.1416924, "care_type": "Chiropractor"}, {"name": "Las Vegas Chiropractic Center", "address": "1380 E Sahara Ave a, Las Vegas, NV 89104", "city": "Las Vegas", "phone": "+1 702-656-3333", "website": "", "rating": 5.0, "reviews": 3, "place_id": "ChIJiRV7NYTEyIARmnkbfigFnM4", "latitude": 36.14460529999999, "longitude": -115.1341208, "care_type": "Chiropractor"}, {"name": "Advanced Occupational Health Centers", "address": "3737 Pecos-McLeod Interconnect #101, Las Vegas, NV 89121", "city": "Las Vegas", "phone": "+1 702-369-5436", "website": "https://www.aohclv.com/", "rating": 5.0, "reviews": 147, "place_id": "ChIJ44uVxpjFyIARCJWFrV2UdOQ", "latitude": 36.1217536, "longitude": -115.1051102, "care_type": "Chiropractor"}, {"name": "David F. Dye, DC", "address": "Charland Square, 1231 E Charleston Blvd, Las Vegas, NV 89104", "city": "Las Vegas", "phone": "+1 702-385-5075", "website": "", "rating": 5.0, "reviews": 15, "place_id": "ChIJJb62dnnDyIARTWhY47cJUXs", "latitude": 36.1594882, "longitude": -115.1357404, "care_type": "Chiropractor"}, {"name": "Modern Care Chiropractic, LLC", "address": "3925 N M.L.K. Blvd Ste 120, North Las Vegas, NV 89032", "city": "North Las Vegas", "phone": "+1 702-900-2709", "website": "http://www.moderncarechiro.com/", "rating": 5.0, "reviews": 17, "place_id": "ChIJA0K6CtXpyIARzYF5bjKLX7E", "latitude": 36.230711, "longitude": -115.1633171, "care_type": "Chiropractor"}, {"name": "Spinal Rehabilitation Center", "address": "4225 E Sahara Ave Ste. 11 & 12, Las Vegas, NV 89104", "city": "Las Vegas", "phone": "+1 702-641-8122", "website": "http://www.srclv.com/", "rating": 4.9, "reviews": 67, "place_id": "ChIJoZa7qaiaZaAR9wJnkzjr_l8", "latitude": 36.1437921, "longitude": -115.0818922, "care_type": "Chiropractor"}, {"name": "Back To Health Chiropractic", "address": "4680 S Eastern Ave Ste E, Las Vegas, NV 89119", "city": "Las Vegas", "phone": "+1 702-598-0500", "website": "", "rating": 4.5, "reviews": 8, "place_id": "ChIJhdba-hfFyIARD8eADs5GY1A", "latitude": 36.103851, "longitude": -115.11842, "care_type": "Chiropractor"}, {"name": "Shawn Casey D C", "address": "3595 E Bonanza Rd, Las Vegas, NV 89110", "city": "Las Vegas", "phone": "+1 702-642-6422", "website": "http://corerehab.com/", "rating": null, "reviews": 0, "place_id": "ChIJEYXVBpvqyIARTaDn9hgKTBo", "latitude": 36.1730586, "longitude": -115.0964079, "care_type": "Chiropractor"}, {"name": "Gettinger Chiropractic", "address": "4500 Meadows Ln, Las Vegas, NV 89107", "city": "Las Vegas", "phone": "+1 702-870-6658", "website": "http://gettingerchiropractic.com/", "rating": 4.2, "reviews": 41, "place_id": "ChIJb9IC45_EyIARdQKHCwflY5k", "latitude": 36.1705352, "longitude": -115.2015515, "care_type": "Chiropractor"}, {"name": "Dr. Kelly Murie", "address": "600 S Rancho Dr STE 110, Las Vegas, NV 89106", "city": "Las Vegas", "phone": "+1 702-898-3311", "website": "https://maxhealthlv.com/meet-our-team/", "rating": null, "reviews": 0, "place_id": "ChIJj5fHecLDyIARHZ8QY_iiSHs", "latitude": 36.1640466, "longitude": -115.1733972, "care_type": "Chiropractor"}, {"name": "Steven L. Burke, DC", "address": "Winchester, NV 89104", "city": "Winchester", "phone": "+1 702-735-0000", "website": "http://sut18003.wixsite.com/centralcitychiroprac", "rating": 4.9, "reviews": 15, "place_id": "ChIJW5HYBobEyIARWDCS82GDYCk", "latitude": 36.1416435, "longitude": -115.1352604, "care_type": "Chiropractor"}, {"name": "Chiropractic Specialties North", "address": "2101 7185 E Lake Mead Blvd #D, North Las Vegas, NV 89030", "city": "North Las Vegas", "phone": "+1 702-649-4564", "website": "", "rating": 4.4, "reviews": 5, "place_id": "ChIJfeOC2R_DyIARmWWgc0QE1iM", "latitude": 36.1947432, "longitude": -115.1185128, "care_type": "Chiropractor"}, {"name": "Total Health Care", "address": "4425 Stewart Ave, Las Vegas, NV 89110", "city": "Las Vegas", "phone": "+1 702-462-6262", "website": "", "rating": null, "reviews": 0, "place_id": "ChIJ7fugaO7byIARpL8LrYsF6fc", "latitude": 36.1670439, "longitude": -115.0801061, "care_type": "Chiropractor"}, {"name": "Well Adjusted Chiropractic", "address": "3315 W Craig Rd #105, North Las Vegas, NV 89032", "city": "North Las Vegas", "phone": "+1 702-735-7246", "website": "http://www.welladjustedchiropractic.org/", "rating": 3.8, "reviews": 13, "place_id": "ChIJJ88ZJY_pyIARqdJ34XFlw3o", "latitude": 36.2389502, "longitude": -115.1853409, "care_type": "Chiropractor"}, {"name": "Trisha Schleusner", "address": "2091 E Sahara Ave, Las Vegas, NV 89104", "city": "Las Vegas", "phone": "+1 702-732-4044", "website": "https://www.schleusnerchiropractic.com/", "rating": null, "reviews": 0, "place_id": "ChIJ__8vq5DEyIARSxEN5ZugEco", "latitude": 36.1440482, "longitude": -115.1237415, "care_type": "Chiropractor"}, {"name": "Sunrise Chiropractic", "address": "5001 E Bonanza Rd # 132, Las Vegas, NV 89110", "city": "Las Vegas", "phone": "+1 702-452-5000", "website": "", "rating": 5.0, "reviews": 2, "place_id": "ChIJNVvPVZncyIARnvCpe0VJvcI", "latitude": 36.1737167, "longitude": -115.0647622, "care_type": "Chiropractor"}, {"name": "Santa Paula Chiropractic Center", "address": "1812 Santa Paula Dr, Las Vegas, NV 89104", "city": "Las Vegas", "phone": "+1 702-731-5028", "website": "https://chiropractorinlasvegas.com/", "rating": 5.0, "reviews": 11, "place_id": "ChIJn6oxl4fDyIARx_dkjdN86I8", "latitude": 36.1492546, "longitude": -115.1512427, "care_type": "Chiropractor"}, {"name": "Francis Chiropractic, P.C.", "address": "601 S Rancho Dr suite b-16, Las Vegas, NV 89106", "city": "Las Vegas", "phone": "+1 702-431-3800", "website": "http://francischiropractic.org/", "rating": 3.0, "reviews": 2, "place_id": "ChIJkQ1d--nDyIARYsF2vaUiNAo", "latitude": 36.1640558, "longitude": -115.171693, "care_type": "Chiropractor"}, {"name": "Pahrump Spine & Wellness", "address": "2780 South, 2780 Homestead Rd, Pahrump, NV 89048", "city": "Pahrump", "phone": "+1 775-727-7959", "website": "http://pahrumpspine.com/", "rating": 4.9, "reviews": 383, "place_id": "ChIJfzUFRRw5xoARpWg3ik9tf3g", "latitude": 36.1784647, "longitude": -115.9600572, "care_type": "Chiropractor"}, {"name": "Pahrump Pain Free", "address": "2280 E Calvada Blvd Suite 302, Pahrump, NV 89048", "city": "Pahrump", "phone": "+1 775-902-2777", "website": "https://pahrumppainfree.com/", "rating": 5.0, "reviews": 8, "place_id": "ChIJrweMteA5xoARYcFqqsd2tDs", "latitude": 36.1928979, "longitude": -115.9731524, "care_type": "Chiropractor"}, {"name": "MedSpine", "address": "3250 Pahrump Vly Hwy, 7 NV-160, Pahrump, NV 89048", "city": "Pahrump", "phone": "", "website": "", "rating": 4.7, "reviews": 60, "place_id": "ChIJSblOZU05xoAR270JVwcQ_mE", "latitude": 36.1838155, "longitude": -115.9540522, "care_type": "Chiropractor"}, {"name": "Spring Mountain Medical", "address": "1151 NV-160, Pahrump, NV 89048", "city": "Pahrump", "phone": "+1 775-727-8900", "website": "https://springmtnmed.com/%3Futm_campaign%3Dgmb", "rating": 4.5, "reviews": 182, "place_id": "ChIJPw2tBqc5xoARZngp7lJSoWE", "latitude": 36.2030591, "longitude": -115.975485, "care_type": "Chiropractor"}, {"name": "Farrell Kimberly M DC", "address": "1321 NV-160 # 7, Pahrump, NV 89048", "city": "Pahrump", "phone": "+1 775-727-6791", "website": "", "rating": 4.3, "reviews": 12, "place_id": "ChIJj7RRiN45xoARz8Zh-LPQxtg", "latitude": 36.2002634, "longitude": -115.9737798, "care_type": "Chiropractor"}, {"name": "Family CHIROPRACTIC", "address": "1321 NV-160, Pahrump, NV 89048", "city": "Pahrump", "phone": "", "website": "", "rating": null, "reviews": 0, "place_id": "ChIJ33l6k945xoARFg2yCBTqnw4", "latitude": 36.2002319, "longitude": -115.9739945, "care_type": "Chiropractor"}, {"name": "Michael R. Taylor, DC", "address": "2201 E Postal Dr, Pahrump, NV 89048", "city": "Pahrump", "phone": "+1 775-727-8900", "website": "", "rating": 2.8, "reviews": 4, "place_id": "ChIJMWgzE985xoARO9HbBXIHuAQ", "latitude": 36.2030858, "longitude": -115.9740069, "care_type": "Chiropractor"}, {"name": "Creig Christensen", "address": "2780 Homestead Rd, Pahrump, NV 89048", "city": "Pahrump", "phone": "+1 775-727-7959", "website": "https://pahrumpspine.com/", "rating": 5.0, "reviews": 1, "place_id": "ChIJVVUlFZA5xoARDTEjM0KEcBo", "latitude": 36.1784647, "longitude": -115.9600572, "care_type": "Chiropractor"}, {"name": "Melissa M. Plant, DC", "address": "1151 South NV-160, Pahrump, NV 89048", "city": "Pahrump", "phone": "+1 775-727-8900", "website": "", "rating": null, "reviews": 0, "place_id": "ChIJNed8mEA3xoAR1bCT8MTRf7g", "latitude": 36.2027618, "longitude": -115.9763647, "care_type": "Chiropractor"}, {"name": "Fernandez Pilar DC", "address": "1151 NV-160, Pahrump, NV 89048", "city": "Pahrump", "phone": "+1 775-727-1188", "website": "", "rating": null, "reviews": 0, "place_id": "ChIJjR4qytg5xoAR0hsDQjSXWXc", "latitude": 36.2024509, "longitude": -115.9767008, "care_type": "Chiropractor"}, {"name": "Cash Chiropractic Care", "address": "1240 State St, Pahrump, NV 89060", "city": "Pahrump", "phone": "+1 775-513-9055", "website": "", "rating": 5.0, "reviews": 2, "place_id": "ChIJo44yNAA3xoARSDG9laclMug", "latitude": 36.21828259999999, "longitude": -115.989988, "care_type": "Chiropractor"}, {"name": "Stephen R. Foster, DC", "address": "2340 E Calvada Blvd Suite 1, Pahrump, NV 89048", "city": "Pahrump", "phone": "+1 775-727-0888", "website": "", "rating": null, "reviews": 0, "place_id": "ChIJX0BA9MI5xoARS6Sl9eq6ZLo", "latitude": 36.1924869, "longitude": -115.9722956, "care_type": "Chiropractor"}, {"name": "Northern Nevada Chiropractic", "address": "5301 Longley Ln b43, Reno, NV 89511", "city": "Reno", "phone": "+1 775-829-8686", "website": "http://www.northernnevadachiropractic.com/", "rating": 4.9, "reviews": 151, "place_id": "ChIJyUFj4Oc_mYAR29RwOwePZTI", "latitude": 39.4735245, "longitude": -119.7661212, "care_type": "Chiropractor"}, {"name": "North Hills Chiropractic", "address": "208 Lemmon Dr, Reno, NV 89506", "city": "Reno", "phone": "+1 775-972-4488", "website": "https://www.nhcreno.com/", "rating": 5.0, "reviews": 493, "place_id": "ChIJS2dJuIhImYARlApnOYJ30wQ", "latitude": 39.613466, "longitude": -119.8479224, "care_type": "Chiropractor"}, {"name": "Nicolas Riley DC", "address": "5301 Longley Ln #43, Reno, NV 89511", "city": "Reno", "phone": "+1 775-829-8686", "website": "https://northernnevadachiropractic.com/about-us/our-doctors/dr-nicolas-riley/", "rating": 5.0, "reviews": 6, "place_id": "ChIJt-kn5uc_mYARckcsv8w-uz8", "latitude": 39.4728913, "longitude": -119.766984, "care_type": "Chiropractor"}, {"name": "Dr Daniel J. Welch, DC", "address": "5301 Longley Ln b43, Reno, NV 89511", "city": "Reno", "phone": "+1 775-829-8686", "website": "http://www.northernnevadachiropractic.com/", "rating": 5.0, "reviews": 6, "place_id": "ChIJAQAAAA1BmYARi_baKQgJRLs", "latitude": 39.4735547, "longitude": -119.7661084, "care_type": "Chiropractor"}, {"name": "Life Force NV Chiropractic", "address": "1343 Baring Blvd, Sparks, NV 89434", "city": "Sparks", "phone": "+1 775-685-8966", "website": "http://www.lifeforcenvdc.com/", "rating": 5.0, "reviews": 56, "place_id": "ChIJAewARW0_mYARp3LqNHtcV1Q", "latitude": 39.5558308, "longitude": -119.7210672, "care_type": "Chiropractor"}, {"name": "Advanced Health Chiropractic", "address": "9570 S McCarran Blvd #110, Reno, NV 89523", "city": "Reno", "phone": "+1 775-746-2555", "website": "http://www.renospine.com/", "rating": 4.7, "reviews": 86, "place_id": "ChIJ2cxIRbVGmYARvRcMaPJgEfM", "latitude": 39.514497, "longitude": -119.8593858, "care_type": "Chiropractor"}, {"name": "The Village Chiropractic & Family Wellness", "address": "800 W 2nd St suite 100a, Reno, NV 89503", "city": "Reno", "phone": "+1 775-376-0327", "website": "https://thevillagechiropractic.janeapp.com/%23staff_member/1", "rating": 5.0, "reviews": 20, "place_id": "ChIJB0sVGy5HmYAR7XWR0QMxb1M", "latitude": 39.5246915, "longitude": -119.8235831, "care_type": "Chiropractor"}, {"name": "ChiroFIT", "address": "2115 Green Vista Dr Ste 103, Sparks, NV 89431", "city": "Sparks", "phone": "+1 775-409-3274", "website": "https://www.chirofitnv.com/", "rating": 4.8, "reviews": 134, "place_id": "ChIJTW8A_aQ5mYAR1Xn7FOwHJq0", "latitude": 39.5591697, "longitude": -119.772171, "care_type": "Chiropractor"}, {"name": "Brent J. Roelofs, DC", "address": "7933, 885 Sparks Blvd # 300, Sparks, NV 89434", "city": "Sparks", "phone": "+1 775-359-1600", "website": "http://www.apexwellnessnv.com/", "rating": 5.0, "reviews": 3, "place_id": "ChIJP8RBt7k-mYARZYoae9LmIvc", "latitude": 39.5433667, "longitude": -119.715787, "care_type": "Chiropractor"}, {"name": "Apex Chiropractic Center", "address": "885 Sparks Blvd # 300, Sparks, NV 89434", "city": "Sparks", "phone": "+1 775-359-1600", "website": "http://www.apexwellnessnv.com/", "rating": 5.0, "reviews": 26, "place_id": "ChIJP8RBt7k-mYARiWLkUjbpmSk", "latitude": 39.5433311, "longitude": -119.7159042, "care_type": "Chiropractor"}, {"name": "All About Health Chiropractic", "address": "15 Eagle Canyon Dr #102, Sparks, NV 89441", "city": "Sparks", "phone": "+1 775-762-3184", "website": "http://www.allabouthealthchiropractic.com/", "rating": 4.9, "reviews": 16, "place_id": "ChIJF_TBMEA3mYARsnlsoc7-Qs8", "latitude": 39.638134, "longitude": -119.7127578, "care_type": "Chiropractor"}, {"name": "Reid A. Brecke, DC", "address": "2215 Green Vista Dr Ste 304, Sparks, NV 89431", "city": "Sparks", "phone": "+1 775-827-2323", "website": "https://breckechiropractic.com/", "rating": 5.0, "reviews": 5, "place_id": "ChIJ746ZX5Y4mYARSeG8XQjXe8w", "latitude": 39.5591551, "longitude": -119.7731395, "care_type": "Chiropractor"}, {"name": "Melissa A. Perotti, DC", "address": "9570 S McCarran Blvd, Reno, NV 89523", "city": "Reno", "phone": "+1 775-746-2555", "website": "", "rating": 4.6, "reviews": 9, "place_id": "ChIJ2cxIRbVGmYARBjxxfDM0IAY", "latitude": 39.5146542, "longitude": -119.8594234, "care_type": "Chiropractor"}, {"name": "Brecke Chiropractic Center", "address": "2215 Green Vista Dr Ste 304, Sparks, NV 89431", "city": "Sparks", "phone": "+1 775-827-2323", "website": "http://breckechiropractic.com/", "rating": 4.6, "reviews": 10, "place_id": "ChIJ746ZX5Y4mYARW6c2K_Q0Qb8", "latitude": 39.559133, "longitude": -119.773147, "care_type": "Chiropractor"}, {"name": "Steven R. Perry, DC", "address": "2115 Green Vista Dr, Sparks, NV 89431", "city": "Sparks", "phone": "+1 775-337-0184", "website": "http://www.renosparkschiro.com/", "rating": 5.0, "reviews": 25, "place_id": "ChIJCedGfJY4mYAR5L4AQsZVSlU", "latitude": 39.5593781, "longitude": -119.7720133, "care_type": "Chiropractor"}, {"name": "David Berg", "address": "208 Lemmon Dr, Reno, NV 89506", "city": "Reno", "phone": "+1 775-972-1853", "website": "https://www.nhcreno.com/", "rating": 5.0, "reviews": 1, "place_id": "ChIJYz4ZCu1ImYARbfxUFye6wgU", "latitude": 39.6134258, "longitude": -119.848585, "care_type": "Chiropractor"}, {"name": "Healthsmith", "address": "1755 E Plumb Ln Suite 110, Reno, NV 89502", "city": "Reno", "phone": "+1 775-323-6663", "website": "http://www.healthsmithreno.com/", "rating": 5.0, "reviews": 45, "place_id": "ChIJrdABneM_mYARKpSibKmCGws", "latitude": 39.5063107, "longitude": -119.7791056, "care_type": "Chiropractor"}, {"name": "Luxiam Chiropractic", "address": "6815 Sierra Center Pkwy Suite 250, Reno, NV 89511", "city": "Reno", "phone": "+1 775-900-7849", "website": "https://www.luxiamchiropractic.com/", "rating": 5.0, "reviews": 236, "place_id": "ChIJm2j0zRRBmYARz-ZkfgIAc0I", "latitude": 39.4655694, "longitude": -119.7801504, "care_type": "Chiropractor"}, {"name": "Active Health Chiropractic", "address": "2788 Montego Dr, Reno, NV 89523", "city": "Reno", "phone": "+1 775-393-9362", "website": "https://teamcme.com/dot-physical-exam-clinic-location-directory/nevada/reno/active-health-chiropractic/", "rating": 5.0, "reviews": 452, "place_id": "ChIJadoYrxQVjoARfluKmU8z0ns", "latitude": 39.5422809, "longitude": -119.8732715, "care_type": "Chiropractor"}, {"name": "Nevada Neck And Back", "address": "1465 Terminal Wy Suite 4, Reno, NV 89502", "city": "Reno", "phone": "+1 775-770-2225", "website": "http://nevadaneckandback.com/", "rating": 4.8, "reviews": 61, "place_id": "ChIJKTNxbmU_mYAR7FZhRDkVsPs", "latitude": 39.5098728, "longitude": -119.778467, "care_type": "Chiropractor"}, {"name": "Johnson Chiropractic and DOT Center", "address": "1950 E Greg St, Sparks, NV 89431", "city": "Sparks", "phone": "+1 775-359-0717", "website": "https://www.johnsonchirodot.com/", "rating": 4.3, "reviews": 6, "place_id": "ChIJoYjeW48-mYARGEwrQiApM1Y", "latitude": 39.5235476, "longitude": -119.7085773, "care_type": "Chiropractor"}, {"name": "Reno Family Chiropractic", "address": "1150 Selmi Dr Ste 503, Reno, NV 89512", "city": "Reno", "phone": "+1 775-673-6858", "website": "https://renofamilychiropractic.com/", "rating": 4.8, "reviews": 55, "place_id": "ChIJUe20SWJHmYARPLnsGat25gU", "latitude": 39.5570141, "longitude": -119.8003594, "care_type": "Chiropractor"}, {"name": "Time 2 Adjust Family Chiropractic", "address": "1724 C St, Sparks, NV 89431", "city": "Sparks", "phone": "+1 775-525-1484", "website": "https://time2adjust.com/", "rating": 5.0, "reviews": 56, "place_id": "ChIJ0dVBft0_mYARspEnfMHLnA8", "latitude": 39.5363624, "longitude": -119.7659326, "care_type": "Chiropractor"}, {"name": "Chiropractor", "address": "Reno, NV 89511", "city": "Reno", "phone": "+1 775-853-0250", "website": "", "rating": 4.6, "reviews": 9, "place_id": "ChIJa67HdeA_mYAR1Hwc7i6B58g", "latitude": 39.4657376, "longitude": -119.765874, "care_type": "Chiropractor"}, {"name": "MVMT Rx Sports Care & Chiropractic", "address": "1761 Victorian Ave Bottom Floor, Sparks, NV 89431", "city": "Sparks", "phone": "+1 775-245-4142", "website": "https://mvmtrx.com/%3Futm_source%3Dgoogle%26utm_medium%3Dwebsite-home%26utm_campaign%3Dgoogle-business-profile%2B%26utm_id%3DGBP", "rating": 5.0, "reviews": 142, "place_id": "ChIJD1UC4lg_mYARdE24TYC19Ys", "latitude": 39.5350011, "longitude": -119.7669411, "care_type": "Chiropractor"}, {"name": "Matthew M. Johnson, DC", "address": "1950 E Greg St, Sparks, NV 89431", "city": "Sparks", "phone": "+1 775-359-0717", "website": "https://www.johnsonchirodot.com/", "rating": 5.0, "reviews": 2, "place_id": "ChIJoYjeW48-mYARAW_rag3LFnY", "latitude": 39.5239586, "longitude": -119.7081837, "care_type": "Chiropractor"}, {"name": "James LoConte DC INC", "address": "5301 Longley Ln b43, Reno, NV 89511", "city": "Reno", "phone": "+1 775-829-8686", "website": "https://www.northernnevadachiropractic.com/", "rating": 5.0, "reviews": 3, "place_id": "ChIJgz65PC8_mYARX5XWeFM9Kyc", "latitude": 39.4732946, "longitude": -119.7671633, "care_type": "Chiropractor"}, {"name": "The Joint Chiropractic", "address": "1560 E Lincoln Wy Suite #110, Sparks, NV 89434", "city": "Sparks", "phone": "+1 775-442-6986", "website": "https://www.thejoint.com/nevada/sparks/sparks-36012", "rating": 4.8, "reviews": 401, "place_id": "ChIJSw1mXZU-mYARQ-Yu4EwTgCI", "latitude": 39.5340279, "longitude": -119.7180691, "care_type": "Chiropractor"}, {"name": "Bradley S. Corbin, DC", "address": "7111 S Virginia St # A14, Reno, NV 89511", "city": "Reno", "phone": "+1 775-852-8000", "website": "http://www.renodoc.com/", "rating": 4.8, "reviews": 25, "place_id": "ChIJ-8vWzv0_mYAR_QQ3FTHCnwI", "latitude": 39.46210749999999, "longitude": -119.7832489, "care_type": "Chiropractor"}, {"name": "Dr. Rick Swecker, DC", "address": "2155 Green Vista Dr Ste 202, Sparks, NV 89431", "city": "Sparks", "phone": "+1 775-337-0184", "website": "http://www.renosparkschiro.com/", "rating": null, "reviews": 0, "place_id": "ChIJCedGfJY4mYARZVrYn68QIBo", "latitude": 39.5590254, "longitude": -119.7726666, "care_type": "Chiropractor"}, {"name": "John R. Scherschel, DC", "address": "316 Victorian Ave, Sparks, NV 89431", "city": "Sparks", "phone": "+1 775-359-6500", "website": "", "rating": 5.0, "reviews": 13, "place_id": "ChIJ_fyrECY_mYARg1fm745VoNg", "latitude": 39.5350511, "longitude": -119.7473847, "care_type": "Chiropractor"}, {"name": "Brandon Frankel", "address": "690 W 2nd St, Reno, NV 89503", "city": "Reno", "phone": "+1 775-690-3685", "website": "http://p6healing.com/", "rating": 5.0, "reviews": 6, "place_id": "ChIJWaKsZpY4mYARenhPN8Lw8no", "latitude": 39.52506229999999, "longitude": -119.8221406, "care_type": "Chiropractor"}, {"name": "Reno Pain Relief Chiropractic", "address": "6421 S Virginia St, Reno, NV 89511", "city": "Reno", "phone": "+1 775-636-0540", "website": "http://www.renobackpainchiropractic.com/", "rating": 4.9, "reviews": 227, "place_id": "ChIJbe_ntPk_mYARKlUr7PzV4hc", "latitude": 39.4667925, "longitude": -119.785936, "care_type": "Chiropractor"}, {"name": "dr trevor eriksen chiropractic", "address": "855 W 7th St #23, Reno, NV 89503", "city": "Reno", "phone": "+1 775-329-3600", "website": "http://www.drtrevoreriksen.com/", "rating": 5.0, "reviews": 1, "place_id": "ChIJB_08Yi9HmYARAwU50FnmT1Q", "latitude": 39.531813, "longitude": -119.8276122, "care_type": "Chiropractor"}, {"name": "Delacruz Chiropractic - Dr. Ricky Delacruz, DC", "address": "5003 S McCarran Blvd, Reno, NV 89502", "city": "Reno", "phone": "+1 775-313-5494", "website": "http://delacruzchiropractic.com/", "rating": 4.5, "reviews": 22, "place_id": "ChIJ-XKtK1EVmYARu95_1E079TI", "latitude": 39.4772732, "longitude": -119.783506, "care_type": "Chiropractor"}, {"name": "Dr. Trevor May", "address": "2115 Green Vista Dr Ste 103, Sparks, NV 89431", "city": "Sparks", "phone": "+1 775-409-3274", "website": "https://www.chirofitnv.com/", "rating": 5.0, "reviews": 1, "place_id": "ChIJBcQWe5Y4mYARDhaZ-ZGSsC8", "latitude": 39.5590707, "longitude": -119.7721711, "care_type": "Chiropractor"}, {"name": "Power Health Chiropractic", "address": "1175 Harvard Wy, Reno, NV 89502", "city": "Reno", "phone": "+1 775-329-4402", "website": "https://renochiropractic.com/%3Futm_source%3Dgoogle-business%26utm_medium%3Dorganic", "rating": 4.9, "reviews": 213, "place_id": "ChIJwejy-GA_mYARy5bYUR6hfns", "latitude": 39.5133209, "longitude": -119.7859878, "care_type": "Chiropractor"}, {"name": "Create Health Chiropractic", "address": "3997 S McCarran Blvd, Reno, NV 89502", "city": "Reno", "phone": "+1 775-451-7325", "website": "http://www.mitchellfleischerdc.com/", "rating": 5.0, "reviews": 1, "place_id": "ChIJQSZ1GZZAmYARghOOMjuoTBU", "latitude": 39.4777864, "longitude": -119.7628219, "care_type": "Chiropractor"}, {"name": "Johnson Chiropractic, P.C.", "address": "4600 Kietzke Ln N258, Reno, NV 89502", "city": "Reno", "phone": "+1 775-826-2200", "website": "", "rating": 5.0, "reviews": 2, "place_id": "ChIJgxyO0Ik_mYARMXoisjEHN1A", "latitude": 39.4834147, "longitude": -119.7882485, "care_type": "Chiropractor"}, {"name": "Active Life Integrated Health", "address": "5458 Reno Corporate Dr, Reno, NV 89511", "city": "Reno", "phone": "+1 775-842-0065", "website": "http://activelifereno.com/", "rating": 4.7, "reviews": 76, "place_id": "ChIJaTUryxRAmYARDqOMzXF2vs0", "latitude": 39.4663442, "longitude": -119.7642737, "care_type": "Chiropractor"}, {"name": "Francesco J. Sinopoli, DC", "address": "5301 Longley Ln, Reno, NV 89511", "city": "Reno", "phone": "+1 775-829-8686", "website": "http://www.northernnevadachiropractic.com/", "rating": null, "reviews": 0, "place_id": "ChIJt-kn5uc_mYARpbfMzt0yv0g", "latitude": 39.4728913, "longitude": -119.766984, "care_type": "Chiropractor"}, {"name": "Burress Dan DC", "address": "Reno, NV 89502", "city": "Reno", "phone": "", "website": "", "rating": null, "reviews": 0, "place_id": "ChIJVVVVVSU-mYARlSb2Jt54eoI", "latitude": 39.4835647, "longitude": -119.7310213, "care_type": "Chiropractor"}, {"name": "Omni Chiropractic", "address": "4760 Galleria Pkwy STE 108, Sparks, NV 89436", "city": "Sparks", "phone": "+1 775-339-9499", "website": "http://omnisparks.com/", "rating": 5.0, "reviews": 22, "place_id": "ChIJk1en46k5mYAR95p2ZoC_tps", "latitude": 39.5778586, "longitude": -119.7388488, "care_type": "Chiropractor"}, {"name": "Dr. Michael Ross", "address": "722 Baring Blvd, Sparks, NV 89434", "city": "Sparks", "phone": "+1 775-359-1009", "website": "", "rating": 4.8, "reviews": 5, "place_id": "ChIJhZHQtS85mYARp2NGFWIdCYg", "latitude": 39.5566657, "longitude": -119.7326091, "care_type": "Chiropractor"}, {"name": "Ascension Health | Joint and Back Pain Clinic", "address": "415 Hwy 95A Building E suite 503, Fernley, NV 89408", "city": "Fernley", "phone": "+1 775-575-9922", "website": "https://www.ascensionchiropracticnv.com/", "rating": 4.9, "reviews": 96, "place_id": "ChIJPZ_gkuDnmIARhtXk5r9a9R0", "latitude": 39.601671, "longitude": -119.2530879, "care_type": "Chiropractor"}, {"name": "Vondra Family Chiropractic", "address": "4994 Vista Blvd, Sparks, NV 89436", "city": "Sparks", "phone": "+1 775-470-5224", "website": "http://www.vondrachiropractic.com/", "rating": 4.9, "reviews": 247, "place_id": "ChIJrUKJIfbnmIARF7tE5NWbrUQ", "latitude": 39.5834869, "longitude": -119.715875, "care_type": "Chiropractor"}, {"name": "Dr. Stephen Stornetta", "address": "1175 Harvard Wy, Reno, NV 89502", "city": "Reno", "phone": "+1 775-329-4402", "website": "https://renochiropractic.com/", "rating": 5.0, "reviews": 3, "place_id": "ChIJAQCs-GA_mYARiRQKwvpZ2qY", "latitude": 39.5133671, "longitude": -119.7860076, "care_type": "Chiropractor"}, {"name": "TJ Allen, DC", "address": "1465 Terminal Wy Suite 4, Reno, NV 89502", "city": "Reno", "phone": "+1 775-770-2225", "website": "https://nevadaneckandback.com/", "rating": null, "reviews": 0, "place_id": "ChIJ1ckmC_o_mYAR0hqNvTqK7fs", "latitude": 39.5108942, "longitude": -119.7781735, "care_type": "Chiropractor"}, {"name": "Northwest Reno Chiropractic", "address": "5365 Mae Anne Ave Suite. B-2, Reno, NV 89523", "city": "Reno", "phone": "+1 775-324-3700", "website": "https://www.northwestrenochiropractic.com/", "rating": 4.9, "reviews": 74, "place_id": "ChIJST3lQpdGmYARPd5GAnblX5Q", "latitude": 39.5347433, "longitude": -119.8698251, "care_type": "Chiropractor"}, {"name": "David G. Rovetti, DC", "address": "5365 Mae Anne Ave, Reno, NV 89523", "city": "Reno", "phone": "+1 775-324-3700", "website": "http://doctorrovetti.com/home", "rating": 4.7, "reviews": 16, "place_id": "ChIJ9zfBXJdGmYARizD2AnzVDDw", "latitude": 39.534721, "longitude": -119.8695435, "care_type": "Chiropractor"}, {"name": "Affinity Chiropractic", "address": "2351 Pyramid Way Suite 24, Sparks, NV 89431", "city": "Sparks", "phone": "+1 775-358-3590", "website": "https://www.affinityhealthchiro.com/", "rating": 5.0, "reviews": 55, "place_id": "ChIJWUFBBdA4mYARY_Dqngr7uDE", "latitude": 39.552632, "longitude": -119.7534828, "care_type": "Chiropractor"}, {"name": "Dr. Andrew Jenison DC Chiropractor", "address": "4600 Kietzke Ln, Reno, NV 89502", "city": "Reno", "phone": "+1 775-772-1308", "website": "", "rating": 5.0, "reviews": 1, "place_id": "ChIJe5ID2ok_mYARhxSC-8WSsJM", "latitude": 39.4834162, "longitude": -119.7887067, "care_type": "Chiropractor"}, {"name": "Dr. Joseph Vondra", "address": "4994 Vista Blvd, Sparks, NV 89436", "city": "Sparks", "phone": "+1 775-470-5224", "website": "https://www.vondrachiropractic.com/", "rating": 5.0, "reviews": 1, "place_id": "ChIJAQB0aHI5mYARcYqSWkVHUk8", "latitude": 39.5834561, "longitude": -119.7157951, "care_type": "Chiropractor"}, {"name": "Power Health Rehab & Wellness", "address": "1175 Harvard Wy, Reno, NV 89502", "city": "Reno", "phone": "+1 775-329-4402", "website": "http://powerhealthreno.com/", "rating": 5.0, "reviews": 3, "place_id": "ChIJwejy-GA_mYARn4Z-3kxq15A", "latitude": 39.513406, "longitude": -119.785944, "care_type": "Chiropractor"}, {"name": "Fleischer Mitchell DC", "address": "3997 S McCarran Blvd, Reno, NV 89502", "city": "Reno", "phone": "+1 775-451-7325", "website": "http://mitchellfleischerdc.com/", "rating": 5.0, "reviews": 4, "place_id": "ChIJnRt1GZZAmYARR-42AZXFMsE", "latitude": 39.476973, "longitude": -119.762748, "care_type": "Chiropractor"}, {"name": "Gregory E. Chech, DC", "address": "255 Glendale Ave, Sparks, NV 89431", "city": "Sparks", "phone": "+1 775-356-4807", "website": "", "rating": null, "reviews": 0, "place_id": "ChIJnbL-zyE_mYARjsluF5QiGsI", "latitude": 39.5269547, "longitude": -119.7461542, "care_type": "Chiropractor"}, {"name": "Northwest Reno Chiropractic: Mahler Brad DC", "address": "5365 Mae Anne Ave, Reno, NV 89523", "city": "Reno", "phone": "+1 775-324-3700", "website": "https://www.northwestrenochiropractic.com/", "rating": 5.0, "reviews": 3, "place_id": "ChIJlz3lQpdGmYARgN-zsjATaEA", "latitude": 39.5336401, "longitude": -119.8695907, "care_type": "Chiropractor"}, {"name": "Michelle C. Bean, DC", "address": "2215 Green Vista Dr Ste 304, Sparks, NV 89431", "city": "Sparks", "phone": "+1 775-827-2323", "website": "", "rating": null, "reviews": 0, "place_id": "ChIJ746ZX5Y4mYAR7rUd-0c_kQU", "latitude": 39.5591551, "longitude": -119.7731395, "care_type": "Chiropractor"}, {"name": "The Joint Chiropractic", "address": "5110 Mae Anne Ave Suite 507, Reno, NV 89523", "city": "Reno", "phone": "+1 775-618-5687", "website": "https://www.thejoint.com/nevada/reno/nw-reno-36007", "rating": 4.8, "reviews": 434, "place_id": "ChIJyU6JPnBHmYARBKlgnv-o89s", "latitude": 39.5298571, "longitude": -119.8664394, "care_type": "Chiropractor"}, {"name": "Family First Chiropractic", "address": "2155 Green Vista Dr Ste 202, Sparks, NV 89431", "city": "Sparks", "phone": "+1 775-337-0184", "website": "https://www.renosparkschiro.com/", "rating": 5.0, "reviews": 504, "place_id": "ChIJCedGfJY4mYARRycu6zo3O8c", "latitude": 39.5590254, "longitude": -119.7726666, "care_type": "Chiropractor"}, {"name": "Active Chiropractic Health & Wellness Center", "address": "120 E John St, Carson City, NV 89706", "city": "Carson City", "phone": "+1 775-885-7555", "website": "http://www.activechiropracticnv.com/", "rating": 4.7, "reviews": 15, "place_id": "ChIJnZATX70KmYARdQv6IggUvpk", "latitude": 39.171354, "longitude": -119.765871, "care_type": "Chiropractor"}, {"name": "John Spangler D.C.", "address": "177 E 7th St, Carson City, NV 89701", "city": "Carson City", "phone": "+1 775-230-4578", "website": "http://www.practicalchiro.com/", "rating": 5.0, "reviews": 14, "place_id": "ChIJjR2z_J4KmYARGtc_foC7Cko", "latitude": 39.1597748, "longitude": -119.7663573, "care_type": "Chiropractor"}, {"name": "Clearview Chiropractic", "address": "4250 Cochise St Suite #10, Carson City, NV 89703", "city": "Carson City", "phone": "+1 775-882-1444", "website": "http://cvchiropractor.com/", "rating": 4.7, "reviews": 48, "place_id": "ChIJaUrIz0ahmYARnIAqruUFSCs", "latitude": 39.1281975, "longitude": -119.7732315, "care_type": "Chiropractor"}, {"name": "Kona Chiropractic - A Max Health Company", "address": "604 E Musser St, Carson City, NV 89701", "city": "Carson City", "phone": "+1 775-882-3555", "website": "http://www.konachiro.com/", "rating": 4.9, "reviews": 220, "place_id": "ChIJB4hP454KmYARRvTD98lsZAk", "latitude": 39.1647721, "longitude": -119.7625598, "care_type": "Chiropractor"}, {"name": "dr. mike nevius chiropractor", "address": "931 Jacks Valley Rd Ste. B, Carson City, NV 89705", "city": "Carson City", "phone": "+1 775-400-2722", "website": "http://www.neviuschiropractic.com/", "rating": 5.0, "reviews": 37, "place_id": "ChIJd3WqTsS9mYARw-kKwwmQ8KM", "latitude": 39.0987424, "longitude": -119.7758534, "care_type": "Chiropractor"}, {"name": "Kipling Chiropractic", "address": "328 E Winnie Ln, Carson City, NV 89706", "city": "Carson City", "phone": "+1 775-883-1203", "website": "", "rating": 4.3, "reviews": 28, "place_id": "ChIJa7qwz4UKmYARVT1CDGBhdvw", "latitude": 39.1795565, "longitude": -119.7639607, "care_type": "Chiropractor"}, {"name": "Mark J. Mattoon Sr, DC", "address": "251 Jeanell Dr #5, Carson City, NV 89703", "city": "Carson City", "phone": "+1 775-882-1068", "website": "", "rating": 4.5, "reviews": 26, "place_id": "ChIJyXQsiMAKmYARF15i4Y_mx2I", "latitude": 39.1798104, "longitude": -119.7682812, "care_type": "Chiropractor"}, {"name": "Dr. Vinson Christenson", "address": "120 E John St, Carson City, NV 89706", "city": "Carson City", "phone": "+1 775-885-7555", "website": "https://www.activechiropracticnv.com/about-us/meet-the-chiropractors.html", "rating": 5.0, "reviews": 4, "place_id": "ChIJAQB0X70KmYAROGhGCy_FBVo", "latitude": 39.1713984, "longitude": -119.7658342, "care_type": "Chiropractor"}, {"name": "Dr. William Bray", "address": "201 W Adams St, Carson City, NV 89703", "city": "Carson City", "phone": "+1 775-883-7200", "website": "https://doc.activator.com/doctor/dr-william-p-bray", "rating": 4.3, "reviews": 10, "place_id": "ChIJG2uRt70KmYARxWUb-9RE-fg", "latitude": 39.1731737, "longitude": -119.7680017, "care_type": "Chiropractor"}, {"name": "James A Hamtak", "address": "101 Hot Springs Rd, Carson City, NV 89706", "city": "Carson City", "phone": "+1 775-883-3113", "website": "", "rating": null, "reviews": 0, "place_id": "ChIJ8WAhJMAKmYAR0HnYELlxgrw", "latitude": 39.1814085, "longitude": -119.7658766, "care_type": "Chiropractor"}, {"name": "Brian K. Russell Doctor of Chiropractic", "address": "604 E Musser St, Carson City, NV 89701", "city": "Carson City", "phone": "+1 775-882-3555", "website": "", "rating": 5.0, "reviews": 1, "place_id": "ChIJB4hP454KmYARHh4l9enEhMA", "latitude": 39.1647736, "longitude": -119.7625772, "care_type": "Chiropractor"}, {"name": "NuSpine Chiropractic", "address": "6150 N Decatur Blvd Ste 101, North Las Vegas, NV 89031", "city": "North Las Vegas", "phone": "+1 702-477-0000", "website": "https://nuspine.com/locations/aliante", "rating": 4.9, "reviews": 317, "place_id": "ChIJd0pWD5DryIARnt8bgLAzHP4", "latitude": 36.2717325, "longitude": -115.2049412, "care_type": "Chiropractor"}, {"name": "Meadows Chiropractic", "address": "3441 W Sahara Ave C7, Las Vegas, NV 89102", "city": "Las Vegas", "phone": "+1 702-220-9191", "website": "http://meadows-chiro.com/", "rating": 4.8, "reviews": 44, "place_id": "ChIJbz9_E_7DyIARYlIZauXGp3U", "latitude": 36.1432495, "longitude": -115.1877365, "care_type": "Chiropractor"}, {"name": "Charleston Chiropractic Dr Josh Flushman", "address": "3180 W Sahara Ave c12, Las Vegas, NV 89102", "city": "Las Vegas", "phone": "+1 702-271-8839", "website": "http://charlestonchiropracticlv.com/", "rating": 4.1, "reviews": 19, "place_id": "ChIJm0n_lv7DyIAROxdbMtNaLe0", "latitude": 36.145079, "longitude": -115.18466, "care_type": "Chiropractor"},