[{"name": "Clinique MultiSant\u00e9 Kyro Multicare Health Clinic", "address": "970 Rue Principale #2, Beresford, NB E8K 2H6", "city": "Beresford", "phone": "+1 506-545-6400", "website": "https://www.cliniquekyro.com/", "rating": 5.0, "reviews": 5, "place_id": "ChIJ69xbpzeTmEwRfo1SVqvnaZY", "latitude": 47.6916883, "longitude": -65.70111969999999, "care_type": "Chiropractor"}, {"name": "Bathurst Chiropractic Clinic", "address": "102 St George St, Bathurst, NB E2A 1N1", "city": "Bathurst", "phone": "+1 506-545-6400", "website": "", "rating": 5.0, "reviews": 1, "place_id": "ChIJbX7KflORmEwRmLoZcZr_t70", "latitude": 47.6187376, "longitude": -65.65589539999999, "care_type": "Chiropractor"}, {"name": "Chaleur Chiropractic Centre- Chiropractor in Bathurst", "address": "461 MacDonald St, Bathurst, NB E2A 4Z6", "city": "Bathurst", "phone": "+1 506-252-2888", "website": "", "rating": 5.0, "reviews": 9, "place_id": "ChIJwa7lbuGTmEwR30GAK24Mm74", "latitude": 47.6296732, "longitude": -65.6686579, "care_type": "Chiropractor"}, {"name": "Riverview Chiropractic Clinic", "address": "47 Pine Glen Rd, Riverview, NB E1B 1V3", "city": "Riverview", "phone": "+1 506-386-2225", "website": "http://www.riverviewchiropracticclinic.com/", "rating": 4.8, "reviews": 24, "place_id": "ChIJd3z5vAq5oEwR50wAVjxXKmI", "latitude": 46.0663403, "longitude": -64.79395339999999, "care_type": "Chiropractor"}, {"name": "Battis & Drake Family Chiropractic", "address": "337 Pine Glen Rd, Riverview, NB E1B 4J7", "city": "Riverview", "phone": "+1 506-382-9355", "website": "", "rating": 5.0, "reviews": 13, "place_id": "ChIJC8CYIJ-5oEwRCGP6vnxK2Zo", "latitude": 46.06142149999999, "longitude": -64.7934101, "care_type": "Chiropractor"}, {"name": "Rehab1 Performance Center Riverview", "address": "639 Pinewood Rd suite 102, Riverview, NB E1B 5R6", "city": "Riverview", "phone": "+1 506-854-1151", "website": "https://www.rehab1.ca/riverview", "rating": 4.9, "reviews": 307, "place_id": "ChIJ9yyQ8J-5oEwRGTPYkJRW-oQ", "latitude": 46.0515365, "longitude": -64.79039, "care_type": "Chiropractor"}, {"name": "True Health Co. and Chiropractic - Dr. Natasha Goudreau", "address": "567 Coverdale Rd, Riverview, NB E1B 3K7", "city": "Riverview", "phone": "+1 506-871-3784", "website": "https://true-health-company-and-chiropractic.ca1.cliniko.com/bookings", "rating": 5.0, "reviews": 8, "place_id": "ChIJN4nRcdm5oEwRnlu6JaTS4cs", "latitude": 46.06346, "longitude": -64.81020939999999, "care_type": "Chiropractor"}, {"name": "Dr. Jennifer Drake", "address": "337 Pine Glen Rd, Riverview, NB E1B 4J7", "city": "Riverview", "phone": "+1 506-382-9355", "website": "", "rating": 5.0, "reviews": 3, "place_id": "ChIJy6DlvaW5oEwRzd5njEvd9No", "latitude": 46.0615089, "longitude": -64.7934685, "care_type": "Chiropractor"}, {"name": "Chiroplus Dr. Mika\u00ebl Savoie", "address": "10 Water St, Campbellton, NB E3N 1A4", "city": "Campbellton", "phone": "+1 506-753-1110", "website": "", "rating": 5.0, "reviews": 8, "place_id": "ChIJY6AOmSkhmEwRg2J6qHz9318", "latitude": 48.0104628, "longitude": -66.6677861, "care_type": "Chiropractor"}, {"name": "Dr.Marie France", "address": "10 Water St, Campbellton, NB E3N 1A4", "city": "Campbellton", "phone": "+1 506-753-6369", "website": "", "rating": 5.0, "reviews": 1, "place_id": "ChIJc3AxuyshmEwRox8U6L2SECg", "latitude": 48.0104628, "longitude": -66.6677861, "care_type": "Chiropractor"}, {"name": "Healers Touch", "address": "10 Water St, Campbellton, NB E3N 1A4", "city": "Campbellton", "phone": "+1 506-753-6369", "website": "", "rating": null, "reviews": 0, "place_id": "ChIJYTPyuyshmEwR3MdEMOJXPKg", "latitude": 48.0104628, "longitude": -66.6677861, "care_type": "Chiropractor"}, {"name": "Dr. Hermile .J. Gagnon", "address": "10 Water St, Campbellton, NB E3N 1A4", "city": "Campbellton", "phone": "+1 506-753-6369", "website": "", "rating": null, "reviews": 0, "place_id": "ChIJc3AxuyshmEwRRF6V4PBNsRE", "latitude": 48.0104245, "longitude": -66.66777929999999, "care_type": "Chiropractor"}, {"name": "Miramichi Family Chiropractic-Dr. Shannon Asoyuf BSc., DC", "address": "1204 Water St, Miramichi, NB E1N 1A1", "city": "Miramichi", "phone": "+1 506-778-0111", "website": "http://www.miramichifamilychiropractic.com/", "rating": 4.3, "reviews": 12, "place_id": "ChIJyyh21wP1oUwReot0YP1tHHo", "latitude": 47.0169535, "longitude": -65.493794, "care_type": "Chiropractor"}, {"name": "Westview Chiropractic Health Centre Miramichi", "address": "11 King St, Miramichi, NB E1N 2M9", "city": "Miramichi", "phone": "+1 506-773-5053", "website": "https://www.westviewchiromiramichi.ca/", "rating": 4.4, "reviews": 7, "place_id": "ChIJjzS2Jv30oUwR_LS8L8N2LDA", "latitude": 47.0321571, "longitude": -65.46714949999999, "care_type": "Chiropractor"}, {"name": "Dr. Matt Hutt", "address": "1710 King George Hwy, Miramichi, NB E1V 5N4", "city": "Miramichi", "phone": "+1 506-778-9900", "website": "https://www.peakperformancehc.ca/meet-the-team/", "rating": null, "reviews": 0, "place_id": "ChIJM4SsduP0oUwR8Vd_TWPrtrU", "latitude": 47.0211565, "longitude": -65.5327971, "care_type": "Chiropractor"}, {"name": "Bitting Bruce Dr of Chiropractic", "address": "1200 Water St, Miramichi, NB E1N 1A1", "city": "Miramichi", "phone": "+1 506-622-5197", "website": "", "rating": null, "reviews": 0, "place_id": "ChIJQxRP5SX1oUwRF_3StO9pTW4", "latitude": 47.0168414, "longitude": -65.49409179999999, "care_type": "Chiropractor"}, {"name": "Active Care Chiropractic Center", "address": "15 Brayson Blvd Suite A, Oromocto, NB E2V 0J2", "city": "Oromocto", "phone": "+1 506-206-8080", "website": "http://www.activecareoromocto.com/", "rating": 4.7, "reviews": 53, "place_id": "ChIJE5UehSGcpkwRD5xm34_mPDs", "latitude": 45.840702, "longitude": -66.5093764, "care_type": "Chiropractor"}, {"name": "Define Wellness Chiropractic", "address": "285 Restigouche Rd, Oromocto, NB E2V 2H2", "city": "Oromocto", "phone": "+1 506-208-9566", "website": "https://definewellnesschiro.com/", "rating": 5.0, "reviews": 105, "place_id": "ChIJaWWgyMydpkwRRHGdDpbgMJg", "latitude": 45.842699, "longitude": -66.50501659999999, "care_type": "Chiropractor"}, {"name": "Oromocto Family Chiropractic Office", "address": "22 Broad Rd, Haneytown, NB E2V 3N4", "city": "Haneytown", "phone": "+1 506-357-8803", "website": "", "rating": 5.0, "reviews": 4, "place_id": "ChIJcWPpCBKbpkwRPWfef30SkYw", "latitude": 45.823097, "longitude": -66.4672488, "care_type": "Chiropractor"}, {"name": "Dr. Kaitlyn Newton, Chiropractor - The Hive Chiropractic and Wellness Oromocto", "address": "281 Restigouche Rd suite 209, Oromocto, NB E2V 2H5", "city": "Oromocto", "phone": "+1 506-998-1546", "website": "https://www.thehiveoromocto.com/", "rating": null, "reviews": 0, "place_id": "ChIJUaVV8bOdpkwRcy2BAvna1rw", "latitude": 45.842324, "longitude": -66.5042137, "care_type": "Chiropractor"}, {"name": "Back in Balance Chiropractic and Massage Oromocto", "address": "566 Waasis Rd, Oromocto, NB E2V 2J4", "city": "Oromocto", "phone": "+1 506-262-5521", "website": "", "rating": 5.0, "reviews": 14, "place_id": "ChIJAykmOIGdpkwRugdvGh1no1E", "latitude": 45.8459395, "longitude": -66.505212, "care_type": "Chiropractor"}, {"name": "Russell Chiropractic & Family Wellness", "address": "13A Lorne St, Sackville, NB E4L 3Z6", "city": "Sackville", "phone": "+1 506-536-2108", "website": "http://www.russell-chiropractic.com/", "rating": 5.0, "reviews": 187, "place_id": "ChIJiSfs16BRX0sR1SiVCIWry3I", "latitude": 45.8961715, "longitude": -64.366902, "care_type": "Chiropractor"}, {"name": "Sackville Family Chiropractic", "address": "10 Weldon St, Sackville, NB E4L 4N2", "city": "Sackville", "phone": "+1 506-536-0051", "website": "https://www.nbchiropractic.ca/find-a-chiropractor/chiropractors/97", "rating": 4.7, "reviews": 3, "place_id": "ChIJlxVkHL9RX0sRuq68CeNJvZE", "latitude": 45.8986861, "longitude": -64.365897, "care_type": "Chiropractor"}, {"name": "Dr. Wesley Michaud- Chiropractor, Acupuncture, Massage Therapy", "address": "221 Main St, Sussex, NB E4E 0M3", "city": "Sussex", "phone": "+1 506-567-2852", "website": "https://www.facebook.com/Dr-Wesley-Michaud-1694256404140210/", "rating": 5.0, "reviews": 101, "place_id": "ChIJEToruY0ip0wRxS4FYtIx7ho", "latitude": 45.7241161, "longitude": -65.5255488, "care_type": "Chiropractor"}, {"name": "Hache-Rene-Dr", "address": "63 Cougle Rd, Sussex Corner, NB E4E 2S5", "city": "Sussex Corner", "phone": "+1 506-433-4711", "website": "", "rating": 5.0, "reviews": 4, "place_id": "ChIJLWu_aYwip0wR_aWI0YSftcw", "latitude": 45.7237531, "longitude": -65.4698143, "care_type": "Chiropractor"}, {"name": "Sussex Chiropractic Ctr", "address": "12 Marble St, Four Corners, NB E4E 3P9", "city": "Four Corners", "phone": "+1 506-433-4711", "website": "", "rating": null, "reviews": 0, "place_id": "ChIJeQZisvEip0wRaQsETWnDzYQ", "latitude": 45.7289104, "longitude": -65.4990279, "care_type": "Chiropractor"}, {"name": "Chiropractic Center", "address": "63 Cougle Rd, Sussex Corner, NB E4E 2S5", "city": "Sussex Corner", "phone": "", "website": "", "rating": null, "reviews": 0, "place_id": "ChIJ5TKSdQAjp0wRW1Z92bB0RIQ", "latitude": 45.723769, "longitude": -65.46983999999999, "care_type": "Chiropractor"}, {"name": "Fredericton Family Chiropractic: A Creating Wellness Centre", "address": "30 Hughes St, Fredericton, NB E3A 2W3", "city": "Fredericton", "phone": "+1 506-472-7000", "website": "https://www.frederictonfamilychiropractic.ca/", "rating": 4.9, "reviews": 231, "place_id": "ChIJJ6a9KLwYpEwRLUJJBOopUnc", "latitude": 45.9700688, "longitude": -66.6310605, "care_type": "Chiropractor"}, {"name": "East Coast Chiropractic", "address": "530 Brookside Dr Unit E, Fredericton, NB E3A 8V2", "city": "Fredericton", "phone": "+1 506-454-2004", "website": "http://www.eastcoastchiropractic.ca/", "rating": 5.0, "reviews": 401, "place_id": "ChIJlxxEDlYYpEwREBLK1M4E2-k", "latitude": 45.99297019999999, "longitude": -66.6486115, "care_type": "Chiropractor"}, {"name": "Healing Home Chiropractic", "address": "546 Brunswick St, Fredericton, NB E3B 1H5", "city": "Fredericton", "phone": "+1 506-457-3030", "website": "http://healinghomechiropractic.com/", "rating": 5.0, "reviews": 72, "place_id": "ChIJdatUp9YZpEwRXp_Mp4anMR0", "latitude": 45.9596576, "longitude": -66.6417708, "care_type": "Chiropractor"}, {"name": "Fredericton's Health Source", "address": "643 McLeod Ave, Fredericton, NB E3B 1V4", "city": "Fredericton", "phone": "+1 506-450-0900", "website": "http://www.frederictonshealthsource.com/", "rating": 4.9, "reviews": 238, "place_id": "ChIJDYwMzwsipEwRbk2b4cJlwmw", "latitude": 45.9544174, "longitude": -66.6440454, "care_type": "Chiropractor"}, {"name": "Williams Chiropractic Health & Performance Centre", "address": "169 Main St, Fredericton, NB E3A 2B5", "city": "Fredericton", "phone": "+1 506-452-1609", "website": "https://www.williamschiro.ca/%3FUTM_source%3DGBL", "rating": 5.0, "reviews": 275, "place_id": "ChIJ71osPYsYpEwR5CaqYSAhyZs", "latitude": 45.9784564, "longitude": -66.6533812, "care_type": "Chiropractor"}, {"name": "Uptown Chiropractic", "address": "100 Woodside Ln Suite 103, Fredericton, NB E3C 2R9", "city": "Fredericton", "phone": "+1 506-460-6200", "website": "http://uptownchiro.ca/", "rating": 5.0, "reviews": 159, "place_id": "ChIJzwZBMPEipEwRuHPQgpJP1rE", "latitude": 45.9489865, "longitude": -66.6969037, "care_type": "Chiropractor"}, {"name": "Serenity Chiropractic", "address": "Regent Station, 403 Regent St Suite 103, Fredericton, NB E3B 3X6", "city": "Fredericton", "phone": "+1 506-458-1919", "website": "http://serenitychiropracticnb.com/", "rating": 5.0, "reviews": 34, "place_id": "ChIJOwYRheSq8q8REiMt9UPnZNs", "latitude": 45.9551064, "longitude": -66.6445212, "care_type": "Chiropractor"}, {"name": "Pollack Chiropractic & Rehabilitation", "address": "371 Brunswick St, Fredericton, NB E3B 1H2", "city": "Fredericton", "phone": "+1 506-450-7979", "website": "https://pollackchiropractic.janeapp.com/", "rating": 5.0, "reviews": 24, "place_id": "ChIJ4cLK-5sYpEwRA8MhU6IhOUo", "latitude": 45.9616359, "longitude": -66.64536629999999, "care_type": "Chiropractor"}, {"name": "Allaby Chiropractic Clinic", "address": "763 Regent St, Fredericton, NB E3B 3Y5", "city": "Fredericton", "phone": "+1 506-454-2225", "website": "http://allabychiropracticclinic.ca/", "rating": 4.9, "reviews": 18, "place_id": "ChIJmcq_ig0ipEwRDDU3h9Kxp48", "latitude": 45.948242, "longitude": -66.64982189999999, "care_type": "Chiropractor"}, {"name": "The Wellness Zone", "address": "66 Greenwood Dr Unit 1, Fredericton, NB E3A 3T4", "city": "Fredericton", "phone": "+1 506-450-7395", "website": "https://www.thewellnesszone.ca/", "rating": 5.0, "reviews": 130, "place_id": "ChIJ1yIUnyUfpEwRVljmSNTDKM4", "latitude": 45.9534028, "longitude": -66.6136976, "care_type": "Chiropractor"}, {"name": "Johnston Chiropractic - Fredericton", "address": "580 Two Nations Crossing #1, Fredericton, NB E3A 0X9", "city": "Fredericton", "phone": "+1 506-450-0600", "website": "https://www.frederictonchiropractors.com/", "rating": 5.0, "reviews": 2, "place_id": "ChIJD6nABVgYpEwRcvibMGZ_ePA", "latitude": 45.9824793, "longitude": -66.61329669999999, "care_type": "Chiropractor"}, {"name": "Body Renewal Health Centre", "address": "781 Prospect St, Fredericton, NB E3B 5Y4", "city": "Fredericton", "phone": "+1 506-459-2639", "website": "http://bodyrenewalhealth.com/", "rating": 4.9, "reviews": 71, "place_id": "ChIJ16p635sYpEwRKQE_1AvKzDQ", "latitude": 45.9469088, "longitude": -66.6786066, "care_type": "Chiropractor"}, {"name": "The Canadian Chiropractic Wellness Centre", "address": "96 Stanley St, Saint John, NB E2K 3Y4", "city": "Saint John", "phone": "+1 506-652-1818", "website": "http://www.cdnchiropracticwellness.com/", "rating": 5.0, "reviews": 44, "place_id": "ChIJAQAAAFmyp0wRBsH9_l4n5e4", "latitude": 45.2821002, "longitude": -66.0598523, "care_type": "Chiropractor"}, {"name": "Gillis Chiropractic", "address": "10 King George Ct, Saint John, NB E2K 0H5", "city": "Saint John", "phone": "+1 506-652-2225", "website": "https://www.saintjohnchiropractor.com/", "rating": 4.9, "reviews": 44, "place_id": "ChIJUxzn2Zi0p0wRZPKqeaBRTGA", "latitude": 45.2687198, "longitude": -66.08044439999999, "care_type": "Chiropractor"}, {"name": "Dr. Heather Toner - Toner Chiropractic and Wellness Centre", "address": "55 Drury Cove Rd Suite 200, Saint John, NB E2H 2Z8", "city": "Saint John", "phone": "+1 506-214-9355", "website": "https://www.tonerchiro.com/", "rating": 5.0, "reviews": 367, "place_id": "ChIJ0x5-pr2yp0wRYIiJwk5J3Rg", "latitude": 45.3309097, "longitude": -66.0320205, "care_type": "Chiropractor"}, {"name": "Station Street Health", "address": "125 Station St, Saint John, NB E2L 4X4", "city": "Saint John", "phone": "+1 506-632-9000", "website": "https://www.stationstreethealth.com/", "rating": 5.0, "reviews": 445, "place_id": "ChIJbyAMNJezp0wR4mi8-tPtKro", "latitude": 45.2778202, "longitude": -66.06322519999999, "care_type": "Chiropractor"}, {"name": "Town Health Solutions", "address": "96 Stanley St, Saint John, NB E2K 3Y4", "city": "Saint John", "phone": "+1 506-652-5222", "website": "https://townhealthsolutions.com/%3Futm_source%3Dgmb%26utm_medium%3Dorganic", "rating": 5.0, "reviews": 140, "place_id": "ChIJp9K88Z60p0wRySTR-f44o0Y", "latitude": 45.2821147, "longitude": -66.0597422, "care_type": "Chiropractor"}, {"name": "CORE Health Group", "address": "9 Charlotte St, Saint John, NB E2L 2H3", "city": "Saint John", "phone": "+1 506-288-2673", "website": "http://www.corehealthgroup.ca/", "rating": 5.0, "reviews": 275, "place_id": "ChIJr1TlWdqzp0wR-F89Jh7RZxo", "latitude": 45.2747806, "longitude": -66.0594631, "care_type": "Chiropractor"}, {"name": "Dr. Maria Boyle - Station Street Health - Chiropractor", "address": "125 Station St, Saint John, NB E2L 4X4", "city": "Saint John", "phone": "+1 506-632-9000", "website": "http://stationstreethealth.com/", "rating": 5.0, "reviews": 14, "place_id": "ChIJG5IpZS-zp0wRV0MN6aL27Xg", "latitude": 45.2778202, "longitude": -66.06322519999999, "care_type": "Chiropractor"}, {"name": "Dr. Rick Parisien - Station Street Health - Chiropractor", "address": "125 Station St, Saint John, NB E2L 4X4", "city": "Saint John", "phone": "+1 506-632-9000", "website": "https://www.stationstreethealth.com/", "rating": 5.0, "reviews": 35, "place_id": "ChIJl1agpKWzp0wRhU3zyRi-3sw", "latitude": 45.2778202, "longitude": -66.06322519999999, "care_type": "Chiropractor"}, {"name": "Dr. Stephen Doucette, Chiropractor - Saint John", "address": "107 Catherwood St Suite 216, Saint John, NB E2M 5J7", "city": "Saint John", "phone": "+1 506-696-7175", "website": "https://www.drstephendoucette.com/", "rating": 5.0, "reviews": 1, "place_id": "ChIJRWkQMgyzp0wRyVW247zNCtI", "latitude": 45.2547153, "longitude": -66.096893, "care_type": "Chiropractor"}, {"name": "Gillis J Stephen Dr BSc DC", "address": "10 King George Ct, Saint John, NB E2L 3L3", "city": "Saint John", "phone": "+1 506-652-2225", "website": "", "rating": null, "reviews": 0, "place_id": "ChIJ_____3qzp0wRnpXG8Alg6S0", "latitude": 45.26872969999999, "longitude": -66.0804639, "care_type": "Chiropractor"}, {"name": "Human Performance Centre", "address": "3636 Westfield Rd Suite C, Saint John, NB E2M 7P3", "city": "Saint John", "phone": "+1 506-738-8299", "website": "http://www.hpcphysio.com/", "rating": 4.9, "reviews": 218, "place_id": "ChIJFSmtCplOpkwRvO_plX-cRM4", "latitude": 45.2967141, "longitude": -66.19495909999999, "care_type": "Chiropractor"}, {"name": "Dr. Peter Magee", "address": "165 Union St Suite 202, Saint John, NB E2L 5C7", "city": "Saint John", "phone": "+1 506-648-9922", "website": "http://www.drpetermagee.com/", "rating": 5.0, "reviews": 6, "place_id": "ChIJITFif3yzp0wRQLNzteazn44", "latitude": 45.2752529, "longitude": -66.0592594, "care_type": "Chiropractor"}, {"name": "Kent chiropractic", "address": "100 NB-134, Rexton, NB E4W 2X7", "city": "Rexton", "phone": "+1 506-523-7243", "website": "", "rating": 5.0, "reviews": 4, "place_id": "ChIJ954GQb6toUwRmCy3gc61JWQ", "latitude": 46.6492789, "longitude": -64.87724469999999, "care_type": "Chiropractor"}, {"name": "Dr. Guillaume O. Brideau, DC", "address": "451 Rue Georges O, Tracadie-Sheila, NB E1X 1C8", "city": "Tracadie-Sheila", "phone": "+1 506-600-0827", "website": "https://www.facebook.com/Innataespacesante/", "rating": 5.0, "reviews": 11, "place_id": "ChIJ7wYtYMdJn0wRMT_u7tq_XLc", "latitude": 47.5167925, "longitude": -64.9134986, "care_type": "Chiropractor"}, {"name": "Dre Majorie Duguay", "address": "664 Chemin Pointe des Ferguson, Tracadie-Sheila, NB E1X 1C6", "city": "Tracadie-Sheila", "phone": "+1 506-395-2155", "website": "http://moniquevad.wixsite.com/drduguay", "rating": 5.0, "reviews": 4, "place_id": "ChIJO7B4KcBIn0wR34S3O8tV0eM", "latitude": 47.47168, "longitude": -64.9027669, "care_type": "Chiropractor"}, {"name": "Dr. Andrew Martin - Chiropractor", "address": "157 Hampton Rd, Rothesay, NB E2E 2R3", "city": "Rothesay", "phone": "+1 782-414-7863", "website": "https://linktr.ee/drandrewmartin.dc", "rating": 5.0, "reviews": 141, "place_id": "ChIJ75F8-k0jp0wRDyP2zCEjcM8", "latitude": 45.4024823, "longitude": -65.9750789, "care_type": "Chiropractor"}, {"name": "Dr.Stephanie Galea ~ Chiropractor & Acupuncture Provider", "address": "1 Hampton Rd, Rothesay, NB E2E 5K8", "city": "Rothesay", "phone": "+1 506-216-3000", "website": "https://rootstobranchesnb.com/a-little-about-me/", "rating": 5.0, "reviews": 13, "place_id": "ChIJzYhixhWtp0wRFoHUAcRTgqc", "latitude": 45.3875523, "longitude": -65.99699489999999, "care_type": "Chiropractor"}, {"name": "Rothesay Wellness & Chiropractic Centre", "address": "2 Hampton Rd, Rothesay, NB E2E 5K9", "city": "Rothesay", "phone": "+1 506-847-7263", "website": "", "rating": null, "reviews": 0, "place_id": "ChIJDbk-uc-sp0wRNknUf4Mw8I4", "latitude": 45.3871135, "longitude": -65.99655419999999, "care_type": "Chiropractor"}, {"name": "Align KV Wellness Clinic", "address": "157 Hampton Rd, Rothesay, NB E2E 2R3", "city": "Rothesay", "phone": "+1 506-848-2111", "website": "http://www.alignkvwellness.ca/", "rating": 5.0, "reviews": 21, "place_id": "ChIJ51kXct6tp0wRU5DeABLKPJE", "latitude": 45.4024823, "longitude": -65.9750789, "care_type": "Chiropractor"}, {"name": "Mayberry Chiropractic", "address": "153 Hampton Rd Suite B, Rothesay, NB E2E 2N6", "city": "Rothesay", "phone": "+1 506-647-4768", "website": "https://mayberrychiropractic.janeapp.com/%23staff_member/1", "rating": 5.0, "reviews": 5, "place_id": "ChIJdSrZyiKtp0wRyjnMeJ6Y_uY", "latitude": 45.4016106, "longitude": -65.9760304, "care_type": "Chiropractor"}, {"name": "Complete Balance Physiotherapy Clinic", "address": "61 Marr Rd, Rothesay, NB E2E 5Y8", "city": "Rothesay", "phone": "+1 506-849-8618", "website": "https://www.completebalancephysio.com/", "rating": 5.0, "reviews": 27, "place_id": "ChIJzxl18rmsp0wRUKjtofFSLks", "latitude": 45.3927579, "longitude": -65.9719806, "care_type": "Chiropractor"}, {"name": "Dr. Stephen Doucette, Chiropractor - Quispamsis", "address": "15 Pettingill Rd Suite 150, Quispamsis, NB E2E 6B1", "city": "Quispamsis", "phone": "+1 506-696-7175", "website": "https://www.rehab1.ca/quispamsis", "rating": 5.0, "reviews": 1, "place_id": "ChIJh3tbGC-tp0wR-381D7higEk", "latitude": 45.4070685, "longitude": -65.9734127, "care_type": "Chiropractor"}, {"name": "Sheppard Chiropractic and Laser Healing", "address": "154 Hampton Rd, Rothesay, NB E2E 2R3", "city": "Rothesay", "phone": "+1 506-847-7172", "website": "http://sheppardchiro.com/", "rating": 5.0, "reviews": 1, "place_id": "ChIJK8GDhqSsp0wRzjLzde9zahI", "latitude": 45.4023186, "longitude": -65.97348889999999, "care_type": "Chiropractor"}, {"name": "ForFitness and Athletics", "address": "2 Hampton Rd, Rothesay, NB E2E 5K9", "city": "Rothesay", "phone": "+1 506-847-7263", "website": "http://www.forfitnessandathletics.com/", "rating": 4.8, "reviews": 30, "place_id": "ChIJ3UXsvs-sp0wRdk4QAn7bKaQ", "latitude": 45.3871192, "longitude": -65.996376, "care_type": "Chiropractor"}, {"name": "Roots to Branches Whole Health Clinic", "address": "196 Hampton Rd, Quispamsis, NB E2E 4L8", "city": "Quispamsis", "phone": "+1 506-216-3000", "website": "http://www.rootstobranchesnb.com/", "rating": 5.0, "reviews": 75, "place_id": "ChIJ83kVuc-sp0wRYuh-1azG91E", "latitude": 45.4057223, "longitude": -65.9680721, "care_type": "Chiropractor"}, {"name": "Matt Forgie", "address": "2 Hampton Rd, Rothesay, NB E2E 5K3", "city": "Rothesay", "phone": "+1 506-847-7263", "website": "https://www.forfitnessandathletics.com/", "rating": null, "reviews": 0, "place_id": "ChIJD-0-uc-sp0wRI7kt_Fn8I98", "latitude": 45.3870592, "longitude": -65.996595, "care_type": "Chiropractor"}, {"name": "Clinique Chiropractique Dr Michel Aucoin", "address": "319 Rue Victoria, Edmundston, NB E3V 2J7", "city": "Edmundston", "phone": "+1 506-739-5567", "website": "", "rating": 4.8, "reviews": 6, "place_id": "ChIJv6YubZCpvUwRoDnECcR3D8E", "latitude": 47.3735368, "longitude": -68.3280166, "care_type": "Chiropractor"}, {"name": "Chiropractic Clinic Ouellette", "address": "20 Rue Hill, Edmundston, NB E3V 1J8", "city": "Edmundston", "phone": "+1 506-739-6660", "website": "", "rating": 4.0, "reviews": 3, "place_id": "ChIJER7zs9KrvUwRBbr2g4waTss", "latitude": 47.3629481, "longitude": -68.3291605, "care_type": "Chiropractor"}, {"name": "Berthelot Caroline D C Dre", "address": "300 Rue Victoria, Edmundston, NB E3V 2H9", "city": "Edmundston", "phone": "+1 506-739-8711", "website": "", "rating": 4.6, "reviews": 12, "place_id": "ChIJ4X5VPJCpvUwRGu1lhB9Xfu0", "latitude": 47.3725805, "longitude": -68.3278217, "care_type": "Chiropractor"}, {"name": "Dr Ryan Coster - Chiro Clinic Moncton - Chiropractor", "address": "29 Mountain Rd, Moncton, NB E1C 2J9", "city": "Moncton", "phone": "+1 506-852-3900", "website": "http://www.chiroclinicmoncton.ca/", "rating": 4.9, "reviews": 172, "place_id": "ChIJx54JFzi5oEwROG6jMmJdHLc", "latitude": 46.09454849999999, "longitude": -64.775668, "care_type": "Chiropractor"}, {"name": "Moncton Chiropractic Center", "address": "126 Steadman St, Moncton, NB E1C 4P6", "city": "Moncton", "phone": "+1 506-853-8110", "website": "", "rating": 4.9, "reviews": 17, "place_id": "ChIJYdrrJTe5oEwRXIBWgGuKLig", "latitude": 46.09361879999999, "longitude": -64.7738985, "care_type": "Chiropractor"}, {"name": "Elmwood Chiropractic Clinic", "address": "499 Elmwood Dr, Moncton, NB E1A 2X4", "city": "Moncton", "phone": "+1 506-204-6806", "website": "https://www.elmwoodchiroclinic.com/", "rating": 5.0, "reviews": 19, "place_id": "ChIJhw-j6t--oEwR2A6PLFU5gCo", "latitude": 46.1204854, "longitude": -64.7711258, "care_type": "Chiropractor"}, {"name": "Clinique Robichaud-L\u00e9vesque Clinic", "address": "5 Flanders Ct, Moncton, NB E1C 0K6", "city": "Moncton", "phone": "+1 506-857-0095", "website": "http://robichaudlevesque.ca/", "rating": 4.9, "reviews": 73, "place_id": "ChIJE3gZ1zG5oEwRlZfCE_V3x1Y", "latitude": 46.0945931, "longitude": -64.8002636, "care_type": "Chiropractor"}, {"name": "Optimum Wellness Chiropractic Clinic", "address": "298 Mill Rd, Moncton, NB E1A 4B1", "city": "Moncton", "phone": "+1 506-382-4476", "website": "https://drbrettleblanc.com/", "rating": 5.0, "reviews": 12, "place_id": "ChIJ96_Sh9m-oEwRQlXCPNAn27E", "latitude": 46.1133868, "longitude": -64.7725809, "care_type": "Chiropractor"}, {"name": "Dr Brett LeBlanc", "address": "298 Mill Rd, Moncton, NB E1A 4B1", "city": "Moncton", "phone": "+1 506-382-4476", "website": "https://drbrettleblanc.com/", "rating": 5.0, "reviews": 2, "place_id": "ChIJ3Za3f_K_oEwRGwJDmKdOpKA", "latitude": 46.1133406, "longitude": -64.7726232, "care_type": "Chiropractor"}, {"name": "Dr. Cheryl Hache Macdonald Chiropractic", "address": "100 Cameron St, Moncton, NB E1C 5Z5", "city": "Moncton", "phone": "+1 506-384-8437", "website": "", "rating": 5.0, "reviews": 3, "place_id": "ChIJ71aOcK3AoEwRsMLk8mFAOcs", "latitude": 46.08809429999999, "longitude": -64.7890499, "care_type": "Chiropractor"}, {"name": "move easy chiropractic & rehabilitation", "address": "210 Price St, Moncton, NB E1A 8R5", "city": "Moncton", "phone": "+1 506-830-6600", "website": "https://www.360healthcentre.ca/", "rating": 5.0, "reviews": 2, "place_id": "ChIJtw6zatm-oEwRufD73kkcxW4", "latitude": 46.1266579, "longitude": -64.7597053, "care_type": "Chiropractor"}, {"name": "Medispine", "address": "85 Englehart St, Dieppe, NB E1A 8K2", "city": "Dieppe", "phone": "+1 506-889-4490", "website": "https://medispine.ca/", "rating": 5.0, "reviews": 256, "place_id": "ChIJL4bFJra9oEwRciUioTM1KRo", "latitude": 46.1021926, "longitude": -64.7008113, "care_type": "Chiropractor"}, {"name": "Mancuso Clinic Pain and Longevity", "address": "33 Foundry St #110, Moncton, NB E1C 0W9", "city": "Moncton", "phone": "+1 506-805-3645", "website": "https://mancusoclinic.com/", "rating": 4.9, "reviews": 245, "place_id": "ChIJpcz8rt-5oEwRoJiRF4IiAtc", "latitude": 46.0838056, "longitude": -64.77960279999999, "care_type": "Chiropractor"}, {"name": "Dr. Shauna Dunbar \u2013 ReAlign Chiropractic", "address": "133 Killam Dr, Moncton, NB E1C 3S4", "city": "Moncton", "phone": "+1 506-387-4325", "website": "https://realignme.ca/", "rating": 5.0, "reviews": 15, "place_id": "ChIJZQZpr2a5oEwRHuM9IVAVmfs", "latitude": 46.0979299, "longitude": -64.817919, "care_type": "Chiropractor"}, {"name": "Centre Chiropratique Dieppe Chiropractic Center", "address": "421 Acadie Ave, Dieppe, NB E1A 1H4", "city": "Dieppe", "phone": "+1 506-389-9529", "website": "http://dieppechiropractic.ca/", "rating": 5.0, "reviews": 14, "place_id": "ChIJ-7dGP025oEwRZ46HzBnVkFk", "latitude": 46.095501, "longitude": -64.751498, "care_type": "Chiropractor"}, {"name": "Chiro Plus Dieppe", "address": "650 Champlain St #101, Dieppe, NB E1A 1P5", "city": "Dieppe", "phone": "+1 506-860-7587", "website": "http://chiroplusdieppe.ca/", "rating": 5.0, "reviews": 150, "place_id": "ChIJUUa8vwK8oEwRB6Apr8yUMpk", "latitude": 46.0995366, "longitude": -64.7271727, "care_type": "Chiropractor"}, {"name": "Dr. Todd Clayton", "address": "421 Acadie Ave, Dieppe, NB E1A 1H4", "city": "Dieppe", "phone": "+1 506-389-9529", "website": "https://www.dieppechiropractic.ca/", "rating": 4.8, "reviews": 18, "place_id": "ChIJJ7ZGP025oEwRk2-CvwZDLR8", "latitude": 46.09566969999999, "longitude": -64.7512275, "care_type": "Chiropractor"}, {"name": "LeBlanc Michel Dr", "address": "233 Archibald St, Moncton, NB E1C 5J8", "city": "Moncton", "phone": "+1 506-855-6636", "website": "", "rating": 5.0, "reviews": 4, "place_id": "ChIJPXK09C-5oEwRznu7eabviQs", "latitude": 46.0942793, "longitude": -64.78414459999999, "care_type": "Chiropractor"}, {"name": "Chiro Plus", "address": "91 Driscoll Crescent, Moncton, NB E1E 4C8", "city": "Moncton", "phone": "+1 506-857-8888", "website": "", "rating": null, "reviews": 0, "place_id": "ChIJYbNZivK4oEwRg-cq9HyXhss", "latitude": 46.0851379, "longitude": -64.8351693, "care_type": "Chiropractor"}, {"name": "Cheryl Hache DC", "address": "294 Highfield St, Moncton, NB E1C 5R6", "city": "Moncton", "phone": "+1 506-855-2186", "website": "", "rating": null, "reviews": 0, "place_id": "ChIJ58HdSS-5oEwRFZgbagjV_hw", "latitude": 46.0961823, "longitude": -64.78803309999999, "care_type": "Chiropractor"}, {"name": "Dr. Miah Robichaud-Lorde (Shediac)", "address": "342 Main St, Shediac, NB E4P 0P2", "city": "Shediac", "phone": "+1 506-532-7996", "website": "https://www.drmiahrl.com/", "rating": 5.0, "reviews": 90, "place_id": "ChIJJcefUFWRoEwR-9dcdab4zbc", "latitude": 46.2205126, "longitude": -64.5440155, "care_type": "Chiropractor"}, {"name": "Chiro Sant\u00e9 & Wellness", "address": "352 Main St, Shediac, NB E4P 2E8", "city": "Shediac", "phone": "+1 506-532-1112", "website": "http://www.chirosw.ca/", "rating": 4.4, "reviews": 7, "place_id": "ChIJUV3RTNeQoEwRN7_2WAOQYts", "latitude": 46.219551, "longitude": -64.54310439999999, "care_type": "Chiropractor"}, {"name": "Robichaud Yves-Martin Dr", "address": "Centreville Mall, 342 Main St, Shediac, NB E4P 1E7", "city": "Shediac", "phone": "+1 506-532-1114", "website": "", "rating": 5.0, "reviews": 1, "place_id": "ChIJ5fil5x8jpEwR780zPL6ZaP8", "latitude": 46.2205507, "longitude": -64.54424449999999, "care_type": "Chiropractor"}, {"name": "Dr. Caroline Rioux, DC Inc.", "address": "131 \u00c9vang\u00e9line St, Grand Falls, NB E3Y 1C2", "city": "Grand Falls", "phone": "+1 506-473-1777", "website": "", "rating": 5.0, "reviews": 7, "place_id": "ChIJNZRJ6R7RvEwRnStEoHxn1bQ", "latitude": 47.0533614, "longitude": -67.73033939999999, "care_type": "Chiropractor"}, {"name": "Centre Sante Chiropratique Grand Sault", "address": "218 Bd Broadway, Grand-Sault, NB E3Z 1G4", "city": "Grand Falls", "phone": "+1 506-582-2000", "website": "", "rating": 5.0, "reviews": 3, "place_id": "ChIJwQWqW_3QvEwR9BfCWcqSuLE", "latitude": 47.0487231, "longitude": -67.7400315, "care_type": "Chiropractor"}, {"name": "Dr.Spencer Keli", "address": "627 Chem. Madawaska, Grand-Sault, NB E3Y 1A1", "city": "Grand Falls", "phone": "+1 506-473-3200", "website": "", "rating": 4.9, "reviews": 7, "place_id": "ChIJq6qqqunQvEwRpc24Zz9NdhY", "latitude": 47.0613937, "longitude": -67.7597122, "care_type": "Chiropractor"}, {"name": "LeBlanc Jean-Luc Dr", "address": "650 Champlain St, Dieppe, NB E1A 1P5", "city": "Dieppe", "phone": "+1 506-860-7587", "website": "", "rating": 5.0, "reviews": 3, "place_id": "ChIJHwCEvwK8oEwRe_7FKijWRE4", "latitude": 46.0995414, "longitude": -64.72722519999999, "care_type": "Chiropractor"}, {"name": "Acadia Chiropractic Centre Chiropratique Acadie", "address": "478 Acadie Ave, Dieppe, NB E1A 1H8", "city": "Dieppe", "phone": "+1 506-389-8000", "website": "", "rating": 5.0, "reviews": 3, "place_id": "ChIJdV9qy0y5oEwR8KxrI9tpIo0", "latitude": 46.0966933, "longitude": -64.7536219, "care_type": "Chiropractor"}, {"name": "Dr Louis Marcel Robichaud", "address": "478 Acadie Ave, Dieppe, NB E1A 1H8", "city": "Dieppe", "phone": "+1 506-389-8000", "website": "", "rating": 5.0, "reviews": 4, "place_id": "ChIJ1V9qy0y5oEwRPlIOEOkNYCg", "latitude": 46.0966933, "longitude": -64.7536219, "care_type": "Chiropractor"}, {"name": "Rehab1 Dieppe", "address": "339 Champlain St #102, Dieppe, NB E1A 1P2", "city": "Dieppe", "phone": "+1 506-854-1151", "website": "https://www.rehab1.ca/", "rating": 5.0, "reviews": 58, "place_id": "ChIJuW6JWdq_oEwR0I2YmWmntqM", "latitude": 46.09692, "longitude": -64.7421899, "care_type": "Chiropractor"}, {"name": "Town Health Solutions", "address": "395 Connell St Unit 4, Woodstock, NB E7M 5G5", "city": "Woodstock", "phone": "+1 506-425-2411", "website": "https://townhealthsolutions.com/", "rating": 4.9, "reviews": 66, "place_id": "ChIJxeXRgE3tpEwRQTvDwyqAm4U", "latitude": 46.1706127, "longitude": -67.601879, "care_type": "Chiropractor"}, {"name": "The Wellness Zone", "address": "779 Main St, Woodstock, NB E7M 2E9", "city": "Woodstock", "phone": "+1 506-450-7395", "website": "https://www.thewellnesszone.ca/", "rating": 5.0, "reviews": 2, "place_id": "ChIJwyN9S2aTpEwRjrbh4myt1RY", "latitude": 46.15865729999999, "longitude": -67.5740239, "care_type": "Chiropractor"}, {"name": "Capture Therapeutics", "address": "100 Jones St. Suite 201, Woodstock, NB E7M 0H6", "city": "Woodstock", "phone": "+1 506-325-1565", "website": "http://www.capturetherapeutics.com/", "rating": 4.6, "reviews": 55, "place_id": "ChIJ9TnjNAiTpEwRrDoSjGI5ADo", "latitude": 46.1686485, "longitude": -67.5941931, "care_type": "Chiropractor"}, {"name": "Dr. Emmanuel Basque D.C. Chiropractor (at Living Strong Healing Centre)", "address": "401 Connell St, Woodstock, NB E7M 5G5", "city": "Woodstock", "phone": "", "website": "", "rating": null, "reviews": 0, "place_id": "ChIJmWTd3dyTpEwRk9wMnQgAh5E", "latitude": 46.1708678, "longitude": -67.6029112, "care_type": "Chiropractor"}]