[{"name": "Abercrombie Wellness Clinic", "address": "1234 W Pierce St, Carlsbad, NM 88220", "city": "Carlsbad", "phone": "+1 575-885-5808", "website": "https://abercrombiewellnessclinic.com/", "rating": 5.0, "reviews": 494, "place_id": "ChIJceNNQSx444YReWuDjuMwbYA", "latitude": 32.436302, "longitude": -104.24364, "care_type": "Chiropractor"}, {"name": "ACT Chiropractic", "address": "710 N Canal St, Carlsbad, NM 88220", "city": "Carlsbad", "phone": "+1 575-887-3263", "website": "https://www.andrewtwitchell.com/%3Futm_source%3Dgoogle%26utm_medium%3DGMB%26utm_campaign%3Dwebsite", "rating": 4.8, "reviews": 78, "place_id": "ChIJoYJWrsh544YR2WrWl9V_zOQ", "latitude": 32.4281594, "longitude": -104.228526, "care_type": "Chiropractor"}, {"name": "Wheeler Chiropractic", "address": "411 E Church St, Carlsbad, NM 88220", "city": "Carlsbad", "phone": "+1 575-885-2440", "website": "", "rating": 5.0, "reviews": 20, "place_id": "ChIJR6pqKtJ544YRvmYj76xTsX4", "latitude": 32.4283174, "longitude": -104.221231, "care_type": "Chiropractor"}, {"name": "CareMore Chiropractic Centers - Los Lunas", "address": "352 Main St NE, Los Lunas, NM 87031", "city": "Los Lunas", "phone": "+1 505-865-3333", "website": "https://www.albuquerquechiropractor4u.com/los-lunas-chiropractor/", "rating": 4.6, "reviews": 103, "place_id": "ChIJt67WMMkcIocRjMln2Xjt-wE", "latitude": 34.8064358, "longitude": -106.7324803, "care_type": "Chiropractor"}, {"name": "Wolff Family Chiropractic", "address": "643 NM-314 Suite 1, Los Lunas, NM 87031", "city": "Los Lunas", "phone": "+1 505-866-1226", "website": "http://www.wolfffamilychiro.com/", "rating": 4.8, "reviews": 58, "place_id": "ChIJOeJoYDMDIocR9hmmuZmGb7A", "latitude": 34.80138609999999, "longitude": -106.7379835, "care_type": "Chiropractor"}, {"name": "Johnson Chiropractic Clinic, LLC", "address": "4205 NM-314, Los Lunas, NM 87031", "city": "Los Lunas", "phone": "+1 505-565-0548", "website": "http://www.johnsonchiro.net/", "rating": 4.3, "reviews": 17, "place_id": "ChIJLXRjB0IdIocRXJccT2MynJw", "latitude": 34.7595033, "longitude": -106.7468964, "care_type": "Chiropractor"}, {"name": "Cl\u00ednicas Alivio By. Dr Marioni (Sunland Park, NM)", "address": "1500 Appaloosa Dr building a suite 150, Sunland Park, NM 88063", "city": "Sunland Park", "phone": "+1 915-777-2028", "website": "https://clinicasalivio.com/", "rating": 5.0, "reviews": 3, "place_id": "ChIJlU2KpWZF54YR_B2n11KzIGI", "latitude": 31.8021637, "longitude": -106.5649907, "care_type": "Chiropractor"}, {"name": "Alivio Injury Solutions (Sunland Park, NM)", "address": "1500 Appaloosa Dr Building A, Suite 150, Sunland Park, NM 88063", "city": "Sunland Park", "phone": "+1 915-777-2028", "website": "", "rating": 5.0, "reviews": 3, "place_id": "ChIJrTPbuST53YYR6e5Saz7fI5k", "latitude": 31.8021733, "longitude": -106.5649773, "care_type": "Chiropractor"}, {"name": "Bruce W. Klinekole, DC AKA White Mountain Chiropractic", "address": "500 Mechem Dr, Ruidoso, NM 88345", "city": "Ruidoso", "phone": "+1 575-257-7970", "website": "http://www.drbruceklinekole.com/", "rating": 5.0, "reviews": 6, "place_id": "ChIJw8lotu_R4YYRMeltV2Cu2_I", "latitude": 33.3401962, "longitude": -105.6741088, "care_type": "Chiropractor"}, {"name": "Northern New Mexico Health Care", "address": "18648 C Private Dr, Espa\u00f1ola, NM 87532", "city": "Espa\u00f1ola", "phone": "+1 505-753-7576", "website": "https://www.northernnewmexicohealthcare.com/", "rating": 4.8, "reviews": 24, "place_id": "ChIJrbgpFcA7GIcRdYE6w5JF5J0", "latitude": 35.9724502, "longitude": -106.0390471, "care_type": "Chiropractor"}, {"name": "White Mountain Chiropractic", "address": "500 Mechem Dr B, Ruidoso, NM 88345", "city": "Ruidoso", "phone": "+1 575-257-7970", "website": "https://www.drbruceklinekole.com/", "rating": 4.0, "reviews": 4, "place_id": "ChIJw8lotu_R4YYRUiaCvprfyD8", "latitude": 33.3401962, "longitude": -105.6741088, "care_type": "Chiropractor"}, {"name": "Chiropractic Center PC", "address": "811 N Union Ave, Roswell, NM 88201", "city": "Roswell", "phone": "+1 575-623-6691", "website": "https://www.chiropracticcenterroswell.com/", "rating": 4.3, "reviews": 11, "place_id": "ChIJnXbcHsJu4oYRYg9zFLw9Wdo", "latitude": 33.401968, "longitude": -104.5358217, "care_type": "Chiropractor"}, {"name": "Thrive Chiropractic and Wellness", "address": "4685 Corrales Rd #7, Corrales, NM 87048", "city": "Corrales", "phone": "+1 505-899-2100", "website": "http://www.corraleschiropractor.com/", "rating": 4.9, "reviews": 23, "place_id": "ChIJUe5kzdt2IocRcIVmfNO0UwQ", "latitude": 35.2279167, "longitude": -106.6141357, "care_type": "Chiropractor"}, {"name": "Premier Chiropractic", "address": "1301 N Richardson Ave, Roswell, NM 88201", "city": "Roswell", "phone": "+1 575-623-2900", "website": "http://www.healthyroswell.com/", "rating": 5.0, "reviews": 49, "place_id": "ChIJ0Y0XblJu4oYR1U8ZzJq9-hM", "latitude": 33.4072179, "longitude": -104.5240778, "care_type": "Chiropractor"}, {"name": "Family First Chiropractic and Wellness Center", "address": "2700 N Farmington Ave Bldg A, Farmington, NM 87401", "city": "Farmington", "phone": "+1 505-564-2225", "website": "http://familyfirstchironm.com/", "rating": 5.0, "reviews": 312, "place_id": "ChIJQVeMP9mIO4cRwzoiDyiHGVM", "latitude": 36.7548599, "longitude": -108.1765747, "care_type": "Chiropractor"}, {"name": "Hilliard Chiropractic Group Inc.", "address": "3001 N Prince St, Clovis, NM 88101", "city": "Clovis", "phone": "+1 575-762-2933", "website": "http://www.beyondbackaches.com/", "rating": 4.8, "reviews": 25, "place_id": "ChIJ8ZdXAtndAocR1Pk1TTww40A", "latitude": 34.428887, "longitude": -103.196235, "care_type": "Chiropractor"}, {"name": "Zia Chiropractic and Wellness", "address": "121 Wyatt Dr # 22, Las Cruces, NM 88005", "city": "Las Cruces", "phone": "+1 575-219-8373", "website": "https://ziachirolc.com/", "rating": 4.9, "reviews": 56, "place_id": "ChIJBTvv-FUX3oYRnMNlY2Sjvuw", "latitude": 32.3001431, "longitude": -106.7774003, "care_type": "Chiropractor"}, {"name": "Corrales Chiropractic", "address": "4436 Corrales Rd #3, Corrales, NM 87048", "city": "Corrales", "phone": "+1 505-738-6897", "website": "http://corraleschiropractic.com/", "rating": 5.0, "reviews": 14, "place_id": "ChIJt3dk29p2IocRDSwehtz_J-0", "latitude": 35.2239849, "longitude": -106.6148779, "care_type": "Chiropractor"}, {"name": "Smith Wellness", "address": "2415 S Telshor Blvd, Las Cruces, NM 88011", "city": "Las Cruces", "phone": "+1 575-228-7513", "website": "https://www.smithwellnesslc.com/%3Futm_source%3Dgmb%26utm_medium%3Dorganic", "rating": 4.8, "reviews": 157, "place_id": "ChIJ25OI9CsW3oYR8AMk-yoe5lE", "latitude": 32.2931251, "longitude": -106.7347564, "care_type": "Chiropractor"}, {"name": "Lundgren Chiropractic Center", "address": "3301 Southern Blvd SE #304, Rio Rancho, NM 87124", "city": "Rio Rancho", "phone": "+1 505-892-2222", "website": "https://www.lundgren-chiro.com/", "rating": 4.8, "reviews": 92, "place_id": "ChIJTUdw-ABxIocRQaQ9sVSCg0A", "latitude": 35.2432004, "longitude": -106.6695442, "care_type": "Chiropractor"}, {"name": "Millennium Health & Wellness", "address": "3850 E Lohman Ave #100, Las Cruces, NM 88011", "city": "Las Cruces", "phone": "+1 575-521-0793", "website": "https://www.millenniumlc.com/", "rating": 4.6, "reviews": 398, "place_id": "ChIJ_ddXrlo93oYRwRLQUMeJKMQ", "latitude": 32.3188042, "longitude": -106.7346272, "care_type": "Chiropractor"}, {"name": "Absolute Chiropractic", "address": "2340 Grande Blvd SE Suite F, Rio Rancho, NM 87124", "city": "Rio Rancho", "phone": "+1 505-867-1122", "website": "http://rioranchochiropractic.com/", "rating": 5.0, "reviews": 498, "place_id": "ChIJVTthkFV4IocRMAXo2R9BoGo", "latitude": 35.2188995, "longitude": -106.6638019, "care_type": "Chiropractor"}, {"name": "Full Circle Chiropractic", "address": "208 E Nizhoni Blvd, Gallup, NM 87301", "city": "Gallup", "phone": "+1 505-722-7575", "website": "http://fullcircle-chiropractic.com/", "rating": 4.9, "reviews": 25, "place_id": "ChIJk9ZxIlzeJIcRDILINTr-0AI", "latitude": 35.5080636, "longitude": -108.7368706, "care_type": "Chiropractor"}, {"name": "Dr. Jacob Robinson, DC", "address": "2340 Grande Blvd SE Suite F, Rio Rancho, NM 87124", "city": "Rio Rancho", "phone": "+1 505-867-1122", "website": "https://www.rioranchochiropractic.com/us/", "rating": 5.0, "reviews": 3, "place_id": "ChIJbehSHv54IocRYGFQZm2cyfM", "latitude": 35.2188995, "longitude": -106.6638019, "care_type": "Chiropractor"}, {"name": "Gonstead Physical Medicine", "address": "1920 Westside Blvd SE, Rio Rancho, NM 87124", "city": "Rio Rancho", "phone": "+1 505-922-9444", "website": "http://www.gonstead-nm.com/index.php%3Fp%3D343483", "rating": 4.9, "reviews": 472, "place_id": "ChIJr4KIEERxIocRyww0GcGaRq8", "latitude": 35.2248077, "longitude": -106.6974334, "care_type": "Chiropractor"}, {"name": "Cathey Chiropractic", "address": "713 W Alameda St, Roswell, NM 88203", "city": "Roswell", "phone": "+1 575-622-0902", "website": "http://www.catheychiro.com/", "rating": 4.8, "reviews": 42, "place_id": "ChIJ93rRhM9u4oYRhgvx_Rj6KMA", "latitude": 33.3912375, "longitude": -104.5328665, "care_type": "Chiropractor"}, {"name": "Dr. Richard Williams, MBA., DC, APC.", "address": "1135 S Main St, Las Cruces, NM 88005", "city": "Las Cruces", "phone": "+1 575-541-9288", "website": "http://helpinghandslascruces.com/", "rating": 4.7, "reviews": 107, "place_id": "ChIJhzEU4SgW3oYRTP_oIY0XUHw", "latitude": 32.297595, "longitude": -106.7795858, "care_type": "Chiropractor"}, {"name": "Dona Ana Pain & Injury", "address": "3530 Foothills Rd, Las Cruces, NM 88011", "city": "Las Cruces", "phone": "+1 575-524-7246", "website": "https://www.575paininjury.com/", "rating": 4.9, "reviews": 110, "place_id": "ChIJI2Qhl2U93oYRiBvc3OT9oGI", "latitude": 32.314396, "longitude": -106.7385988, "care_type": "Chiropractor"}, {"name": "Zia Chiropractic", "address": "320 N Turner St, Hobbs, NM 88240", "city": "Hobbs", "phone": "+1 575-318-2640", "website": "https://ziachiropractic.com/dr-fierro-bennett-chiropractors-hobbs-new-mexico/", "rating": 4.8, "reviews": 120, "place_id": "ChIJ0zEN_N6U_IYRhy9ZFM8VmJM", "latitude": 32.7037315, "longitude": -103.1359666, "care_type": "Chiropractor"}, {"name": "Klear Chiropractic", "address": "3132 N Grimes St, Hobbs, NM 88240", "city": "Hobbs", "phone": "+1 575-393-4636", "website": "https://www.facebook.com/Klear-Chiropractic-119598924755186", "rating": 4.9, "reviews": 111, "place_id": "ChIJk1QWShuV_IYRHjdqsr_za6s", "latitude": 32.7344093, "longitude": -103.1442184, "care_type": "Chiropractor"}, {"name": "Tabor Jeffry O DC", "address": "923 N Shipp St, Hobbs, NM 88240", "city": "Hobbs", "phone": "+1 575-397-7323", "website": "", "rating": 5.0, "reviews": 6, "place_id": "ChIJSdhDyhqV_IYRQOy0OS6tfaM", "latitude": 32.710238, "longitude": -103.1378036, "care_type": "Chiropractor"}, {"name": "Coady Chiropractic Center", "address": "4530 N Lovington Hwy, Hobbs, NM 88240", "city": "Hobbs", "phone": "+1 575-392-9004", "website": "", "rating": 5.0, "reviews": 2, "place_id": "ChIJNbgJ0afq_IYRFwS9eRDQ7t0", "latitude": 32.7507995, "longitude": -103.1706022, "care_type": "Chiropractor"}, {"name": "Sutanto Chiropractic", "address": "907 US-491, Gallup, NM 87301", "city": "Gallup", "phone": "+1 505-979-1937", "website": "http://www.sutantochiropractic.com/", "rating": 4.9, "reviews": 33, "place_id": "ChIJRxqV4SbcJIcR73dCvbSo958", "latitude": 35.5343607, "longitude": -108.7601793, "care_type": "Chiropractor"}, {"name": "Dr. Rachael Tanner, DC", "address": "1808 E Aztec #7, Gallup, NM 87301", "city": "Gallup", "phone": "+1 505-721-9099", "website": "", "rating": 5.0, "reviews": 11, "place_id": "ChIJzRGgwZneJIcRM-Zjr8tGGrA", "latitude": 35.528322, "longitude": -108.715176, "care_type": "Chiropractor"}, {"name": "Healing Hands Wellness Center", "address": "1808 E Aztec #7, Gallup, NM 87301", "city": "Gallup", "phone": "+1 505-722-3979", "website": "", "rating": 4.0, "reviews": 4, "place_id": "ChIJBxGgwZneJIcR6WVrBMUqgcw", "latitude": 35.5282956, "longitude": -108.7151799, "care_type": "Chiropractor"}, {"name": "Red Canyon Chiropractic", "address": "1808 E Aztec #7, Gallup, NM 87301", "city": "Gallup", "phone": "+1 505-979-5092", "website": "https://redcanyonchiropractic.com/", "rating": 5.0, "reviews": 5, "place_id": "ChIJzWsygBzfJIcR9JJMEzEaUNM", "latitude": 35.5283037, "longitude": -108.715166, "care_type": "Chiropractor"}, {"name": "Tanner Chiropractic", "address": "1808 E Aztec #7, Gallup, NM 87301", "city": "Gallup", "phone": "+1 505-721-9099", "website": "", "rating": 5.0, "reviews": 1, "place_id": "ChIJPTjki-neJIcRoLEMh0Uceh8", "latitude": 35.5282854, "longitude": -108.7151521, "care_type": "Chiropractor"}, {"name": "Forrest Goforth", "address": "108 W Hill Ave, Gallup, NM 873016218", "city": "Gallup", "phone": "+1 505-722-9002", "website": "", "rating": 5.0, "reviews": 1, "place_id": "ChIJAQBc6eveJIcRb2dJv_04Tyw", "latitude": 35.5256957, "longitude": -108.7411862, "care_type": "Chiropractor"}, {"name": "Berg Chiropractic", "address": "122 Boardman Dr, Gallup, NM 87301", "city": "Gallup", "phone": "+1 505-863-9554", "website": "", "rating": null, "reviews": 0, "place_id": "ChIJDTb20CbcJIcRvBr6RR1fGvU", "latitude": 35.5282145, "longitude": -108.7094607, "care_type": "Chiropractor"}, {"name": "Deming Family Chiropractic", "address": "421 S Gold Ave, Deming, NM 88030", "city": "Deming", "phone": "+1 575-936-4492", "website": "https://rymap.org/business/deming-family-chiropractic-feqdqh", "rating": 4.7, "reviews": 12, "place_id": "ChIJN-SA6jbD3oYRBgULxclPDbA", "latitude": 32.2647844, "longitude": -107.7578148, "care_type": "Chiropractor"}, {"name": "Soulsby Chiropractic Life Center", "address": "909 S Gold Ave, Deming, NM 88030", "city": "Deming", "phone": "", "website": "", "rating": null, "reviews": 0, "place_id": "ChIJX1FJ2fvD3oYRdWwzTNDil1c", "latitude": 32.260063, "longitude": -107.7575863, "care_type": "Chiropractor"}, {"name": "Lifetime Chiropractic", "address": "4111 Barbara Loop SE STE C1, Rio Rancho, NM 87124", "city": "Rio Rancho", "phone": "+1 505-891-3111", "website": "http://lifetimechiropractic.com/", "rating": 4.6, "reviews": 89, "place_id": "ChIJT0rAcudwIocRyyNNpnncrwM", "latitude": 35.2356479, "longitude": -106.6540127, "care_type": "Chiropractor"}, {"name": "CareMore Chiropractic Centers - Rio Rancho", "address": "2109 Golf Course Rd SE, Rio Rancho, NM 87124", "city": "Rio Rancho", "phone": "+1 505-891-2500", "website": "https://www.albuquerquechiropractor4u.com/rio-rancho-chiropractor/", "rating": 4.8, "reviews": 233, "place_id": "ChIJS-72aqpxIocRkeiyzTDmXaE", "latitude": 35.2210869, "longitude": -106.6774769, "care_type": "Chiropractor"}, {"name": "Healing Arts Chiro & Nutri Center", "address": "2105 Golf Course Rd SE, Rio Rancho, NM 87124", "city": "Rio Rancho", "phone": "+1 505-896-3136", "website": "", "rating": 5.0, "reviews": 23, "place_id": "ChIJqV2sb6pxIocRdTdLSf73Obc", "latitude": 35.221504, "longitude": -106.677808, "care_type": "Chiropractor"}, {"name": "Rise Chiropractic", "address": "1453 Rio Rancho Blvd SE Suite 2, Rio Rancho, NM 87124", "city": "Rio Rancho", "phone": "+1 505-225-1468", "website": "https://risechironm.com/", "rating": 5.0, "reviews": 14, "place_id": "ChIJbeX5QRFxIocR-QpGe6crhC8", "latitude": 35.2338141, "longitude": -106.65881, "care_type": "Chiropractor"}, {"name": "Synergy Spine and Nerve Center", "address": "1453 Rio Rancho Blvd SE Suite 2, Rio Rancho, NM 87124", "city": "Rio Rancho", "phone": "+1 505-891-2280", "website": "https://synergyspineandnerve.com/", "rating": 4.9, "reviews": 89, "place_id": "ChIJRRy3B_RwIocRQU5yc89u0Wg", "latitude": 35.2338141, "longitude": -106.65881, "care_type": "Chiropractor"}, {"name": "The Joint Chiropractic", "address": "510 NM-528 Unit A, Bernalillo, NM 87004", "city": "Bernalillo", "phone": "+1 505-305-1070", "website": "https://www.thejoint.com/new-mexico/bernalillo/rio-rancho-47008", "rating": 4.8, "reviews": 148, "place_id": "ChIJuV74rCx5IocRatoooHtVZ5I", "latitude": 35.3186622, "longitude": -106.5742962, "care_type": "Chiropractor"}, {"name": "Grant F. Stoddard, DC", "address": "2704 Southern Blvd SE, Rio Rancho, NM 87124", "city": "Rio Rancho", "phone": "+1 505-896-1300", "website": "http://www.drgrantstoddard.com/", "rating": 5.0, "reviews": 37, "place_id": "ChIJTTneoF5wIocRo-UJTbPt9RU", "latitude": 35.2411758, "longitude": -106.6817787, "care_type": "Chiropractor"}, {"name": "B & B Chiropractic", "address": "4101 Barbara Loop SE STE D, Rio Rancho, NM 87124", "city": "Rio Rancho", "phone": "+1 505-891-2667", "website": "http://bbchiropractic.net/", "rating": 4.5, "reviews": 11, "place_id": "ChIJO5b5WudwIocROMHgM8TsfSw", "latitude": 35.2359815, "longitude": -106.6543242, "care_type": "Chiropractor"}, {"name": "James M. Barber, DC", "address": "4101 Barbara Loop SE STE D, Rio Rancho, NM 87124", "city": "Rio Rancho", "phone": "+1 505-891-2667", "website": "http://bbchiropractic.net/", "rating": 4.8, "reviews": 8, "place_id": "ChIJO5b5WudwIocRuML3Y08pjB4", "latitude": 35.2359815, "longitude": -106.6543242, "care_type": "Chiropractor"}, {"name": "Dean Wasson DC Wellspring Chiropractic", "address": "1511 Golf Course Rd SE C, Rio Rancho, NM 87124", "city": "Rio Rancho", "phone": "+1 505-933-8600", "website": "", "rating": 5.0, "reviews": 1, "place_id": "ChIJH6yBC1ZwIocRceTwVgr50jM", "latitude": 35.2305608, "longitude": -106.677572, "care_type": "Chiropractor"}, {"name": "Gonstead Family Chiropractic - West: Del Angel, Anthony, DC", "address": "1920 Westside Blvd SE, Rio Rancho, NM 87124", "city": "Rio Rancho", "phone": "+1 505-922-9444", "website": "", "rating": 5.0, "reviews": 2, "place_id": "ChIJr4KIEERxIocRQIXNz2z_IIo", "latitude": 35.2248877, "longitude": -106.6974352, "care_type": "Chiropractor"}, {"name": "Illumin8 Chiropractic - Chiropractor in Westside NM", "address": "9664 Eagle Ranch Rd NW #1, Albuquerque, NM 87114", "city": "Albuquerque", "phone": "+1 505-407-3084", "website": "https://illumin8chiro.com/locations/westside-book-now/%3Futm_source%3Dgoogle%26utm_medium%3Dorganic%26utm_campaign%3Dgmb", "rating": 4.9, "reviews": 293, "place_id": "ChIJSa10U2RxIocRfKmpb7VLeYE", "latitude": 35.1918431, "longitude": -106.6614928, "care_type": "Chiropractor"}, {"name": "The Joint Chiropractic", "address": "3410 NM-528 #109, Albuquerque, NM 87114", "city": "Albuquerque", "phone": "+1 505-295-2437", "website": "https://www.thejoint.com/new-mexico/albuquerque/albuquerque-north-47003", "rating": 4.4, "reviews": 241, "place_id": "ChIJcz6RKUFxIocRDh3HkCmJOrQ", "latitude": 35.2045146, "longitude": -106.6508964, "care_type": "Chiropractor"}, {"name": "Allied Physicians Clinic", "address": "2704 Southern Blvd SE #3, Rio Rancho, NM 87124", "city": "Rio Rancho", "phone": "+1 505-896-1300", "website": "http://www.alliedphysiciansclinic.com/", "rating": 4.5, "reviews": 2, "place_id": "ChIJTTneoF5wIocReXwc6qeoUDw", "latitude": 35.24107, "longitude": -106.6817713, "care_type": "Chiropractor"}, {"name": "EnSync Health and Wellness, LLC", "address": "2101 Golf Course Rd SE Suite C, Rio Rancho, NM 87124", "city": "Rio Rancho", "phone": "+1 505-218-7034", "website": "http://www.ensynchealthandwellness.com/", "rating": 5.0, "reviews": 37, "place_id": "ChIJo-R5iTZxIocRmonVTGqxKys", "latitude": 35.2217581, "longitude": -106.677789, "care_type": "Chiropractor"}, {"name": "Guru Chiropractic + Wellness Studio", "address": "901 Rio Grande Blvd NW Suite G154, Albuquerque, NM 87104", "city": "Albuquerque", "phone": "+1 505-808-9067", "website": "http://guruchiropracticnm.com/", "rating": 5.0, "reviews": 13, "place_id": "ChIJf5mHRsVzIocRiB2CH_45_Bg", "latitude": 35.1032595, "longitude": -106.6720024, "care_type": "Chiropractor"}, {"name": "Walters Chiropractic", "address": "6200 Coors Blvd NW # A7, Albuquerque, NM 87120", "city": "Albuquerque", "phone": "+1 505-899-0708", "website": "", "rating": 4.9, "reviews": 37, "place_id": "ChIJl9J1ok5yIocRuDHBIs_1XUQ", "latitude": 35.1531853, "longitude": -106.6817609, "care_type": "Chiropractor"}, {"name": "Inline Chiropractic", "address": "240 S Camino Del Pueblo #C, Bernalillo, NM 87004", "city": "Bernalillo", "phone": "+1 505-867-3322", "website": "https://www.inlinechiropractic.net/", "rating": 4.7, "reviews": 13, "place_id": "ChIJzacTkfR2PIcRhmOF1vg5K70", "latitude": 35.3159102, "longitude": -106.5454455, "care_type": "Chiropractor"}, {"name": "Sports Chiropractic & Massage", "address": "221 NM-165 Suite H, Placitas, NM 87043", "city": "Placitas", "phone": "+1 505-808-4739", "website": "https://sportschironm.com/", "rating": 5.0, "reviews": 146, "place_id": "ChIJWbUYAuN_j4ARTMTNI8j721M", "latitude": 35.3091265, "longitude": -106.493367, "care_type": "Chiropractor"}, {"name": "Dr. Madison Hunt", "address": "4111 Barbara Loop SE STE C1, Rio Rancho, NM 87124", "city": "Rio Rancho", "phone": "+1 505-891-3111", "website": "", "rating": null, "reviews": 0, "place_id": "ChIJDWJccudwIocRYwEidJq0rm4", "latitude": 35.235674, "longitude": -106.6539685, "care_type": "Chiropractor"}, {"name": "De Flice John MD", "address": "3715 Southern Blvd SE, Rio Rancho, NM 87124", "city": "Rio Rancho", "phone": "+1 505-462-6000", "website": "http://www.phs.org/", "rating": 5.0, "reviews": 1, "place_id": "ChIJPcMmZe5wIocRjNxvdUdZZj4", "latitude": 35.2423797, "longitude": -106.6621122, "care_type": "Chiropractor"}, {"name": "The Joint Chiropractic", "address": "540 Cordova Rd Suite B, Santa Fe, NM 87501", "city": "Santa Fe", "phone": "+1 505-608-6665", "website": "https://www.thejoint.com/new-mexico/santa-fe/santa-fe-47006%3Fy_source%3D1_MjQ4NzU4NjMtNzE1LWxvY2F0aW9uLndlYnNpdGU%3D", "rating": 4.7, "reviews": 189, "place_id": "ChIJxXOJV71RGIcREmxb6RNCIEo", "latitude": 35.6737783, "longitude": -105.9531106, "care_type": "Chiropractor"}, {"name": "Santa Fe Sport and Spine", "address": "906 S St Francis Dr, Santa Fe, NM 87505", "city": "Santa Fe", "phone": "+1 505-644-0576", "website": "https://santafesportandspine.com/chiropractic-clinic/santa-fe-nm/", "rating": 5.0, "reviews": 177, "place_id": "ChIJpSTDqD5RGIcRimQOq6MPy88", "latitude": 35.6789083, "longitude": -105.9547277, "care_type": "Chiropractor"}, {"name": "Dr. Brian Short, DC", "address": "1444C S St Francis Dr, Santa Fe, NM 87505", "city": "Santa Fe", "phone": "+1 505-660-2080", "website": "https://docshort.com/", "rating": 4.9, "reviews": 126, "place_id": "ChIJEU3M741QGIcRlc0GSaFSKH0", "latitude": 35.6652201, "longitude": -105.9571359, "care_type": "Chiropractor"}, {"name": "Family Chiropractic Center of Santa Fe", "address": "2019 Galisteo St STE M6, Santa Fe, NM 87505", "city": "Santa Fe", "phone": "+1 505-984-0006", "website": "http://www.spchiro.net/", "rating": 4.8, "reviews": 64, "place_id": "ChIJEU3M741QGIcRvelOMQewDPo", "latitude": 35.6561295, "longitude": -105.9522098, "care_type": "Chiropractor"}, {"name": "Sandoval Family Chiropractic", "address": "2860 Cerrillos Rd STE C2, Santa Fe, NM 87507", "city": "Santa Fe", "phone": "+1 505-772-0114", "website": "http://www.santafechiropractor.com/", "rating": 4.8, "reviews": 185, "place_id": "ChIJuRhqPU1DGIcRaCqm2UlsUE0", "latitude": 35.6549352, "longitude": -105.9892053, "care_type": "Chiropractor"}, {"name": "Pro-Active Chiropractic", "address": "1925 Aspen Dr STE 400B Suite 400B, Santa Fe, NM 87505", "city": "Santa Fe", "phone": "+1 505-984-0934", "website": "https://proactivechiropracticsantafe.com/", "rating": 4.7, "reviews": 50, "place_id": "ChIJfQgjDvJQGIcR45liR1tSHHI", "latitude": 35.6562174, "longitude": -105.9700109, "care_type": "Chiropractor"}, {"name": "New Mexico Family Chiropractic", "address": "3600 Rodeo Ln STE D2, Santa Fe, NM 87507", "city": "Santa Fe", "phone": "+1 505-984-0821", "website": "http://www.gonsteadnm.org/", "rating": 4.0, "reviews": 22, "place_id": "ChIJh_ufH0haGIcRsXJCDz17rxw", "latitude": 35.6381281, "longitude": -106.0064144, "care_type": "Chiropractor"}, {"name": "Midline Chiropractic", "address": "503 Webber St, Santa Fe, NM 87505", "city": "Santa Fe", "phone": "+1 505-819-3727", "website": "http://midlinechiropractic.com/", "rating": 5.0, "reviews": 58, "place_id": "ChIJVUAYsNdRGIcRSahT7epKgEA", "latitude": 35.6812688, "longitude": -105.938942, "care_type": "Chiropractor"}, {"name": "Hazen Chiropractic Health Center", "address": "2932 Richards Ave, Santa Fe, NM 87507", "city": "Santa Fe", "phone": "+1 505-473-0000", "website": "http://www.hazenchiropracticsantafe.com/", "rating": 4.8, "reviews": 13, "place_id": "ChIJwZw2IUdaGIcRAaSldKd17JY", "latitude": 35.6358968, "longitude": -106.0010136, "care_type": "Chiropractor"}, {"name": "Network Spinal, Dr. Katharine Grossman, D.C - Ma Collective", "address": "1329 Canyon Rd, Santa Fe, NM 87501", "city": "Santa Fe", "phone": "+1 781-910-9103", "website": "http://www.themacollective.com/", "rating": 5.0, "reviews": 11, "place_id": "ChIJm8o3hXlbGIcRTWILrANPT68", "latitude": 35.680651, "longitude": -105.9101503, "care_type": "Chiropractor"}, {"name": "Pink Mountain Sport & Wellnes", "address": "1500 5th St, Santa Fe, NM 87505", "city": "Santa Fe", "phone": "+1 505-302-0408", "website": "", "rating": 5.0, "reviews": 17, "place_id": "ChIJoTtk941QGIcR7ULth6mflIk", "latitude": 35.6634827, "longitude": -105.9716632, "care_type": "Chiropractor"}, {"name": "Life Wellness Center", "address": "431 St Michaels Dr # B, Santa Fe, NM 87505", "city": "Santa Fe", "phone": "+1 505-982-6886", "website": "https://www.lifewellnesscenter.com/", "rating": 4.8, "reviews": 59, "place_id": "ChIJEU3M741QGIcRBctFBAN6HFk", "latitude": 35.6565746, "longitude": -105.9419869, "care_type": "Chiropractor"}, {"name": "Back to Health Wellness Center", "address": "1651 Galisteo St STE 12, Santa Fe, NM 87505", "city": "Santa Fe", "phone": "+1 505-467-8999", "website": "http://www.backtohealthsantafe.com/", "rating": 4.9, "reviews": 11, "place_id": "ChIJyYU8coxQGIcRAd4Skj_xgns", "latitude": 35.6604648, "longitude": -105.950351, "care_type": "Chiropractor"}, {"name": "Seth Mark Friedman, DC", "address": "406 Linda Vista Rd, Santa Fe, NM 87505", "city": "Santa Fe", "phone": "+1 505-982-1135", "website": "http://www.doctorseth.com/", "rating": 4.4, "reviews": 11, "place_id": "ChIJ3WEEHWdQGIcREP0CYWfApSY", "latitude": 35.6742656, "longitude": -105.9493688, "care_type": "Chiropractor"}, {"name": "ElleWell", "address": "1650 Hospital Dr Ste 300, Santa Fe, NM 87505", "city": "Santa Fe", "phone": "+1 505-629-3116", "website": "https://www.ellewell.com/%3Futm_source%3DGBP%26utm_medium%3Dorganic", "rating": 4.8, "reviews": 151, "place_id": "ChIJDZsgSnpQGIcRiG5Zbo0kw4M", "latitude": 35.6603497, "longitude": -105.9489977, "care_type": "Chiropractor"}, {"name": "Body In Motion Sports Rehab", "address": "1221 Flagman Way Ste B-1, Santa Fe, NM 87505", "city": "Santa Fe", "phone": "+1 505-365-2774", "website": "http://www.bodyinmotionrehab.com/", "rating": 4.9, "reviews": 125, "place_id": "ChIJjy9TwOVRGIcRL4lPc_ZVPe4", "latitude": 35.6741944, "longitude": -105.9620096, "care_type": "Chiropractor"}, {"name": "Integrative Chiropractic", "address": "826 Cam De Monte Rey Ste A7, Santa Fe, NM 87505", "city": "Santa Fe", "phone": "+1 505-954-1024", "website": "https://www.integrative.services/%3FUTM_source%3DGBL", "rating": 4.9, "reviews": 48, "place_id": "ChIJf7jR_IdQGIcRzzKq3WQOBvA", "latitude": 35.6653205, "longitude": -105.9584587, "care_type": "Chiropractor"}, {"name": "Gilbert Chiropractic & Wellness, LLC", "address": "1504 S St Francis Dr, Santa Fe, NM 87505", "city": "Santa Fe", "phone": "+1 505-984-1222", "website": "https://www.gilbertchiropracticllc.com/", "rating": 4.3, "reviews": 6, "place_id": "ChIJwfn4dJNQGIcRzQF7JLGnlPE", "latitude": 35.6646044, "longitude": -105.956737, "care_type": "Chiropractor"}, {"name": "Whole Body Wellness, Sports Therapy and Wellness Center", "address": "1421 Luisa St STE R, Santa Fe, NM 87505", "city": "Santa Fe", "phone": "+1 505-557-6140", "website": "http://www.wholebodywellnessnm.com/", "rating": 4.9, "reviews": 98, "place_id": "ChIJxe8K4o1QGIcRDL7vAHJKlS0", "latitude": 35.6685744, "longitude": -105.9513961, "care_type": "Chiropractor"}, {"name": "Stephen Perlstein, DC", "address": "2019 Galisteo St, Santa Fe, NM 87505", "city": "Santa Fe", "phone": "+1 505-984-0006", "website": "http://www.spchiro.net/office-info/", "rating": 5.0, "reviews": 5, "place_id": "ChIJEU3M741QGIcRw5-YH-0LoSc", "latitude": 35.657429, "longitude": -105.951637, "care_type": "Chiropractor"}, {"name": "Schneider Linda DC", "address": "510 S St Francis Dr, Santa Fe, NM 87501", "city": "Santa Fe", "phone": "+1 505-690-6161", "website": "http://www.drlindainsantafe.com/", "rating": 5.0, "reviews": 9, "place_id": "ChIJyyUbPhVQGIcRKfIeY5I8zK0", "latitude": 35.682866, "longitude": -105.9551415, "care_type": "Chiropractor"}, {"name": "Summit Spine and Sports Medicine, LLC", "address": "Suite 803-B, 1925 Aspen Dr, Santa Fe, NM 87505", "city": "Santa Fe", "phone": "+1 505-780-8617", "website": "", "rating": 5.0, "reviews": 7, "place_id": "ChIJ2XF4hIJQGIcRTXLSrrzbyXc", "latitude": 35.6557697, "longitude": -105.9696511, "care_type": "Chiropractor"}, {"name": "Dr. Pisano Susan M DC", "address": "1210 Luisa St #10, Santa Fe, NM 87505", "city": "Santa Fe", "phone": "+1 505-660-8589", "website": "", "rating": 5.0, "reviews": 2, "place_id": "ChIJRdG0jZ5aGIcRSbRn4pT3KaU", "latitude": 35.6718298, "longitude": -105.9504566, "care_type": "Chiropractor"}, {"name": "Dr. Randall Polgar at Well Adjusted Holistic Health", "address": "216 Rabbit Rd, Santa Fe, NM 87508", "city": "Santa Fe", "phone": "+1 505-577-7974", "website": "http://welladjustedholistichealth.com/", "rating": 5.0, "reviews": 9, "place_id": "ChIJU_xjxmlQGIcR3QDduFG1JnE", "latitude": 35.626622, "longitude": -105.9606826, "care_type": "Chiropractor"}, {"name": "Dr. Chaz Schatzle", "address": "1651 Galisteo St STE 12, Santa Fe, NM 87505", "city": "Santa Fe", "phone": "+1 505-467-8999", "website": "https://www.backtohealthsantafe.com/", "rating": 5.0, "reviews": 1, "place_id": "ChIJ9ToqaYxQGIcRmPOYqDxy5kE", "latitude": 35.6604648, "longitude": -105.950351, "care_type": "Chiropractor"}, {"name": "Body & Soulworks LLC", "address": "406 Linda Vista Rd, Santa Fe, NM 87505", "city": "Santa Fe", "phone": "+1 505-500-2907", "website": "http://bodyandsoulworks.com/", "rating": 5.0, "reviews": 2, "place_id": "ChIJ3WEEHWdQGIcR5VzbhRUTcvU", "latitude": 35.6742656, "longitude": -105.9493688, "care_type": "Chiropractor"}, {"name": "Connerly Physical Medicine Group", "address": "2074 Galisteo St STE B5, Santa Fe, NM 87505", "city": "Santa Fe", "phone": "+1 505-988-8017", "website": "http://connerlychiropracticcenter.com/", "rating": 4.5, "reviews": 51, "place_id": "ChIJ_4lUT4RQGIcR1ipx9e8wJuk", "latitude": 35.6547922, "longitude": -105.9558046, "care_type": "Chiropractor"}, {"name": "John C. Connerly, DC", "address": "2074 Galisteo St, Santa Fe, NM 87505", "city": "Santa Fe", "phone": "+1 505-988-8017", "website": "http://www.connerlychiropracticcenter.com/", "rating": 4.4, "reviews": 9, "place_id": "ChIJ_4lUT4RQGIcRimq5izebv4A", "latitude": 35.6547922, "longitude": -105.9558046, "care_type": "Chiropractor"}, {"name": "Santa Fe Pain Center Inc: Willow Wren DC", "address": "11 Cll Medico # 3, Santa Fe, NM 87505", "city": "Santa Fe", "phone": "+1 505-983-3037", "website": "", "rating": null, "reviews": 0, "place_id": "ChIJfQgjDvJQGIcROpEHl9XFWRU", "latitude": 35.6581011, "longitude": -105.9414212, "care_type": "Chiropractor"}, {"name": "Santa Fe Pain Center Inc: Kalin Nina DC", "address": "11 Cll Medico # 3, Santa Fe, NM 87505", "city": "Santa Fe", "phone": "+1 505-983-3037", "website": "", "rating": null, "reviews": 0, "place_id": "ChIJfQgjDvJQGIcRunzgeoFWkkw", "latitude": 35.6581011, "longitude": -105.9414212, "care_type": "Chiropractor"}, {"name": "Ellenita B. Salko Reynolds, DC", "address": "1650 Hospital Dr Ste 300, Santa Fe, NM 87505", "city": "Santa Fe", "phone": "+1 505-629-3116", "website": "http://www.ellewell.com/", "rating": null, "reviews": 0, "place_id": "ChIJbfsklAxQGIcRJva7cN2Mpqk", "latitude": 35.6604795, "longitude": -105.9488285, "care_type": "Chiropractor"}, {"name": "Inspire Chiropractic - Dr. Kerry L. Miller, DC", "address": "1807 2nd St #81, Santa Fe, NM 87505", "city": "Santa Fe", "phone": "+1 505-603-8090", "website": "http://www.santafechiropractic.info/", "rating": 5.0, "reviews": 5, "place_id": "ChIJvR8Bt4BQGIcRc7zs2l2BKi8", "latitude": 35.6629942, "longitude": -105.9647508, "care_type": "Chiropractor"}, {"name": "James A. Cobb, DC", "address": "1214 Hickox St, Santa Fe, NM 87505", "city": "Santa Fe", "phone": "+1 505-986-0887", "website": "", "rating": 5.0, "reviews": 2, "place_id": "ChIJ39XOknFQGIcRAZxrSJhwBi4", "latitude": 35.6807383, "longitude": -105.9597352, "care_type": "Chiropractor"}, {"name": "Noreen M. Sullivan, DC", "address": "1301 Luisa St, Santa Fe, NM 87505", "city": "Santa Fe", "phone": "+1 505-982-0691", "website": "http://www.nmchiro.org/", "rating": 3.0, "reviews": 2, "place_id": "ChIJN8wKO2FQGIcRmxX7yivzhrs", "latitude": 35.6710112, "longitude": -105.9501143, "care_type": "Chiropractor"}, {"name": "Dr. Tara White, Mystic", "address": "826 Cam De Monte Rey Ste A7, Santa Fe, NM 87505", "city": "Santa Fe", "phone": "+1 505-988-9630", "website": "", "rating": 5.0, "reviews": 6, "place_id": "ChIJf7jR_IdQGIcRY90E5U5b-D0", "latitude": 35.6649717, "longitude": -105.958471, "care_type": "Chiropractor"}, {"name": "Chiro Orthopedics: Michael Nunnally DC DABCO", "address": "1482 S St Francis Dr A, Santa Fe, NM 87505", "city": "Santa Fe", "phone": "+1 505-982-7339", "website": "http://drnunnally.com/", "rating": 5.0, "reviews": 2, "place_id": "ChIJa_lNR4hQGIcRyHbUfcHpMS0", "latitude": 35.664496, "longitude": -105.957654, "care_type": "Chiropractor"}, {"name": "Feldman Sydele DC", "address": "401 Alejandro St, Santa Fe, NM 87501", "city": "Santa Fe", "phone": "+1 505-995-8851", "website": "", "rating": null, "reviews": 0, "place_id": "ChIJw3hDf5taGIcRIojAlNQn2O8", "latitude": 35.6765652, "longitude": -105.9761537, "care_type": "Chiropractor"}, {"name": "Desert Rain Chiropractic", "address": "2019 Galisteo St STE N8, Santa Fe, NM 87505", "city": "Santa Fe", "phone": "+1 505-500-2907", "website": "https://desertrainchiropractic.com/", "rating": null, "reviews": 0, "place_id": "ChIJ0dQfCMFRGIcRdGOlz7lhiz0", "latitude": 35.6561754, "longitude": -105.9511842, "care_type": "Chiropractor"}, {"name": "Jerome De Castro Buenviaje", "address": "3600 Rodeo Ln Ste D2, Santa Fe, NM 87507", "city": "Santa Fe", "phone": "+1 505-984-0821", "website": "", "rating": 5.0, "reviews": 1, "place_id": "ChIJVVVRF0haGIcRaxwP4YNU8yQ", "latitude": 35.6385921, "longitude": -106.0063685, "care_type": "Chiropractor"}, {"name": "Susan M. Bright, DC", "address": "1504 S St Francis Dr, Santa Fe, NM 87505", "city": "Santa Fe", "phone": "+1 505-984-1222", "website": "http://www.nmchiro.org/", "rating": null, "reviews": 0, "place_id": "ChIJN_yFP4hQGIcRgWrHjIF79AE", "latitude": 35.6646888, "longitude": -105.956744, "care_type": "Chiropractor"}, {"name": "Mark Jensen DC", "address": "1500 5th St, Santa Fe, NM 87505", "city": "Santa Fe", "phone": "+1 505-603-6518", "website": "http://www.marksjensendc.com/", "rating": null, "reviews": 0, "place_id": "ChIJ64Oh-X1QGIcRGeA9w8QejgU", "latitude": 35.663766, "longitude": -105.97203, "care_type": "Chiropractor"}, {"name": "Angel Chiropractic", "address": "1330 Cerro Gordo Rd Unit A2, Santa Fe, NM 87501", "city": "Santa Fe", "phone": "+1 415-332-0621", "website": "http://angelchiro.com/", "rating": null, "reviews": 0, "place_id": "ChIJl9gTtSRRGIcR5iZFVyfNoS4", "latitude": 35.6827041, "longitude": -105.9113511, "care_type": "Chiropractor"}, {"name": "Harold Steinberg, DC", "address": "1400 Maclovia St, Santa Fe, NM 87505", "city": "Santa Fe", "phone": "+1 505-473-0057", "website": "", "rating": null, "reviews": 0, "place_id": "ChIJG1w-jGJaGIcRAxQoS8_ZE0U", "latitude": 35.6611705, "longitude": -105.9842638, "care_type": "Chiropractor"}, {"name": "Gilbert Nina DC", "address": "301 E Palace Ave # C, Santa Fe, NM 87501", "city": "Santa Fe", "phone": "+1 505-820-1572", "website": "", "rating": null, "reviews": 0, "place_id": "ChIJl3zDk0hQGIcRoeiDPQcKorM", "latitude": 35.6866624, "longitude": -105.9336406, "care_type": "Chiropractor"}, {"name": "Lunden Rae S DC", "address": "1925 Aspen Dr, Santa Fe, NM 87505", "city": "Santa Fe", "phone": "+1 505-474-3422", "website": "", "rating": null, "reviews": 0, "place_id": "ChIJOwa5f3haGIcRSfX0PSCFBqY", "latitude": 35.655795, "longitude": -105.9696844, "care_type": "Chiropractor"}, {"name": "Madrid Chiropractic", "address": "2009 Botulph Rd, Santa Fe, NM 87505", "city": "Santa Fe", "phone": "+1 505-988-4829", "website": "https://www.madridchiropractic.com/about-us/services---techniques/magnetic-resonance-therapy.html", "rating": null, "reviews": 0, "place_id": "ChIJBcgboJJQGIcRAQUK-oe5-eE", "latitude": 35.6564197, "longitude": -105.9479332, "care_type": "Chiropractor"}, {"name": "Toni L. Rivera, DC", "address": "7313 Old Santa Fe Trail, Santa Fe, NM 87505", "city": "Santa Fe", "phone": "+1 505-988-4190", "website": "", "rating": null, "reviews": 0, "place_id": "ChIJr-eKUdNWGIcRLCZugKoQ8F4", "latitude": 35.6284712, "longitude": -105.916314, "care_type": "Chiropractor"}, {"name": "Dr. Julie Grace", "address": "805 Early St #B102, Santa Fe, NM 87505", "city": "Santa Fe", "phone": "+1 505-216-1119", "website": "", "rating": null, "reviews": 0, "place_id": "ChIJqwiXsGhQGIcRWj_ACkiWLwQ", "latitude": 35.678181, "longitude": -105.9516823, "care_type": "Chiropractor"}, {"name": "B Calico Hickey, DC", "address": "714 Cll Grillo, Santa Fe, NM 87505", "city": "Santa Fe", "phone": "+1 505-984-0972", "website": "", "rating": null, "reviews": 0, "place_id": "ChIJ_QweDmZQGIcRozKeI16WEH4", "latitude": 35.6763317, "longitude": -105.9516359, "care_type": "Chiropractor"}, {"name": "Kopriva Kevin L DC", "address": "6 Cll Medico, Santa Fe, NM 87505", "city": "Santa Fe", "phone": "+1 505-982-2553", "website": "", "rating": null, "reviews": 0, "place_id": "ChIJL9ilQPJQGIcRwtq-k_bne8U", "latitude": 35.6588345, "longitude": -105.9420372, "care_type": "Chiropractor"}, {"name": "Baranowski Christine DC", "address": "2905 Rodeo Park Dr E #3, Santa Fe, NM 87505", "city": "Santa Fe", "phone": "+1 505-424-3976", "website": "", "rating": null, "reviews": 0, "place_id": "ChIJBzkEzaRQGIcRB7RaZbPLeoY", "latitude": 35.6375974, "longitude": -105.9580077, "care_type": "Chiropractor"}, {"name": "Life Enhancement Chiropractic", "address": "1504 S St Francis Dr, Santa Fe, NM 87505", "city": "Santa Fe", "phone": "+1 505-310-5810", "website": "", "rating": null, "reviews": 0, "place_id": "ChIJN_yFP4hQGIcRk_XPP0dW5bw", "latitude": 35.6646888, "longitude": -105.956744, "care_type": "Chiropractor"}, {"name": "Buenviaje Melanie DC", "address": "3600 Rodeo Ln D-2, Santa Fe, NM 87507", "city": "Santa Fe", "phone": "+1 505-984-0821", "website": "http://www.nmchiro.org/", "rating": null, "reviews": 0, "place_id": "ChIJh_ufH0haGIcRx1q8I1UZvOk", "latitude": 35.6384021, "longitude": -106.0064512, "care_type": "Chiropractor"}, {"name": "Robert Walls DC", "address": "3600 Rodeo Ln, Santa Fe, NM 87507", "city": "Santa Fe", "phone": "+1 505-780-8920", "website": "", "rating": null, "reviews": 0, "place_id": "ChIJh_ufH0haGIcRa6yv2UJxf-4", "latitude": 35.6385674, "longitude": -106.0064287, "care_type": "Chiropractor"}, {"name": "Tai Chi Chuan Dr Jaime Cobb: Cobb Jamie DC", "address": "1214 Hickox St, Santa Fe, NM 87505", "city": "Santa Fe", "phone": "+1 505-986-0887", "website": "", "rating": null, "reviews": 0, "place_id": "ChIJ39XOknFQGIcRh9E9MDcdLl4", "latitude": 35.6807764, "longitude": -105.9597701, "care_type": "Chiropractor"}, {"name": "Teach Touch Talk", "address": "Santa Fe, NM 87505", "city": "Santa Fe", "phone": "+1 505-988-4190", "website": "", "rating": null, "reviews": 0, "place_id": "ChIJDdAJ_0ZQGIcR0ye0w5zrOHw", "latitude": 35.6869812, "longitude": -105.9377966, "care_type": "Chiropractor"}, {"name": "Dr. Jaime Cobb DC DOM", "address": "1214 Hickox St, Santa Fe, NM 87505", "city": "Santa Fe", "phone": "+1 505-986-0887", "website": "", "rating": null, "reviews": 0, "place_id": "ChIJqzE5_MtRGIcRifKo_J49znE", "latitude": 35.6807764, "longitude": -105.9597701, "care_type": "Chiropractor"}, {"name": "Joanna Corti, DOM", "address": "439 W San Francisco St, Santa Fe, NM 87501", "city": "Santa Fe", "phone": "+1 505-989-1460", "website": "", "rating": null, "reviews": 0, "place_id": "ChIJ0ZDjij9QGIcRyeAiTg_r730", "latitude": 35.6890689, "longitude": -105.9448246, "care_type": "Chiropractor"}, {"name": "Dr. Larry Widmer", "address": "1892 Plaza Del Sur Dr Ste A, Santa Fe, NM 87505", "city": "Santa Fe", "phone": "+1 505-988-8017", "website": "", "rating": 3.0, "reviews": 2, "place_id": "ChIJ___vRYRQGIcRD4aUayhsISU", "latitude": 35.6582035, "longitude": -105.9619551, "care_type": "Chiropractor"}, {"name": "Sangre De Cristo Wellness Center", "address": "1421 Luisa St # A, Santa Fe, NM 87505", "city": "Santa Fe", "phone": "+1 505-983-4225", "website": "", "rating": null, "reviews": 0, "place_id": "ChIJyYpbmmFQGIcR6BTqtDVOqFI", "latitude": 35.668472, "longitude": -105.950736, "care_type": "Chiropractor"}, {"name": "Taos Chiropractic, LLC", "address": "813 Paseo Del Pueblo Norte, Taos, NM 87571", "city": "Taos", "phone": "+1 575-758-8498", "website": "http://www.taoschiropractic.com/", "rating": 4.8, "reviews": 49, "place_id": "ChIJc_9oGEBlF4cRkGAIIv2ayMs", "latitude": 36.4216705, "longitude": -105.5723312, "care_type": "Chiropractor"}, {"name": "Doc Brown Chiropractic and Wellness", "address": "207 Paseo Del Pueblo Sur suite b, Taos, NM 87571", "city": "Taos", "phone": "+1 575-758-3382", "website": "https://www.docbrowntaos.com/", "rating": 5.0, "reviews": 66, "place_id": "ChIJk9poAnZlF4cRqLNBvOm60Bc", "latitude": 36.404747, "longitude": -105.5735397, "care_type": "Chiropractor"}, {"name": "Be Well Chiropractic", "address": "118 Cam De La Placita, Taos, NM 87571", "city": "Taos", "phone": "+1 575-741-1888", "website": "http://www.bewelltaos.com/", "rating": 5.0, "reviews": 6, "place_id": "ChIJXZHHQIVlF4cRjzimkTAPxss", "latitude": 36.4064092, "longitude": -105.5756516, "care_type": "Chiropractor"}, {"name": "Smalling Chiropractic", "address": "1337 Gusdorf Rd # U, Taos, NM 87571", "city": "Taos", "phone": "+1 575-751-4325", "website": "http://www.smallingclinic.com/", "rating": 5.0, "reviews": 1, "place_id": "ChIJaUJUPMpkF4cRIzHaNaL9xmY", "latitude": 36.3709279, "longitude": -105.5916132, "care_type": "Chiropractor"}, {"name": "Colonias Chiropractic Center", "address": "98 NM-150 #7, Taos, NM 87571", "city": "Taos", "phone": "+1 575-776-1117", "website": "http://coloniaschiropractic.com/", "rating": 4.1, "reviews": 9, "place_id": "ChIJsX7JTedtF4cRTrLZoLNppHU", "latitude": 36.4708557, "longitude": -105.5944061, "care_type": "Chiropractor"}, {"name": "Douglas P. Christian, DC", "address": "813 Paseo Del Pueblo Norte, Taos, NM 87571", "city": "Taos", "phone": "+1 575-758-8498", "website": "http://www.taoschiropractic.com/", "rating": 5.0, "reviews": 1, "place_id": "ChIJc_9oGEBlF4cRMZpDqAn0Yh4", "latitude": 36.4216785, "longitude": -105.5723355, "care_type": "Chiropractor"}, {"name": "El Centro Chiropractic", "address": "623 Paseo Del Pueblo Sur # D, Taos, NM 87571", "city": "Taos", "phone": "+1 575-758-2944", "website": "", "rating": null, "reviews": 0, "place_id": "ChIJ0Yb9fSdlF4cRQ3e7z2rDAGQ", "latitude": 36.3942266, "longitude": -105.5792993, "care_type": "Chiropractor"}, {"name": "Goforth Chiropractic,LLC", "address": "826 US-60, Socorro, NM 87801", "city": "Socorro", "phone": "+1 575-835-9288", "website": "", "rating": 4.1, "reviews": 9, "place_id": "ChIJta9jnzfLIYcRXe6MfFHrLfg", "latitude": 34.0468327, "longitude": -106.9055129, "care_type": "Chiropractor"}, {"name": "Hazen Chiropractic Center", "address": "1825 W 21st St, Clovis, NM 88101", "city": "Clovis", "phone": "+1 575-935-5560", "website": "http://hazenchiropractor.com/", "rating": 4.9, "reviews": 103, "place_id": "ChIJu2XnR47eAocR2a8qbZxXV30", "latitude": 34.4189099, "longitude": -103.226752, "care_type": "Chiropractor"}, {"name": "Smith Chiropractic Center", "address": "3016 N Prince St suite a, Clovis, NM 88101", "city": "Clovis", "phone": "+1 575-763-3333", "website": "", "rating": 4.6, "reviews": 21, "place_id": "ChIJ2Rw9HnfeAocRw8mBAw9keFQ", "latitude": 34.4293025, "longitude": -103.1967926, "care_type": "Chiropractor"}, {"name": "Pope-Wyatt Darcy DC, APC, CACCP", "address": "1120 E Manana Blvd, Clovis, NM 88101", "city": "Clovis", "phone": "+1 575-742-2117", "website": "", "rating": 5.0, "reviews": 11, "place_id": "ChIJk9BDFRTeAocRFRWgcgzkeQc", "latitude": 34.4264378, "longitude": -103.1919241, "care_type": "Chiropractor"}, {"name": "Dr. Greg Bobo, DC", "address": "3001 N Prince St, Clovis, NM 88101", "city": "Clovis", "phone": "+1 575-762-2933", "website": "http://beyondbackaches.com/", "rating": 2.3, "reviews": 3, "place_id": "ChIJKwjdbVPfAocRHDBAviS0psc", "latitude": 34.4288445, "longitude": -103.19624, "care_type": "Chiropractor"}, {"name": "Dr Caleb Barnett, DC", "address": "205 Innsdale Terrace, Clovis, NM 88101", "city": "Clovis", "phone": "+1 575-769-1700", "website": "", "rating": 5.0, "reviews": 11, "place_id": "ChIJ_crTRzjeAocR0gMpPLBNtGQ", "latitude": 34.4399035, "longitude": -103.1948984, "care_type": "Chiropractor"}, {"name": "Smith Samuel T DC", "address": "1825 W 21st St, Clovis, NM 88101", "city": "Clovis", "phone": "+1 575-762-7676", "website": "", "rating": null, "reviews": 0, "place_id": "ChIJUVb0J4_eAocR0B0SJwAPhlA", "latitude": 34.4189367, "longitude": -103.226762, "care_type": "Chiropractor"}, {"name": "Essentials Motivations", "address": "208 E Grand Ave, Clovis, NM 88101", "city": "Clovis", "phone": "+1 903-258-5969", "website": "", "rating": 5.0, "reviews": 6, "place_id": "ChIJE8WRktvdAocRjAnBvjnI77k", "latitude": 34.4008913, "longitude": -103.2036559, "care_type": "Chiropractor"}, {"name": "Dr. William Smith", "address": "3016 N Prince St suite a, Clovis, NM 88101", "city": "Clovis", "phone": "+1 575-763-3333", "website": "", "rating": null, "reviews": 0, "place_id": "ChIJAQB0SxXeAocRofzOGrxqCJ4", "latitude": 34.4292725, "longitude": -103.1969489, "care_type": "Chiropractor"}, {"name": "Silver City Chiropractic, LLC", "address": "1508 N Swan St #6534, Silver City, NM 88061", "city": "Silver City", "phone": "+1 575-538-0000", "website": "", "rating": 5.0, "reviews": 20, "place_id": "ChIJqTSdQI7H2IYRslpg6F7Orx8", "latitude": 32.7817406, "longitude": -108.2693324, "care_type": "Chiropractor"}, {"name": "Scott A. Robertson, DC dba Silver City Chiropractic, LLC", "address": "1508 N Swan St, Silver City, NM 88061", "city": "Silver City", "phone": "+1 575-538-0000", "website": "", "rating": 4.8, "reviews": 9, "place_id": "ChIJqTSdQI7H2IYRj2iFHEeaAZw", "latitude": 32.7817068, "longitude": -108.2693658, "care_type": "Chiropractor"}, {"name": "Carter Chiropractic Center", "address": "2580 N Silver St, Silver City, NM 88061", "city": "Silver City", "phone": "+1 575-538-5511", "website": "", "rating": 5.0, "reviews": 2, "place_id": "ChIJNa8X33W42IYRwzMapzkCR8g", "latitude": 32.7918903, "longitude": -108.2669072, "care_type": "Chiropractor"}, {"name": "Rogers Chiropractic - John A. Rogers DC APC", "address": "6 Briarwood Ln, Silver City, NM 88061", "city": "Silver City", "phone": "+1 575-538-2558", "website": "", "rating": 5.0, "reviews": 4, "place_id": "ChIJoSitUYPH2IYRhL30NA1yav8", "latitude": 32.8185248, "longitude": -108.2764723, "care_type": "Chiropractor"}, {"name": "Animal Chiropractic", "address": "College Street Plaza, 301 W College Ave Ste 7, Silver City, NM 88061", "city": "Silver City", "phone": "+1 575-519-2724", "website": "", "rating": 3.0, "reviews": 2, "place_id": "ChIJib-3bJrH2IYRy2eVnvkMxsU", "latitude": 32.7745236, "longitude": -108.2776741, "care_type": "Chiropractor"}, {"name": "Equine Chiropractic Health Options", "address": "2035 Memory Ln, Silver City, NM 88061", "city": "Silver City", "phone": "+1 575-654-1994", "website": "", "rating": null, "reviews": 0, "place_id": "ChIJex6Uq_PH2IYRTlQ_vieLjG8", "latitude": 32.7843984, "longitude": -108.2575534, "care_type": "Chiropractor"}, {"name": "Dr. Joseph Santarsieri", "address": "114 W 11th St, Silver City, NM 88061", "city": "Silver City", "phone": "+1 575-388-1511", "website": "", "rating": 3.0, "reviews": 2, "place_id": "ChIJ___vJJvH2IYRVxvVcfVeMzo", "latitude": 32.7770877, "longitude": -108.2769094, "care_type": "Chiropractor"}, {"name": "Dr. Joseph Santarsieri", "address": "1007 N Pope St, Silver City, NM 88061", "city": "Silver City", "phone": "+1 575-388-1511", "website": "", "rating": null, "reviews": 0, "place_id": "ChIJq6q6HpvH2IYR4zUZOObvdvA", "latitude": 32.7763629, "longitude": -108.2766313, "care_type": "Chiropractor"}, {"name": "Espanola Family Chiropractic", "address": "421 B S Riverside Dr, Espa\u00f1ola, NM 87532", "city": "Espa\u00f1ola", "phone": "+1 505-753-3001", "website": "https://www.espanolachiro.com/", "rating": 4.9, "reviews": 17, "place_id": "ChIJiaAtkYA7GIcRTYPW2wTreyE", "latitude": 35.9889777, "longitude": -106.065098, "care_type": "Chiropractor"}, {"name": "John M. Fox, DC", "address": "423 S Riverside Dr, Espa\u00f1ola, NM 87532", "city": "Espa\u00f1ola", "phone": "+1 505-753-3001", "website": "http://www.espanolachiro.com/", "rating": 4.4, "reviews": 9, "place_id": "ChIJpyMneYI8GIcRC9YZctjXm-Y", "latitude": 35.9889526, "longitude": -106.0651397, "care_type": "Chiropractor"}, {"name": "BodyWise Health Center", "address": "234 N Paseo De Onate, Espa\u00f1ola, NM 87532", "city": "Espa\u00f1ola", "phone": "+1 505-753-9296", "website": "http://www.thebodywisehealthcenter.com/", "rating": 4.9, "reviews": 14, "place_id": "ChIJi-xCsJQ8GIcRTU-EzjlDWJo", "latitude": 35.9932901, "longitude": -106.082683, "care_type": "Chiropractor"}, {"name": "Back Pain Relief Chiropractic - Dr. Thomas Andrews DC", "address": "1108 S 13th St, Artesia, NM 88210", "city": "Artesia", "phone": "+1 575-746-6375", "website": "https://backpainreliefchiro.net/", "rating": 5.0, "reviews": 23, "place_id": "ChIJq4-jPeWu44YR8fYBX4zlzvw", "latitude": 32.8304003, "longitude": -104.4137118, "care_type": "Chiropractor"}, {"name": "Raburn Family Chiropractic", "address": "311 W Main St #2160, Artesia, NM 88210", "city": "Artesia", "phone": "+1 575-736-3120", "website": "https://raburnfamilychiro.com/", "rating": 5.0, "reviews": 228, "place_id": "ChIJD8B9pMGu44YReYuclfkwYGo", "latitude": 32.8420571, "longitude": -104.400097, "care_type": "Chiropractor"}, {"name": "Burgess Chiropractic Center", "address": "315 W Washington Ave A, Artesia, NM 88210", "city": "Artesia", "phone": "+1 575-748-3305", "website": "http://burgesschiropracticcenter.com/", "rating": 4.9, "reviews": 17, "place_id": "ChIJ_UPIx8Ku44YRrPPGOkozIPs", "latitude": 32.8356839, "longitude": -104.4008717, "care_type": "Chiropractor"}, {"name": "Chiropractic, Back Pain Relief", "address": "1108 S 13th St, Artesia, NM 88210", "city": "Artesia", "phone": "+1 575-746-6375", "website": "https://backpainreliefchiro.net/contact-us", "rating": null, "reviews": 0, "place_id": "ChIJ___-POWu44YRvZxtrpVFOk8", "latitude": 32.8304598, "longitude": -104.4135139, "care_type": "Chiropractor"}, {"name": "Jillana Burgess", "address": "315 W Washington Ave A, Artesia, NM 88210", "city": "Artesia", "phone": "+1 575-748-3305", "website": "https://www.burgesschiropracticcenter.com/", "rating": 5.0, "reviews": 2, "place_id": "ChIJ_TMFx8Ku44YR0aca6PxYCXs", "latitude": 32.8356839, "longitude": -104.4008717, "care_type": "Chiropractor"}, {"name": "Dr. Justin Raburn", "address": "311 W Main St #2160, Artesia, NM 88210", "city": "Artesia", "phone": "+1 575-736-3120", "website": "", "rating": null, "reviews": 0, "place_id": "ChIJO8ido8Gu44YRjNfIPZ9gkFQ", "latitude": 32.8420571, "longitude": -104.400097, "care_type": "Chiropractor"}, {"name": "Dee L. Witherspoon, DC", "address": "106 S 7th St, Artesia, NM 88210", "city": "Artesia", "phone": "+1 505-748-1338", "website": "", "rating": 5.0, "reviews": 2, "place_id": "ChIJc0HpUOqu44YRdx4la48vlTE", "latitude": 32.841753, "longitude": -104.4049862, "care_type": "Chiropractor"}, {"name": "Lovington Chiropractic", "address": "1601 W Ave I, Lovington, NM 88260", "city": "Lovington", "phone": "+1 575-396-5307", "website": "https://www.facebook.com/profile.php%3Fid%3D61559276734909", "rating": 4.9, "reviews": 205, "place_id": "ChIJtaYwC33Q_IYRDyllE-n3n8g", "latitude": 32.9386223, "longitude": -103.3678722, "care_type": "Chiropractor"}, {"name": "Arreola Chiropractic", "address": "121 S 2nd St, Lovington, NM 88260", "city": "Lovington", "phone": "+1 575-396-0011", "website": "https://arreolachiropracticcenter.com/", "rating": 4.8, "reviews": 19, "place_id": "ChIJb3EteHza_IYRzT4U64fbaG8", "latitude": 32.9474706, "longitude": -103.3507453, "care_type": "Chiropractor"}, {"name": "Los Alamos Chiropractic Center", "address": "557 Oppenheimer Dr Suite 100, Los Alamos, NM 87544", "city": "Los Alamos", "phone": "+1 505-662-3022", "website": "https://www.losalamoschiro.com/", "rating": 4.7, "reviews": 12, "place_id": "ChIJjbJ4nVESGIcRZz2ZH6KS7jc", "latitude": 35.8811766, "longitude": -106.306694, "care_type": "Chiropractor"}, {"name": "Storkan Chiropractic", "address": "2610 Trinity Dr Suite 22, Los Alamos, NM 87544", "city": "Los Alamos", "phone": "+1 505-662-2077", "website": "https://storkanchiropractic.com/", "rating": 4.2, "reviews": 10, "place_id": "ChIJjbJ4nVESGIcRBMkP_PPjn-I", "latitude": 35.88190549999999, "longitude": -106.3062201, "care_type": "Chiropractor"}, {"name": "Precure Chiropractic", "address": "2001 E 10th St, Alamogordo, NM 88310", "city": "Alamogordo", "phone": "+1 575-434-1455", "website": "https://precurechiropractic.com/chiropractor-alamogordo/", "rating": 4.8, "reviews": 353, "place_id": "ChIJobUdW1hQ4IYRDphg7ECNaCk", "latitude": 32.9002149, "longitude": -105.937056, "care_type": "Chiropractor"}, {"name": "Mitchell Chiropractic Life Center", "address": "901 Puerto Rico Ave, Alamogordo, NM 88310", "city": "Alamogordo", "phone": "+1 575-437-0350", "website": "", "rating": 4.9, "reviews": 28, "place_id": "ChIJ_4VMUGBQ4IYRY5e8wlRL-NM", "latitude": 32.8989463, "longitude": -105.9490127, "care_type": "Chiropractor"}, {"name": "Mitchell Chiropractic Life Center: Blevins Aubrey A DC", "address": "901 Puerto Rico Ave, Alamogordo, NM 88310", "city": "Alamogordo", "phone": "+1 575-437-0350", "website": "http://www.mitchellchiropracticlife.com/", "rating": 5.0, "reviews": 3, "place_id": "ChIJ_4VMUGBQ4IYRhvB6fj9y7rg", "latitude": 32.8989463, "longitude": -105.9490127, "care_type": "Chiropractor"}, {"name": "Calkins Homer W DC", "address": "802 N Florida Ave, Alamogordo, NM 88310", "city": "Alamogordo", "phone": "+1 575-437-0843", "website": "", "rating": 5.0, "reviews": 3, "place_id": "ChIJnWTUJWJQ4IYRegu9scOk2sw", "latitude": 32.898204, "longitude": -105.9527908, "care_type": "Chiropractor"}, {"name": "Michael Precure", "address": "2001 E 10th St, Alamogordo, NM 88310", "city": "Alamogordo", "phone": "+1 575-434-1455", "website": "https://precurechiropractic.com/chiropractor-alamogordo/", "rating": 1.0, "reviews": 1, "place_id": "ChIJVVWRWlhQ4IYR0cGFe0eoeiU", "latitude": 32.9002149, "longitude": -105.937056, "care_type": "Chiropractor"}, {"name": "Phillips Chiropractic PC", "address": "1201 Michigan Ave, Alamogordo, NM 88310", "city": "Alamogordo", "phone": "+1 575-434-2415", "website": "", "rating": 3.8, "reviews": 8, "place_id": "ChIJ-QyjsWRQ4IYRbJNFDQDgrEo", "latitude": 32.901966, "longitude": -105.9579849, "care_type": "Chiropractor"}, {"name": "Whelchel Chiropractic LLC", "address": "806 E 10th St, Alamogordo, NM 88310", "city": "Alamogordo", "phone": "+1 575-682-1501", "website": "https://www.facebook.com/profile.php%3Fid%3D100090597904164%26mibextid%3DZbWKwL", "rating": 5.0, "reviews": 4, "place_id": "ChIJ49j6JohR4IYRa6w0pLhkN8g", "latitude": 32.8995365, "longitude": -105.9525165, "care_type": "Chiropractor"}, {"name": "Rio Pecos Chiropractic Sports & Wellness Center", "address": "309 W Hagerman St, Carlsbad, NM 88220", "city": "Carlsbad", "phone": "+1 575-234-1293", "website": "https://www.riopecoschiro.com/", "rating": 4.8, "reviews": 40, "place_id": "ChIJIz-osDx444YRpgjUO9yGHes", "latitude": 32.424884, "longitude": -104.2298974, "care_type": "Chiropractor"}, {"name": "Medley Chiropractic Health Center", "address": "926 N Canal St, Carlsbad, NM 88220", "city": "Carlsbad", "phone": "+1 575-887-0565", "website": "", "rating": 4.6, "reviews": 10, "place_id": "ChIJsTSDf89544YR3kk7RYLJj4I", "latitude": 32.431484, "longitude": -104.2285599, "care_type": "Chiropractor"}, {"name": "McAlister Chiropractic", "address": "411 E Church St, Carlsbad, NM 88220", "city": "Carlsbad", "phone": "+1 575-885-2440", "website": "", "rating": 5.0, "reviews": 9, "place_id": "ChIJY6tWHL9544YRQ49EXkFz02M", "latitude": 32.4282572, "longitude": -104.2212684, "care_type": "Chiropractor"}, {"name": "George F. Wheeler, DC", "address": "411 E Church St, Carlsbad, NM 88220", "city": "Carlsbad", "phone": "+1 575-885-2440", "website": "", "rating": 5.0, "reviews": 1, "place_id": "ChIJVVVVVdJ544YR7hyLDbO_yPo", "latitude": 32.4282565, "longitude": -104.2212669, "care_type": "Chiropractor"}, {"name": "Carlsbad Chiropractic", "address": "929 N Canal St, Carlsbad, NM 88220", "city": "Carlsbad", "phone": "+1 575-234-9191", "website": "", "rating": null, "reviews": 0, "place_id": "ChIJk7halbl544YRb8fFaL-TtUs", "latitude": 32.4317417, "longitude": -104.2291957, "care_type": "Chiropractor"}, {"name": "Richard Abercrombie", "address": "1234 W Pierce St, Carlsbad, NM 88220", "city": "Carlsbad", "phone": "+1 575-885-5805", "website": "https://www.abercrombiewellnessclinic.com/", "rating": 5.0, "reviews": 1, "place_id": "ChIJq6pGQSx444YRKDAGuQIrrPE", "latitude": 32.4363442, "longitude": -104.2436593, "care_type": "Chiropractor"}, {"name": "John M. Medley, DC", "address": "926 N Canal St, Carlsbad, NM 88220", "city": "Carlsbad", "phone": "+1 505-887-0565", "website": "", "rating": 5.0, "reviews": 1, "place_id": "ChIJsTSDf89544YR2vMwT4MXEZ4", "latitude": 32.431484, "longitude": -104.2285599, "care_type": "Chiropractor"}, {"name": "Dr. Eric Campos", "address": "309 W Hagerman St, Carlsbad, NM 88220", "city": "Carlsbad", "phone": "+1 575-234-1293", "website": "https://www.riopecoschiro.com/about-us", "rating": null, "reviews": 0, "place_id": "ChIJq6r2RMh544YR35enrhYrzE4", "latitude": 32.424884, "longitude": -104.2298974, "care_type": "Chiropractor"}, {"name": "Mr. Andrew Twitchell", "address": "710 N Canal St, Carlsbad, NM 88220", "city": "Carlsbad", "phone": "+1 575-887-3263", "website": "https://andrewtwitchell.com/", "rating": null, "reviews": 0, "place_id": "ChIJ__-jr8h544YRtWfanax9u8Q", "latitude": 32.4280733, "longitude": -104.2285349, "care_type": "Chiropractor"}, {"name": "Dr. Eric Campos", "address": "2424 Bonita St, Carlsbad, NM 88220", "city": "Carlsbad", "phone": "+1 505-302-3766", "website": "https://www.riopecoschiro.com/about-us", "rating": null, "reviews": 0, "place_id": "ChIJq6q6tjx444YRNt286Cah3_M", "latitude": 32.4304085, "longitude": -104.2581721, "care_type": "Chiropractor"}, {"name": "Canyon Chiropractic", "address": "2505 Ridge Runner Rd, Las Vegas, NM 87701", "city": "Las Vegas", "phone": "+1 505-425-9341", "website": "http://canyonchiropracticnm.com/", "rating": 4.7, "reviews": 7, "place_id": "ChIJx4QBE_9wGYcRtDslcuzkZzU", "latitude": 35.6183962, "longitude": -105.2281674, "care_type": "Chiropractor"}, {"name": "Life Wellness Center", "address": "721 1/2 7th St, Las Vegas, NM 87701", "city": "Las Vegas", "phone": "+1 505-425-2735", "website": "https://www.lifewellnesscenter.com/", "rating": 4.8, "reviews": 8, "place_id": "ChIJwU4YVip4GYcRuXpQAjit_2w", "latitude": 35.595613, "longitude": -105.2171001, "care_type": "Chiropractor"}, {"name": "Michael Palmer", "address": "2505 Ridge Runner Rd, Las Vegas, NM 87701", "city": "Las Vegas", "phone": "+1 505-425-9341", "website": "", "rating": 5.0, "reviews": 3, "place_id": "ChIJHzZ1f_F3GYcRZ0mPX6lNGV0", "latitude": 35.6183962, "longitude": -105.2281674, "care_type": "Chiropractor"}, {"name": "Natural Health & Healing Center", "address": "1214 National Ave, Las Vegas, NM 87701", "city": "Las Vegas", "phone": "+1 505-454-9525", "website": "", "rating": null, "reviews": 0, "place_id": "ChIJbSuyUIB3GYcRmhgOkJn3h-g", "latitude": 35.5943148, "longitude": -105.2234345, "care_type": "Chiropractor"}, {"name": "Hilliard Chiropractic Group", "address": "112 E 4th St, Portales, NM 88130", "city": "Portales", "phone": "+1 575-356-6982", "website": "http://www.beyondbackaches.com/", "rating": 4.9, "reviews": 18, "place_id": "ChIJ73KWPEjGAocRqnwkABk5wtQ", "latitude": 34.1847176, "longitude": -103.3343577, "care_type": "Chiropractor"}, {"name": "Smith Chiropractic Center", "address": "1400 S Avenue D, Portales, NM 88130", "city": "Portales", "phone": "+1 575-356-4440", "website": "", "rating": 4.3, "reviews": 11, "place_id": "ChIJZUnmj0rGAocR2dwKORYNwjo", "latitude": 34.1771177, "longitude": -103.335106, "care_type": "Chiropractor"}, {"name": "High Plains Chiropractic", "address": "201 S Abilene Ave, Portales, NM 88130", "city": "Portales", "phone": "+1 575-791-8268", "website": "", "rating": 4.2, "reviews": 10, "place_id": "ChIJ-dOIuA3HAocRnmgzFMolaks", "latitude": 34.1865295, "longitude": -103.3351986, "care_type": "Chiropractor"}, {"name": "Dr W K Hilliard", "address": "201 S Abilene Ave, Portales, NM 88130", "city": "Portales", "phone": "+1 575-356-0600", "website": "", "rating": null, "reviews": 0, "place_id": "ChIJC9FtHQDHAocR5Aqwi0vJtUM", "latitude": 34.1865345, "longitude": -103.3351535, "care_type": "Chiropractor"}, {"name": "Dr. Greg Bobo, DC", "address": "112 E 4th St, Portales, NM 88130", "city": "Portales", "phone": "+1 575-356-6982", "website": "http://beyondbackaches.com/", "rating": 5.0, "reviews": 1, "place_id": "ChIJ39Z2IULHAocRMkSWDHDF4Z0", "latitude": 34.184708, "longitude": -103.3342836, "care_type": "Chiropractor"}, {"name": "Dr. William Smith", "address": "1400 S Avenue D A, Portales, NM 88130", "city": "Portales", "phone": "+1 505-356-4440", "website": "", "rating": null, "reviews": 0, "place_id": "ChIJYSMnm0rGAocRA6DNxPbhM9k", "latitude": 34.1771582, "longitude": -103.3350947, "care_type": "Chiropractor"}, {"name": "Dr W L Hilliard", "address": "201 S Abilene Ave, Portales, NM 88130", "city": "Portales", "phone": "+1 575-791-8268", "website": "", "rating": null, "reviews": 0, "place_id": "ChIJfRRlCgDHAocRr6VkwA_ocoM", "latitude": 34.1865588, "longitude": -103.3351863, "care_type": "Chiropractor"}, {"name": "Alpha And Omega Chiropractor", "address": "106 Alpine Village Rd, Ruidoso, NM 88345", "city": "Ruidoso", "phone": "+1 575-258-5999", "website": "http://www.alphaandomegachiropractic.com/", "rating": 3.8, "reviews": 18, "place_id": "ChIJJ9sMBpjR4YYRwd5CKcP-_SI", "latitude": 33.3744537, "longitude": -105.6734443, "care_type": "Chiropractor"}, {"name": "Adobe Chiropractic David McMinn DC", "address": "616 Carrizo Canyon Rd, Ruidoso, NM 88345", "city": "Ruidoso", "phone": "+1 575-630-0515", "website": "http://www.adobechiropractic.com/", "rating": 4.7, "reviews": 15, "place_id": "ChIJYywFzSbO4YYR1Osyi25pjz8", "latitude": 33.3168961, "longitude": -105.6704543, "care_type": "Chiropractor"}, {"name": "Vickie Peebles DC", "address": "2902 Sudderth Dr, Ruidoso, NM 88345", "city": "Ruidoso", "phone": "+1 575-630-0499", "website": "", "rating": 5.0, "reviews": 4, "place_id": "ChIJRydEfCDO4YYRUaQWVDR7hws", "latitude": 33.3343652, "longitude": -105.6818916, "care_type": "Chiropractor"}, {"name": "Chiropractic Associate-Ruidoso", "address": "1096 Mechem Dr, Ruidoso, NM 88345", "city": "Ruidoso", "phone": "+1 575-258-3725", "website": "", "rating": 1.0, "reviews": 2, "place_id": "ChIJJ9sMBpjR4YYRQdBD1ni5hbM", "latitude": 33.3592196, "longitude": -105.6641614, "care_type": "Chiropractor"}, {"name": "ROC Chiropractic", "address": "2303 N Salee Loop, Roswell, NM 88201", "city": "Roswell", "phone": "+1 575-208-1115", "website": "https://rocchiropractic.com/", "rating": 5.0, "reviews": 13, "place_id": "ChIJVyIfFnZv4oYRiLUwvQQCwng", "latitude": 33.4206139, "longitude": -104.5210602, "care_type": "Chiropractor"}, {"name": "Bowles Family Chiropractic", "address": "605 W Country Club Rd, Roswell, NM 88201", "city": "Roswell", "phone": "+1 575-622-6479", "website": "", "rating": 4.9, "reviews": 57, "place_id": "ChIJAQDAtttu4oYRYs6Hk43PAxM", "latitude": 33.4236765, "longitude": -104.530617, "care_type": "Chiropractor"}, {"name": "Dr. Craig Cathey", "address": "713 W Alameda St, Roswell, NM 88203", "city": "Roswell", "phone": "+1 575-622-0902", "website": "https://www.catheychiro.com/", "rating": 5.0, "reviews": 3, "place_id": "ChIJq6qehc9u4oYRwjlFZiuhX_M", "latitude": 33.3912376, "longitude": -104.5328243, "care_type": "Chiropractor"}, {"name": "Cathey Chiropractic: Law Emily C DC", "address": "713 W Alameda St, Roswell, NM 88203", "city": "Roswell", "phone": "+1 575-622-0902", "website": "http://catheychiro.com/", "rating": 5.0, "reviews": 3, "place_id": "ChIJ93rRhM9u4oYRQVKPsqjWt_A", "latitude": 33.3911861, "longitude": -104.532891, "care_type": "Chiropractor"}, {"name": "Daniel L. Smith, DC", "address": "511 W Walnut St, Roswell, NM 88203", "city": "Roswell", "phone": "+1 575-622-6800", "website": "", "rating": 4.9, "reviews": 23, "place_id": "ChIJb-LXdNBu4oYRc0QcYumpzn4", "latitude": 33.392142, "longitude": -104.5300087, "care_type": "Chiropractor"}, {"name": "Smith Chiropractic Health Center", "address": "511 W Walnut St, Roswell, NM 88203", "city": "Roswell", "phone": "+1 575-622-6825", "website": "", "rating": 3.0, "reviews": 2, "place_id": "ChIJsePXdNBu4oYRuStaH4Y9Em8", "latitude": 33.3921056, "longitude": -104.5299295, "care_type": "Chiropractor"}, {"name": "Dr. Christopher Gonzales", "address": "811 N Union Ave, Roswell, NM 88201", "city": "Roswell", "phone": "+1 575-623-6691", "website": "https://chiropracticcenterroswell.com/", "rating": null, "reviews": 0, "place_id": "ChIJVVXhBcJu4oYRNa3pCSB_b8U", "latitude": 33.4019958, "longitude": -104.535737, "care_type": "Chiropractor"}, {"name": "Infinite Health Chiropractic Wellness Center", "address": "4991 N Butler Ave, Farmington, NM 87401", "city": "Farmington", "phone": "+1 505-325-2010", "website": "https://www.infinitehealthcenter.com/", "rating": 4.8, "reviews": 36, "place_id": "ChIJtRrMqJ-PO4cRC9SAkMrNwow", "latitude": 36.7737507, "longitude": -108.1860341, "care_type": "Chiropractor"}, {"name": "Desert Hills Chiropractic", "address": "1700 N Butler Ave, Farmington, NM 87401", "city": "Farmington", "phone": "+1 505-634-9225", "website": "https://www.myfarmingtonchiropractor.com/", "rating": 4.9, "reviews": 76, "place_id": "ChIJ-TXgIaaPO4cRE8X4WgXu180", "latitude": 36.7464869, "longitude": -108.1975005, "care_type": "Chiropractor"}, {"name": "La Mesa Chiropractic and Rehabilitation Center", "address": "2904 N Hutton Ave, Farmington, NM 87402", "city": "Farmington", "phone": "+1 505-327-4845", "website": "http://www.lamesawellness.com/", "rating": 4.8, "reviews": 113, "place_id": "ChIJ8elDjRSPO4cRpHgjYCAnBhc", "latitude": 36.7559557, "longitude": -108.1710096, "care_type": "Chiropractor"}, {"name": "Brimhall Chiropractic Wellness, LLC", "address": "6610 E Main St, Farmington, NM 87402", "city": "Farmington", "phone": "+1 505-324-1111", "website": "https://brimhallchiropracticmed.com/", "rating": 4.4, "reviews": 23, "place_id": "ChIJSfEWMdmIO4cR5A8q987-s7M", "latitude": 36.7791442, "longitude": -108.1246131, "care_type": "Chiropractor"}, {"name": "Affordable Chiropractic", "address": "608 W Animas St, Farmington, NM 87401", "city": "Farmington", "phone": "+1 505-324-3030", "website": "", "rating": 4.4, "reviews": 20, "place_id": "ChIJjVTYIoePO4cR_Nghug2IqBk", "latitude": 36.7272827, "longitude": -108.2120314, "care_type": "Chiropractor"}, {"name": "Sunrise Chiropractic", "address": "409 W Main St, Farmington, NM 87401", "city": "Farmington", "phone": "+1 505-324-2080", "website": "http://www.drbethdavischiropractic.com/", "rating": 4.9, "reviews": 72, "place_id": "ChIJEWBUJ4GPO4cRzkq8xRKb-qc", "latitude": 36.7288772, "longitude": -108.2099323, "care_type": "Chiropractor"}, {"name": "Bentley Chiropractic", "address": "2901 E 20th St #105, Farmington, NM 87402", "city": "Farmington", "phone": "+1 505-564-8555", "website": "https://www.drbobbentley.com/", "rating": 4.9, "reviews": 17, "place_id": "ChIJqR1XwGmPO4cRfVt8byanWHU", "latitude": 36.7477049, "longitude": -108.167978, "care_type": "Chiropractor"}, {"name": "Beth L. Davis, DC", "address": "409 W Main St, Farmington, NM 87401", "city": "Farmington", "phone": "+1 505-324-2080", "website": "http://drbethdavischiropractic.com/", "rating": 4.4, "reviews": 14, "place_id": "ChIJEWBUJ4GPO4cRhi-AgWMx1J8", "latitude": 36.7288803, "longitude": -108.2099229, "care_type": "Chiropractor"}, {"name": "Four Corners Chiropractic and Wellness", "address": "2130 N Farmington Ave Suite B, Farmington, NM 87401", "city": "Farmington", "phone": "+1 505-326-5475", "website": "", "rating": 5.0, "reviews": 6, "place_id": "ChIJhc49mHKPO4cRinkhAe0XIsU", "latitude": 36.7512244, "longitude": -108.179233, "care_type": "Chiropractor"}, {"name": "Native Soul Chiropractic", "address": "3005 Northridge Dr STE J, Farmington, NM 87401", "city": "Farmington", "phone": "+1 505-327-7476", "website": "", "rating": 5.0, "reviews": 6, "place_id": "ChIJ8WP-0Z-PO4cRUVxv6rfc-zk", "latitude": 36.7563179, "longitude": -108.1943639, "care_type": "Chiropractor"}, {"name": "Noyes Staci DC : Dr. Staci Noyes D.C. Chiropractic Healthcare", "address": "2808 E 20th St, Farmington, NM 87402", "city": "Farmington", "phone": "+1 505-327-9196", "website": "http://www.noyeschiropractic.com/", "rating": 5.0, "reviews": 4, "place_id": "ChIJqWd8lqaPO4cRXpGZf5O2Ff8", "latitude": 36.7485584, "longitude": -108.1688787, "care_type": "Chiropractor"}, {"name": "Pond Chiropractic Health Center", "address": "2600 N Farmington Ave A, Farmington, NM 87401", "city": "Farmington", "phone": "+1 505-325-5992", "website": "", "rating": 5.0, "reviews": 1, "place_id": "ChIJpQHttxKPO4cR03NBDts7Y7I", "latitude": 36.7536792, "longitude": -108.1769395, "care_type": "Chiropractor"}, {"name": "Infinite Health Chiro Wellness: Doolin Jason DC", "address": "4991 N Butler Ave, Farmington, NM 87401", "city": "Farmington", "phone": "+1 505-325-2010", "website": "https://www.infinitehealthcenter.com/our-staff", "rating": 5.0, "reviews": 3, "place_id": "ChIJtRrMqJ-PO4cRbxQZgPBfzCY", "latitude": 36.7737596, "longitude": -108.186036, "care_type": "Chiropractor"}, {"name": "Dr. Bryce Hunter", "address": "2130 N Farmington Ave Suite B, Farmington, NM 87401", "city": "Farmington", "phone": "+1 505-326-5475", "website": "", "rating": 5.0, "reviews": 7, "place_id": "ChIJVVWFl3KPO4cR77HAridWDss", "latitude": 36.7512244, "longitude": -108.179233, "care_type": "Chiropractor"}, {"name": "Muscle Works Physical Medicine", "address": "3501 N Butler Ave ste 102, Farmington, NM 87401", "city": "Farmington", "phone": "+1 505-609-8115", "website": "", "rating": 5.0, "reviews": 6, "place_id": "ChIJKRSzeS6PO4cRWQH94fSloMc", "latitude": 36.7594475, "longitude": -108.1952633, "care_type": "Chiropractor"}, {"name": "Jeremy S. Rowse, DC", "address": "2904 N Hutton Ave, Farmington, NM 87402", "city": "Farmington", "phone": "+1 505-327-4845", "website": "", "rating": 5.0, "reviews": 3, "place_id": "ChIJ8elDjRSPO4cRSyXUO1qZMFU", "latitude": 36.7559512, "longitude": -108.1709689, "care_type": "Chiropractor"}, {"name": "The Treatment Room- Dr. Douglas Pendergrass", "address": "6911 Drinen Ln, Farmington, NM 87402", "city": "Farmington", "phone": "+1 505-860-0862", "website": "", "rating": 5.0, "reviews": 2, "place_id": "ChIJbeO_ucWJO4cROFw6xIkxl7Q", "latitude": 36.7758467, "longitude": -108.1193589, "care_type": "Chiropractor"}, {"name": "Chad Silseth, DC", "address": "3451 Butler Ave # 101, Farmington, NM 87401", "city": "Farmington", "phone": "+1 505-325-1100", "website": "", "rating": 5.0, "reviews": 1, "place_id": "ChIJQxwWbqaPO4cRLTNhjE10C34", "latitude": 36.7589194, "longitude": -108.1957729, "care_type": "Chiropractor"}, {"name": "Waldroup Larry DC", "address": "120 N Butler Ave, Farmington, NM 87401", "city": "Farmington", "phone": "+1 505-324-3030", "website": "", "rating": 3.0, "reviews": 2, "place_id": "ChIJHYEEy_WPO4cRI9SpSFl5wEQ", "latitude": 36.7318432, "longitude": -108.1971805, "care_type": "Chiropractor"}, {"name": "Ezekiel Brimhall", "address": "6610 E Main St, Farmington, NM 87402", "city": "Farmington", "phone": "+1 505-324-1111", "website": "", "rating": null, "reviews": 0, "place_id": "ChIJAQAw196IO4cRaqj469crAC0", "latitude": 36.7792111, "longitude": -108.1244769, "care_type": "Chiropractor"}, {"name": "Downtown Chiropractic Albuquerque", "address": "901 3rd St NW, Albuquerque, NM 87102", "city": "Albuquerque", "phone": "+1 505-242-8400", "website": "http://drmsmaggio.com/", "rating": 4.9, "reviews": 180, "place_id": "ChIJ205dhcUMIocRDZJL07uBh00", "latitude": 35.0931797, "longitude": -106.6490241, "care_type": "Chiropractor"}, {"name": "Illumin8 Chiropractic - Chiropractor in Downtown NM", "address": "803 Silver Ave SW, Albuquerque, NM 87102", "city": "Albuquerque", "phone": "+1 505-200-9937", "website": "https://illumin8chiro.com/locations/downtown-book-now/%3Futm_source%3Dgoogle%26utm_medium%3Dorganic%26utm_campaign%3Dgmb", "rating": 4.9, "reviews": 368, "place_id": "ChIJj3JgMsEMIocR2JgRPc2ESAY", "latitude": 35.0835811, "longitude": -106.6567812, "care_type": "Chiropractor"}, {"name": "Albuquerque Neck & Back Pain", "address": "1415 University Blvd NE, Albuquerque, NM 87102", "city": "Albuquerque", "phone": "+1 505-243-1313", "website": "http://www.abqchiro.com/", "rating": 4.8, "reviews": 253, "place_id": "ChIJ0cuqClYLIocR5xZVNvMGdRI", "latitude": 35.098259, "longitude": -106.6276797, "care_type": "Chiropractor"}, {"name": "ABQ Family Chiropractic", "address": "3824 Masthead St NE, Albuquerque, NM 87109", "city": "Albuquerque", "phone": "+1 505-343-6120", "website": "https://www.abqfamilychiropractic.com/", "rating": 4.9, "reviews": 300, "place_id": "ChIJj-bgWEF0IocRBLTTQyk_mYQ", "latitude": 35.1655638, "longitude": -106.6006903, "care_type": "Chiropractor"}, {"name": "New Mexico Chiropractic Center", "address": "10555 Montgomery Blvd NE Bldg1 Suite 30, Albuquerque, NM 87111", "city": "Albuquerque", "phone": "+1 505-299-6622", "website": "http://www.nmchirocenter.com/", "rating": 4.8, "reviews": 42, "place_id": "ChIJ1dV3PE91IocRvIIQwtx2ULo", "latitude": 35.131083, "longitude": -106.520938, "care_type": "Chiropractor"}, {"name": "Illumin8 Chiropractic - Chiropractor in NE Heights NM", "address": "6501 Wyoming Blvd NE Building J Suite B, Albuquerque, NM 87109", "city": "Albuquerque", "phone": "+1 505-323-7560", "website": "https://www.illumin8chiro.com/", "rating": 4.9, "reviews": 326, "place_id": "ChIJhya55O11IocRSIwojMZEfAE", "latitude": 35.1534648, "longitude": -106.5620609, "care_type": "Chiropractor"}, {"name": "The Joint Chiropractic", "address": "6650 Holly Ave NE Bldg. C-2, Albuquerque, NM 87113", "city": "Albuquerque", "phone": "+1 505-302-3178", "website": "https://www.thejoint.com/new-mexico/albuquerque/paseo-47001", "rating": 4.1, "reviews": 196, "place_id": "ChIJI3k0jHJ1IocRvFCu8iNc1F0", "latitude": 35.1748062, "longitude": -106.5728324, "care_type": "Chiropractor"}, {"name": "A Spinal Health and Movement Center", "address": "316 Adams St SE, Albuquerque, NM 87108", "city": "Albuquerque", "phone": "+1 505-247-2373", "website": "http://www.albuquerque-chiropractors.com/", "rating": 4.8, "reviews": 37, "place_id": "ChIJXXu-9g8LIocRkBOS9CDrrLw", "latitude": 35.0753071, "longitude": -106.5939714, "care_type": "Chiropractor"}, {"name": "Sol Chiropractic LLC", "address": "3537 Thaxton Ave SE, Albuquerque, NM 87106", "city": "Albuquerque", "phone": "+1 505-916-1118", "website": "https://www.solchiropractic.com/", "rating": 5.0, "reviews": 52, "place_id": "ChIJHXlpLG0NIocRyMTabbHlQvs", "latitude": 35.0630745, "longitude": -106.6045079, "care_type": "Chiropractor"}, {"name": "Network Chiropractic of Albuquerque", "address": "2625 Pennsylvania St NE # 100, Albuquerque, NM 87110", "city": "Albuquerque", "phone": "+1 505-377-9890", "website": "http://www.networkchiropracticofalbuquerque.com/%3Futm_source%3Dgmb%26utm_medium%3Dorganic", "rating": 4.9, "reviews": 134, "place_id": "ChIJw83g5zygGIcRckY8bkJ0r6g", "latitude": 35.1099052, "longitude": -106.5602111, "care_type": "Chiropractor"}, {"name": "Atchley Chiropractic", "address": "8004 Pennsylvania Cir NE, Albuquerque, NM 87110", "city": "Albuquerque", "phone": "+1 505-265-5651", "website": "http://www.atchleychiropractic.com/", "rating": 4.9, "reviews": 288, "place_id": "ChIJwS-NJ5UKIocRikZeVmO1XV0", "latitude": 35.0894127, "longitude": -106.5575786, "care_type": "Chiropractor"}, {"name": "Affordable Chiropractic Center", "address": "1112 Alvarado Dr NE, Albuquerque, NM 87110", "city": "Albuquerque", "phone": "+1 505-255-6357", "website": "", "rating": 4.6, "reviews": 32, "place_id": "ChIJOaYV_N8KIocRW7Igaqo6B68", "latitude": 35.0890987, "longitude": -106.5816232, "care_type": "Chiropractor"}, {"name": "The Joint Chiropractic", "address": "2100 Louisiana Blvd NE suite 808, Albuquerque, NM 87110", "city": "Albuquerque", "phone": "+1 505-209-8410", "website": "https://www.thejoint.com/new-mexico/albuquerque/winrock-47005", "rating": 4.2, "reviews": 199, "place_id": "ChIJ2ZeNL2wLIocRvv1-l_nmm7Y", "latitude": 35.1011286, "longitude": -106.5657555, "care_type": "Chiropractor"}, {"name": "Anderson Family Chiropractic", "address": "4127 Montgomery Blvd NE, Albuquerque, NM 87109", "city": "Albuquerque", "phone": "+1 505-308-8885", "website": "https://andersonfamilychironm.com/", "rating": 5.0, "reviews": 227, "place_id": "ChIJjSkOTWp1IocR8KdRbX9SeZA", "latitude": 35.1324647, "longitude": -106.5977268, "care_type": "Chiropractor"}, {"name": "The Joint Chiropractic", "address": "3715 Las Estancias Way #105, Albuquerque, NM 87121", "city": "Albuquerque", "phone": "+1 505-357-1249", "website": "https://www.thejoint.com/new-mexico/albuquerque/las-estancias-47007", "rating": 4.5, "reviews": 119, "place_id": "ChIJ58ui1BwNIocRuTu6Pcm5fXM", "latitude": 35.0235208, "longitude": -106.7129138, "care_type": "Chiropractor"}, {"name": "Alfred W. Swedberg Jr, DC, CCEP, CCSP | Body Balance Chiropractic", "address": "3705 Westerfeld Dr NE, Albuquerque, NM 87111", "city": "Albuquerque", "phone": "+1 505-275-6708", "website": "https://www.drswedberg.com/", "rating": 5.0, "reviews": 363, "place_id": "ChIJe4oQif2fGIcRYP6WO6FA_y0", "latitude": 35.1238105, "longitude": -106.534659, "care_type": "Chiropractor"}, {"name": "aaahh ChiroSpa", "address": "2001 San Mateo Blvd NE A, Albuquerque, NM 87110", "city": "Albuquerque", "phone": "+1 505-884-0044", "website": "http://www.aaahhchirospa.com/", "rating": 4.6, "reviews": 28, "place_id": "ChIJD-ssRjYLIocRmOS7ohiIeIE", "latitude": 35.0984341, "longitude": -106.5866099, "care_type": "Chiropractor"}, {"name": "New Beginnings Chiropractic", "address": "4001 Juan Tabo Blvd NE # E, Albuquerque, NM 87111", "city": "Albuquerque", "phone": "+1 505-225-2888", "website": "http://newbeginningschiropracticabq.com/", "rating": 5.0, "reviews": 24, "place_id": "ChIJe5OeBj-fGIcRDLPa4uaZzfM", "latitude": 35.1267551, "longitude": -106.5160311, "care_type": "Chiropractor"}, {"name": "Equilibrium Wellness Center", "address": "3901 Georgia St NE Bldg F, Albuquerque, NM 87110", "city": "Albuquerque", "phone": "+1 505-872-1900", "website": "http://www.equilibriumwellnesscenter.com/", "rating": 4.9, "reviews": 73, "place_id": "ChIJzRMLbSt1IocR5Cc-2Ertfzo", "latitude": 35.1291158, "longitude": -106.5718113, "care_type": "Chiropractor"}, {"name": "Gregory L. Perea, DC", "address": "1112 Alvarado Dr NE, Albuquerque, NM 87110", "city": "Albuquerque", "phone": "+1 505-255-6357", "website": "", "rating": 5.0, "reviews": 21, "place_id": "ChIJOaYV_N8KIocR8Do4gIRTpX0", "latitude": 35.0890834, "longitude": -106.5816368, "care_type": "Chiropractor"}, {"name": "Community Chiropractic Center", "address": "9201 Montgomery Blvd NE Bldg 1 Bldg. 1, Albuquerque, NM 87111", "city": "Albuquerque", "phone": "+1 505-312-8723", "website": "https://communitychiropracticcenterabq.com/", "rating": 5.0, "reviews": 14, "place_id": "ChIJ4wUVxIV1IocRT0TOflzg31U", "latitude": 35.1309477, "longitude": -106.5404077, "care_type": "Chiropractor"}, {"name": "Heights Chiropractic and Sports Medicine", "address": "7520 Montgomery Blvd NE Suite D10, Albuquerque, NM 87109", "city": "Albuquerque", "phone": "+1 505-888-9616", "website": "http://heightschiroabq.com/", "rating": 4.8, "reviews": 130, "place_id": "ChIJzSqbOj91IocRk3ZP2GCPTig", "latitude": 35.1292304, "longitude": -106.5607604, "care_type": "Chiropractor"}, {"name": "Roadrunner Chiropractic", "address": "3900 Eubank Blvd NE Suite 18, Albuquerque, NM 87111", "city": "Albuquerque", "phone": "+1 505-585-3818", "website": "https://www.roadrunnerchiropractic.com/", "rating": 4.9, "reviews": 44, "place_id": "ChIJTQ1TdjmfGIcRc7eScJsTDDE", "latitude": 35.1279968, "longitude": -106.5325038, "care_type": "Chiropractor"}, {"name": "Gonstead Physical Medicine", "address": "8001 Wyoming Blvd NE Suite D4, Albuquerque, NM 87113", "city": "Albuquerque", "phone": "+1 505-884-8584", "website": "http://www.gonstead-nm.com/", "rating": 4.8, "reviews": 264, "place_id": "ChIJIfO1r791IocREGH6s9QLZGA", "latitude": 35.1750165, "longitude": -106.560801, "care_type": "Chiropractor"}, {"name": "Derek Atchley", "address": "8004 Pennsylvania Cir NE, Albuquerque, NM 871107824", "city": "Albuquerque", "phone": "+1 505-265-5651", "website": "https://www.atchleychiropractic.com/", "rating": 5.0, "reviews": 1, "place_id": "ChIJVVUF2JQKIocRRh9OJ734ROs", "latitude": 35.0893304, "longitude": -106.5576271, "care_type": "Chiropractor"}, {"name": "Edwards Chiropractic: Injury and Wellness", "address": "5300 Sequoia Rd NW #200, Albuquerque, NM 87120", "city": "Albuquerque", "phone": "+1 505-836-3771", "website": "http://nmchiropractic.com/", "rating": 4.9, "reviews": 313, "place_id": "ChIJ9wPTxuxyIocRbQMiO6U5fjc", "latitude": 35.1216116, "longitude": -106.7029302, "care_type": "Chiropractor"}, {"name": "Zia Chiropractic", "address": "2133 Wyoming Blvd NE #2617, Albuquerque, NM 87112", "city": "Albuquerque", "phone": "+1 505-273-3592", "website": "", "rating": 4.2, "reviews": 36, "place_id": "ChIJK4iyI7EKIocRgkLEnaIOs6U", "latitude": 35.106747, "longitude": -106.551248, "care_type": "Chiropractor"}, {"name": "Saintaubin Chiropractic", "address": "2605 Wyoming Blvd NE, Albuquerque, NM 87112", "city": "Albuquerque", "phone": "+1 505-883-6420", "website": "http://saintaubinchiropractic.org/", "rating": 5.0, "reviews": 7, "place_id": "ChIJEbSNVlt1IocR_HIAYlEgssU", "latitude": 35.1151595, "longitude": -106.5513655, "care_type": "Chiropractor"}, {"name": "Dr. Randy Blair DC Southwest Center for The Healing Arts Albuquerque", "address": "7400 Montgomery Blvd NE, Albuquerque, NM 87109", "city": "Albuquerque", "phone": "+1 505-881-3165", "website": "", "rating": 5.0, "reviews": 13, "place_id": "ChIJRWUqkT51IocReGiAj-Yn2A8", "latitude": 35.1302801, "longitude": -106.5637005, "care_type": "Chiropractor"}, {"name": "Dr. Christopher Cecil", "address": "1415 University Blvd NE # D, Albuquerque, NM 87102", "city": "Albuquerque", "phone": "+1 505-243-1313", "website": "https://www.abqchiro.com/about-us/meet-the-doctor/christopher-c.-cecil-dc--dabco.html", "rating": 5.0, "reviews": 2, "place_id": "ChIJAQCsClYLIocRTFUSlLFCXHY", "latitude": 35.098259, "longitude": -106.6276797, "care_type": "Chiropractor"}, {"name": "Blessing Chiropractic", "address": "8400 Osuna Rd NE #1C, Albuquerque, NM 87111", "city": "Albuquerque", "phone": "+1 505-259-1731", "website": "http://www.blessingchiro.com/", "rating": 4.9, "reviews": 297, "place_id": "ChIJYe5Djr0MIocRZq0G1_m8Ijg", "latitude": 35.13714179999999, "longitude": -106.5499624, "care_type": "Chiropractor"}, {"name": "Dynamic Chiropractic, LLC Dr. Megan Croce D.C., ATC", "address": "1020 Coal Ave SE Suite A, Albuquerque, NM 87106", "city": "Albuquerque", "phone": "+1 505-309-0704", "website": "", "rating": 5.0, "reviews": 31, "place_id": "ChIJAbhdNZYNIocRsTgv73aGBJs", "latitude": 35.0783469, "longitude": -106.6360082, "care_type": "Chiropractor"}, {"name": "Anderson Family Chiropractic", "address": "1942 Old US 66 suite B, Edgewood, NM 87015", "city": "Edgewood", "phone": "+1 505-715-4705", "website": "https://afcabq.wixsite.com/andersonfamilychiro", "rating": 5.0, "reviews": 184, "place_id": "ChIJ_XnOnoG5GIcRYRvzFGh4XYk", "latitude": 35.06004679999999, "longitude": -106.1901949, "care_type": "Chiropractor"}, {"name": "Sandia Injury Center, LLC", "address": "5021 Indian School Rd NE #200, Albuquerque, NM 87110", "city": "Albuquerque", "phone": "+1 505-266-6200", "website": "http://sandiainjurycenter.com/", "rating": 4.4, "reviews": 21, "place_id": "ChIJJ2WXwC4LIocRE5UF93sN7NQ", "latitude": 35.1031188, "longitude": -106.5892028, "care_type": "Chiropractor"}, {"name": "Scott DelPrete DC", "address": "8300 Carmel Ave NE STE 102, Albuquerque, NM 87122", "city": "Albuquerque", "phone": "+1 505-883-5858", "website": "", "rating": 5.0, "reviews": 29, "place_id": "ChIJG7iAQswKIocRMBWlIos2Vng", "latitude": 35.174692, "longitude": -106.5525299, "care_type": "Chiropractor"}, {"name": "The Joint Chiropractic", "address": "5600 Coors Blvd NW Suite F4, Albuquerque, NM 87120", "city": "Albuquerque", "phone": "+1 505-302-2576", "website": "https://www.thejoint.com/new-mexico/albuquerque/montano-47002", "rating": 4.3, "reviews": 240, "place_id": "ChIJ7-MHIE5yIocRaEAE-0_jdXE", "latitude": 35.1463026, "longitude": -106.6884547, "care_type": "Chiropractor"}, {"name": "Rapha Chiropractic", "address": "3200 Carlisle Blvd NE # 120, Albuquerque, NM 87110", "city": "Albuquerque", "phone": "+1 505-280-9707", "website": "https://raphachiropracticnm.janeapp.com/%23staff_member/1", "rating": 5.0, "reviews": 29, "place_id": "ChIJXRnYYDR1IocRD5YE47uAUdg", "latitude": 35.1180628, "longitude": -106.603472, "care_type": "Chiropractor"}, {"name": "Chiro Health Clinic of NM LLC", "address": "2730 San Pedro Dr NE # B1, Albuquerque, NM 87110", "city": "Albuquerque", "phone": "+1 505-271-8888", "website": "", "rating": 5.0, "reviews": 1, "place_id": "ChIJzRMLbSt1IocRSD0EwRNyftg", "latitude": 35.1124143, "longitude": -106.5772467, "care_type": "Chiropractor"}, {"name": "Lifetime Chiropractic", "address": "7007 Wyoming Blvd NE # E2, Albuquerque, NM 87109", "city": "Albuquerque", "phone": "+1 505-822-0306", "website": "http://lifetimechiropracticabq.com/", "rating": 4.3, "reviews": 15, "place_id": "ChIJgfpzraF1IocR37l93NvOxoM", "latitude": 35.1586067, "longitude": -106.5606814, "care_type": "Chiropractor"}, {"name": "Michael S. Maggio, DC", "address": "901 3rd St NW suite b, Albuquerque, NM 87102", "city": "Albuquerque", "phone": "+1 505-242-8400", "website": "", "rating": 5.0, "reviews": 3, "place_id": "ChIJMQ21-rYMIocR1PQzSv_aFFg", "latitude": 35.0931933, "longitude": -106.6490346, "care_type": "Chiropractor"}, {"name": "CareMore Chiropractic Centers - Westside Albuquerque", "address": "3100 Coors Blvd NW #1226, Albuquerque, NM 87120", "city": "Albuquerque", "phone": "+1 505-831-0022", "website": "https://www.albuquerquechiropractor4u.com/westside-abq-coors/", "rating": 4.7, "reviews": 149, "place_id": "ChIJiSlkIZVyIocRWpxDrUM21aQ", "latitude": 35.117023, "longitude": -106.701256, "care_type": "Chiropractor"}, {"name": "Atlas Orthogonal Chiropractic of Albuquerque, LLC", "address": "2730 San Pedro Dr NE A, Albuquerque, NM 87110", "city": "Albuquerque", "phone": "+1 505-881-0650", "website": "https://atlasorthogonality.com/2021/07/francesca-russo-d-c/", "rating": 4.2, "reviews": 10, "place_id": "ChIJzRMLbSt1IocRbxe53FC60bw", "latitude": 35.1125061, "longitude": -106.5771885, "care_type": "Chiropractor"}, {"name": "Dr. Rion Marcus", "address": "10555 Montgomery Blvd NE, Albuquerque, NM 87111", "city": "Albuquerque", "phone": "+1 505-299-6622", "website": "https://www.nmchirocenter.com/team", "rating": 5.0, "reviews": 1, "place_id": "ChIJH5Lruu-fGIcRVC44SB92ZR4", "latitude": 35.1311812, "longitude": -106.5209528, "care_type": "Chiropractor"}, {"name": "Mc Gowan Michael DC", "address": "1000 Eubank Blvd NE ste c, Albuquerque, NM 87112", "city": "Albuquerque", "phone": "+1 505-884-2663", "website": "", "rating": 4.8, "reviews": 48, "place_id": "ChIJL82_kBagGIcRHVo3YsUlnjo", "latitude": 35.0894303, "longitude": -106.5322214, "care_type": "Chiropractor"}, {"name": "Blue Sky Body Therapeutics, LLC", "address": "3311 Candelaria Rd NE Suite A, Albuquerque, NM 87107", "city": "Albuquerque", "phone": "+1 505-393-7099", "website": "http://www.blueskyabq.com/", "rating": 5.0, "reviews": 27, "place_id": "ChIJS2Fn674MIocRGrxc7eA3pOM", "latitude": 35.1172931, "longitude": -106.6079677, "care_type": "Chiropractor"}, {"name": "CareMore Chiropractic Centers - NE Heights", "address": "1820 Juan Tabo Blvd NE, Albuquerque, NM 87112", "city": "Albuquerque", "phone": "+1 505-296-0296", "website": "https://albuquerquechiropractor4u.com/juan-tabo-87112/", "rating": 4.8, "reviews": 118, "place_id": "ChIJn_hgMBSgGIcRkHzKrbEkRr4", "latitude": 35.1024995, "longitude": -106.5148153, "care_type": "Chiropractor"}, {"name": "Chiropractic Lifestyle Center, P.C.", "address": "8000 Menaul Blvd NE, Albuquerque, NM 87110", "city": "Albuquerque", "phone": "+1 505-294-8889", "website": "http://www.chirolifestylecenter.com/index.html", "rating": 4.3, "reviews": 6, "place_id": "ChIJU4wB07UKIocRBYA34_hkSN4", "latitude": 35.1087714, "longitude": -106.555668, "care_type": "Chiropractor"}, {"name": "Elevated Chiropractic Dr. John Claussen", "address": "1113 Rhode Island St NE, Albuquerque, NM 87110", "city": "Albuquerque", "phone": "+1 505-554-8063", "website": "http://www.johnclaussenchiropractor.com/", "rating": 5.0, "reviews": 2, "place_id": "ChIJFxOyXdMLIocRGuivaYHy7fY", "latitude": 35.08956939999999, "longitude": -106.5586887, "care_type": "Chiropractor"}, {"name": "Desert Sky Chiropractic - Dr. Jennifer Escarcega DC", "address": "6800 Montgomery Blvd NE Ste G, Albuquerque, NM 87109", "city": "Albuquerque", "phone": "+1 505-389-8573", "website": "https://www.drjenchiroabq.com/", "rating": 5.0, "reviews": 7, "place_id": "ChIJl-k9F6N1IocRKIcCPeh7vj8", "latitude": 35.130213, "longitude": -106.5721133, "care_type": "Chiropractor"}, {"name": "Dr. Lindsey Blessing-Parsons", "address": "8400 Osuna Rd NE #1C, Albuquerque, NM 87111", "city": "Albuquerque", "phone": "+1 505-259-1731", "website": "https://blessingchiro.com/About", "rating": 5.0, "reviews": 3, "place_id": "ChIJVVVVzml1IocRU6AsNofab08", "latitude": 35.1370309, "longitude": -106.5503193, "care_type": "Chiropractor"}, {"name": "Lyman Atchley", "address": "8004 Pennsylvania Cir NE, Albuquerque, NM 87110", "city": "Albuquerque", "phone": "+1 505-265-5651", "website": "https://www.atchleychiropractic.com/", "rating": 5.0, "reviews": 1, "place_id": "ChIJVVUF2JQKIocRUJYet0F2qXE", "latitude": 35.0893304, "longitude": -106.5576271, "care_type": "Chiropractor"}, {"name": "Dr Laura Hobson, DC-APC, FICPA", "address": "2730 San Pedro Dr NE # B1, Albuquerque, NM 87110", "city": "Albuquerque", "phone": "+1 505-271-8888", "website": "https://www.healinghappensnm.com/", "rating": 4.5, "reviews": 8, "place_id": "ChIJzRMLbSt1IocRN_1CyrYtSa0", "latitude": 35.112506, "longitude": -106.577189, "care_type": "Chiropractor"}, {"name": "Sunbear Chiropractic", "address": "3500 Comanche Rd NE Ste I, Albuquerque, NM 87107", "city": "Albuquerque", "phone": "+1 505-884-0771", "website": "http://www.sunbearchiropractic.com/", "rating": 4.2, "reviews": 21, "place_id": "ChIJURb8qsB0IocReEFjFghmXBw", "latitude": 35.1235542, "longitude": -106.6060943, "care_type": "Chiropractor"}, {"name": "Zandall Carpenter Chiropractor", "address": "3909 Juan Tabo Blvd NE #3, Albuquerque, NM 87111", "city": "Albuquerque", "phone": "+1 505-888-1550", "website": "", "rating": 5.0, "reviews": 6, "place_id": "ChIJzRMLbSt1IocR4zTbWad8ceU", "latitude": 35.1261634, "longitude": -106.516237, "care_type": "Chiropractor"}, {"name": "Desert Motions Chiropractic Dr. Gail M. Bradley DC", "address": "9004 Menaul Blvd NE # 7, Albuquerque, NM 87112", "city": "Albuquerque", "phone": "+1 505-234-4165", "website": "http://desertmotionschiropractic.com/", "rating": null, "reviews": 0, "place_id": "ChIJVQDHyPOfGIcRY0nAxp0kSEc", "latitude": 35.1086778, "longitude": -106.5412363, "care_type": "Chiropractor"}, {"name": "Functional You", "address": "6121 Indian School Rd NE, Albuquerque, NM 87110", "city": "Albuquerque", "phone": "+1 505-508-4350", "website": "https://functionalyouabq.com/", "rating": 5.0, "reviews": 47, "place_id": "ChIJISr_xtChGIcRnNH7iw84qjw", "latitude": 35.1035736, "longitude": -106.5754043, "care_type": "Chiropractor"}, {"name": "Diamondback Wellness Center", "address": "633 Kinley Ave NW, Albuquerque, NM 87102", "city": "Albuquerque", "phone": "+1 505-242-1067", "website": "", "rating": 5.0, "reviews": 4, "place_id": "ChIJ0W9An8oMIocRL0TzVu-08vc", "latitude": 35.098697, "longitude": -106.6530371, "care_type": "Chiropractor"}, {"name": "CareMore Chiropractic Centers", "address": "400 Louisiana Blvd SE, Albuquerque, NM 87108", "city": "Albuquerque", "phone": "+1 505-266-4211", "website": "", "rating": 4.8, "reviews": 38, "place_id": "ChIJ7eBpDvcKIocR2wwklpnayTI", "latitude": 35.0724808, "longitude": -106.5684101, "care_type": "Chiropractor"}, {"name": "Carlisle Health & Rehab Center", "address": "3401 Carlisle Blvd NE, Albuquerque, NM 87110", "city": "Albuquerque", "phone": "+1 505-889-3333", "website": "https://marrichchiro.com/", "rating": 4.6, "reviews": 19, "place_id": "ChIJy_n1ncd0IocR4U4J0p5XrwU", "latitude": 35.1203462, "longitude": -106.6043873, "care_type": "Chiropractor"}, {"name": "Body Balance Chiropractic", "address": "3705 Westerfeld Dr NE, Albuquerque, NM 87111", "city": "Albuquerque", "phone": "+1 505-275-6708", "website": "https://www.drswedberg.com/", "rating": 5.0, "reviews": 7, "place_id": "ChIJp8IHif2fGIcRckCPAfECCYc", "latitude": 35.1238144, "longitude": -106.5346821, "care_type": "Chiropractor"}, {"name": "Spinous Chiropractic Center", "address": "2151 N Main St, Las Cruces, NM 88001", "city": "Las Cruces", "phone": "+1 575-524-0400", "website": "https://www.spinouschiropractic.com/", "rating": 4.9, "reviews": 132, "place_id": "ChIJ7Rg7wbw93oYRm9_CVB6a8bE", "latitude": 32.3273443, "longitude": -106.7843707, "care_type": "Chiropractor"}, {"name": "Peak Movement Chiropractic & Sports Rehab", "address": "420 N Campo St #2, Las Cruces, NM 88001", "city": "Las Cruces", "phone": "+1 575-639-9497", "website": "http://www.peakmovementchiro.com/", "rating": 4.9, "reviews": 57, "place_id": "ChIJhVjJb2rwbQERVzwGwjTTeTg", "latitude": 32.3127139, "longitude": -106.7770351, "care_type": "Chiropractor"}, {"name": "Precure Chiropractic Clinic", "address": "3961 E Lohman Ave #22, Las Cruces, NM 88011", "city": "Las Cruces", "phone": "+1 575-652-3358", "website": "https://precurechiropractic.com/", "rating": 4.8, "reviews": 135, "place_id": "ChIJC1rW60893oYReeHyvDsTtRw", "latitude": 32.3205642, "longitude": -106.7341995, "care_type": "Chiropractor"}, {"name": "Heritage Chiropractic Center LLC", "address": "755 S Telshor Blvd suite R-102, Las Cruces, NM 88011", "city": "Las Cruces", "phone": "+1 575-532-1116", "website": "https://lascruceschiropractic.com/", "rating": 4.6, "reviews": 24, "place_id": "ChIJ9fBkT1k93oYRtlU5zlrr_aA", "latitude": 32.3115746, "longitude": -106.7402448, "care_type": "Chiropractor"}, {"name": "Nelson Chiropractic & Rehabilitation", "address": "2902 Hillrise Dr, Las Cruces, NM 88011", "city": "Las Cruces", "phone": "+1 575-522-0051", "website": "https://nelsonchiroandrehab.com/", "rating": 4.8, "reviews": 36, "place_id": "ChIJFQNVD-MX3oYRdO6rdIvv8g8", "latitude": 32.30397689999999, "longitude": -106.737668, "care_type": "Chiropractor"}, {"name": "Daugherty Spine & Disc", "address": "648 N Alameda Blvd, Las Cruces, NM 88005", "city": "Las Cruces", "phone": "+1 575-521-0022", "website": "http://mychirolovesme.com/", "rating": 4.8, "reviews": 248, "place_id": "ChIJc1f8eZA93oYRTq5IunMD0bc", "latitude": 32.3147286, "longitude": -106.7827429, "care_type": "Chiropractor"}, {"name": "Las Cruces Chiropractic Clinic", "address": "1265 S Main St, Las Cruces, NM 88005", "city": "Las Cruces", "phone": "+1 575-524-4494", "website": "", "rating": 3.0, "reviews": 1, "place_id": "ChIJwYRl5y4W3oYRyhwvdKQ9m2M", "latitude": 32.295178, "longitude": -106.7788646, "care_type": "Chiropractor"}, {"name": "Dr. Glenn J. Waldt, MS, DC, DO | Chiropractor in Las Cruces | Back and Neck Medical Care Center", "address": "2803 Doral Ct, Las Cruces, NM 88011", "city": "Las Cruces", "phone": "+1 505-695-1227", "website": "http://www.lascrucesbackdoctor.com/", "rating": 4.8, "reviews": 69, "place_id": "ChIJDSYl65gX3oYR6NPwGUPwSfI", "latitude": 32.3066183, "longitude": -106.7401774, "care_type": "Chiropractor"}, {"name": "Rodriguez Family Chiropractic Inc. : Rodriguez Laura DC", "address": "595 S Valley Dr, Las Cruces, NM 88005", "city": "Las Cruces", "phone": "+1 575-527-5083", "website": "", "rating": 4.2, "reviews": 11, "place_id": "ChIJ3Xbk4uk93oYRKMfw0gVmjkM", "latitude": 32.3018132, "longitude": -106.7911968, "care_type": "Chiropractor"}, {"name": "Chiropractic Care Center: George A. Massey D.C.", "address": "2900 Hillrise Dr, Las Cruces, NM 88011", "city": "Las Cruces", "phone": "+1 575-526-4226", "website": "https://drgeorgemassey.com/", "rating": 4.8, "reviews": 14, "place_id": "ChIJR4ylm2s93oYR-3TrC8hw63I", "latitude": 32.3039891, "longitude": -106.7376609, "care_type": "Chiropractor"}, {"name": "Back to Health Chiropractic", "address": "1200 N Main St, Las Cruces, NM 88001", "city": "Las Cruces", "phone": "+1 575-525-2222", "website": "", "rating": 4.5, "reviews": 8, "place_id": "ChIJ8c-p7Jk93oYRjbnaejArmCU", "latitude": 32.3194056, "longitude": -106.7809935, "care_type": "Chiropractor"}, {"name": "Lane S. Bauer, DC", "address": "1265 S Main St, Las Cruces, NM 88005", "city": "Las Cruces", "phone": "+1 575-524-4494", "website": "", "rating": 5.0, "reviews": 6, "place_id": "ChIJwYRl5y4W3oYRlLyEK3J1qI4", "latitude": 32.2951939, "longitude": -106.778882, "care_type": "Chiropractor"}, {"name": "Healing Source Chiropractic", "address": "3961 E Lohman Ave #22, Las Cruces, NM 88011", "city": "Las Cruces", "phone": "+1 575-652-3358", "website": "http://www.healingsourcechiro.com/", "rating": 3.2, "reviews": 11, "place_id": "ChIJC1rW60893oYRY8DPtSKPuQ4", "latitude": 32.3205042, "longitude": -106.7342216, "care_type": "Chiropractor"}, {"name": "Brian R. Hesser, DC", "address": "3850 E Lohman Ave, Las Cruces, NM 88001", "city": "Las Cruces", "phone": "+1 575-521-0793", "website": "https://www.millenniumlc.com/about-us/", "rating": 4.0, "reviews": 4, "place_id": "ChIJ_ddXrlo93oYRsvCkz1m_B_s", "latitude": 32.318534, "longitude": -106.735199, "care_type": "Chiropractor"}, {"name": "Hawkins Chiropractic Care LLC", "address": "at Heritage Chiropractic Center, 755 S Telshor Blvd Ste R101, Las Cruces, NM 88011", "city": "Las Cruces", "phone": "+1 575-532-1116", "website": "https://chirohawk.com/", "rating": 5.0, "reviews": 4, "place_id": "ChIJM9Xzorw93oYRJ3KF827k8Qc", "latitude": 32.311281, "longitude": -106.740599, "care_type": "Chiropractor"}, {"name": "Rodriguez Family Chiropractic INC.", "address": "595 N Valley Dr, Las Cruces, NM 88005", "city": "Las Cruces", "phone": "+1 575-527-5083", "website": "", "rating": 3.0, "reviews": 4, "place_id": "ChIJj8KViO093oYRZYBIuMu-Wo0", "latitude": 32.3083703, "longitude": -106.7963882, "care_type": "Chiropractor"},