[{"name": "Windsor Chiropractic Health Centre", "address": "31 Centennial Dr, Windsor, NS B0N 2T0", "city": "Windsor", "phone": "+1 902-792-1871", "website": "http://www.windsor-chiro.com/", "rating": 4.8, "reviews": 61, "place_id": "ChIJW4XRdBCmWUsRDLzYeRlgMUY", "latitude": 44.99075, "longitude": -64.12071399999999, "care_type": "Chiropractor"}, {"name": "Ease Chiropractic", "address": "138 Campbell St, New Glasgow, NS B2H 5X9", "city": "New Glasgow", "phone": "+1 902-301-1648", "website": "http://www.easechiropractic.com/", "rating": 5.0, "reviews": 12, "place_id": "ChIJwelNwKweXEsR47a8ZLCUFtw", "latitude": 45.5831212, "longitude": -62.647259, "care_type": "Chiropractor"}, {"name": "New Glasgow Chiropractic Centre", "address": "342 Stewart St, New Glasgow, NS B2H 2R7", "city": "New Glasgow", "phone": "+1 902-752-5390", "website": "", "rating": 5.0, "reviews": 23, "place_id": "ChIJl8vEX6keXEsRCWM2s9XvhOY", "latitude": 45.583969, "longitude": -62.64639399999999, "care_type": "Chiropractor"}, {"name": "Somata", "address": "174 Archimedes St, New Glasgow, NS B2H 2T6", "city": "New Glasgow", "phone": "+1 902-755-9020", "website": "http://www.somata.ca/", "rating": 4.9, "reviews": 60, "place_id": "ChIJH6JOquQbXEsRBoQOwgepCco", "latitude": 45.586885, "longitude": -62.644223, "care_type": "Chiropractor"}, {"name": "Fundy Chiropractic & Wellness Centre", "address": "189 Dykeland St, Wolfville, NS B4P 1A3", "city": "Wolfville", "phone": "+1 902-542-9355", "website": "http://fundychiropractic.ca/", "rating": 4.0, "reviews": 3, "place_id": "ChIJea7zj6NVWEsRFHpSYJb_grs", "latitude": 45.093626, "longitude": -64.365225, "care_type": "Chiropractor"}, {"name": "Wolfville Chiropractic Centre Ltd Dr. Ward MacDonald, DC & Christine MacDonald RMT", "address": "112 Front St, Wolfville, NS B4P 1A4", "city": "Wolfville", "phone": "+1 902-542-5380", "website": "https://wolfvillechiropractic.janeapp.com/", "rating": 5.0, "reviews": 3, "place_id": "ChIJW003NKFVWEsRnQayBzdFBvM", "latitude": 45.0923881, "longitude": -64.3614664, "care_type": "Chiropractor"}, {"name": "Wolfville Integrated Health Care", "address": "189 Dykeland St #3, Wolfville, NS B4P 1A3", "city": "Wolfville", "phone": "+1 902-542-2000", "website": "https://www.wolfvillehealthcare.com/", "rating": null, "reviews": 0, "place_id": "ChIJea7zj6NVWEsRbnjQykB6_aA", "latitude": 45.0934879, "longitude": -64.3651465, "care_type": "Chiropractor"}, {"name": "Island Chiropractic & Family Wellness - Sydney, NS", "address": "850 Grand Lake Rd, Sydney, NS B1P 5T9", "city": "Sydney", "phone": "+1 902-270-7022", "website": "http://www.islandchiro.com/", "rating": 5.0, "reviews": 165, "place_id": "ChIJ0ckNjaHkZ0sRewPjbAbAy6I", "latitude": 46.1495817, "longitude": -60.1363774, "care_type": "Chiropractor"}, {"name": "Cape Breton Chiropractic Centre", "address": "174 Commercial St, North Sydney, NS B2A 1B4", "city": "North Sydney", "phone": "+1 902-794-4442", "website": "", "rating": 4.7, "reviews": 3, "place_id": "ChIJZ3BLtAnvZ0sRI1HUk85z60I", "latitude": 46.2067247, "longitude": -60.2523977, "care_type": "Chiropractor"}, {"name": "Halifax Chiropractic Clinic", "address": "6112 Willow St, Halifax, NS B3K 1M2", "city": "Halifax", "phone": "+1 902-423-9223", "website": "https://www.halifaxchiropractic.ca/", "rating": 4.9, "reviews": 29, "place_id": "ChIJ1WO8Nn8hWksRN4JdznMCNhg", "latitude": 44.6529158, "longitude": -63.5956297, "care_type": "Chiropractor"}, {"name": "Clayton Park Chiropractic Centre", "address": "117 Kearney Lake Rd #11, Halifax, NS B3M 4N9", "city": "Halifax", "phone": "+1 902-443-5669", "website": "https://www.claytonparkchiro.ca/%3FUTM_source%3DGBL", "rating": 4.9, "reviews": 202, "place_id": "ChIJWSgKjaUgWksROhIM12u-nFQ", "latitude": 44.6846231, "longitude": -63.674253, "care_type": "Chiropractor"}, {"name": "The Chiropractic Loft", "address": "1567 Grafton St, Halifax, NS B3J 2C3", "city": "Halifax", "phone": "+1 902-405-3733", "website": "http://chiroloft.com/", "rating": 5.0, "reviews": 151, "place_id": "ChIJ6wBjfUojWksR_lMDwZCGLQg", "latitude": 44.64512, "longitude": -63.5743278, "care_type": "Chiropractor"}, {"name": "Maritime Chiropractic & Wellness", "address": "1592 Barrington St #200, Halifax, NS B3J 0C7", "city": "Halifax", "phone": "+1 902-492-2102", "website": "http://www.maritimechiropractic.ca/", "rating": 4.9, "reviews": 95, "place_id": "ChIJOXjjmTQiWksRy2y3TDgDsJ4", "latitude": 44.6459668, "longitude": -63.57360989999999, "care_type": "Chiropractor"}, {"name": "Choice Health Centre Halifax", "address": "46 McQuade Lake Crescent, Halifax, NS B3S 1G8", "city": "Halifax", "phone": "+1 902-404-3668", "website": "https://www.choicehealthcentre.com/", "rating": 4.9, "reviews": 294, "place_id": "ChIJI2zfQy0gWksRfgfzifEGCq8", "latitude": 44.6385748, "longitude": -63.6673662, "care_type": "Chiropractor"}, {"name": "Currents Chiropractic Studio", "address": "5663 Nora Bernard St, Halifax, NS B3K 1B6", "city": "Halifax", "phone": "+1 902-631-1788", "website": "https://currentschiro.ca/", "rating": 5.0, "reviews": 29, "place_id": "ChIJz3PGGqQjWksRm_Y2yMT9cFs", "latitude": 44.6512028, "longitude": -63.5859852, "care_type": "Chiropractor"}, {"name": "Seaside Chiropractic and Health Centre", "address": "6960 Mumford Rd #110, Halifax, NS B3L 4P1", "city": "Halifax", "phone": "+1 902-407-5120", "website": "http://www.seasidechiropractic.ca/", "rating": 5.0, "reviews": 65, "place_id": "ChIJgx9NTpchWksRlyRgMggKa2M", "latitude": 44.6450702, "longitude": -63.6194877, "care_type": "Chiropractor"}, {"name": "Active Approach Health & Wellness Centre", "address": "B210, 5855 Spring Garden Rd, Halifax, NS B3H 4S2", "city": "Halifax", "phone": "+1 902-429-2225", "website": "https://www.activeapproach.ca/", "rating": 4.9, "reviews": 169, "place_id": "ChIJ-1An0jEiWksRYM1MiiU9waQ", "latitude": 44.64155299999999, "longitude": -63.583783, "care_type": "Chiropractor"}, {"name": "Health First Chiropractic & Massage", "address": "1894 Barrington St Suite 156, Halifax, NS B3J 2A8", "city": "Halifax", "phone": "+1 902-429-5098", "website": "http://healthfirstchiropractic.squarespace.com/", "rating": 4.9, "reviews": 28, "place_id": "ChIJmXCrnM0jWksRJ9qxhH5hwhs", "latitude": 44.6495043, "longitude": -63.5765796, "care_type": "Chiropractor"}, {"name": "Armdale Chiropractic Health Centre", "address": "201 Herring Cove Rd, Halifax, NS B3L 4G4", "city": "Halifax", "phone": "+1 902-454-9777", "website": "http://www.armdalechiro.ca/", "rating": 4.9, "reviews": 13, "place_id": "ChIJT5KT55MhWksRo8l0tylHSqA", "latitude": 44.6241302, "longitude": -63.6177685, "care_type": "Chiropractor"}, {"name": "Dr. MacAdam & Associates", "address": "6777 Quinpool Rd, Halifax, NS B3L 1C2", "city": "Halifax", "phone": "+1 902-407-3347", "website": "https://halifaxchiro.com/", "rating": 4.9, "reviews": 66, "place_id": "ChIJS3p7p54hWksRpftXyKdUItM", "latitude": 44.6420295, "longitude": -63.6093203, "care_type": "Chiropractor"}, {"name": "Robie at Spring Garden Chiropractic Clinic", "address": "5991 Spring Garden Rd #103, Halifax, NS B3H 1Y6", "city": "Halifax", "phone": "+1 902-422-3279", "website": "http://www.robiechiro.com/", "rating": 4.8, "reviews": 189, "place_id": "ChIJnzQ06i8iWksRTs-rVWhbN5Q", "latitude": 44.6410772, "longitude": -63.5867547, "care_type": "Chiropractor"}, {"name": "Knotical Chiropractic", "address": "1496 Lower Water St, Halifax, NS B3J 1R9", "city": "Halifax", "phone": "+1 902-932-7425", "website": "http://www.knoticalchiropractic.com/", "rating": 5.0, "reviews": 43, "place_id": "ChIJp4Yi49EjWksRqBuwjt6ENnI", "latitude": 44.64405989999999, "longitude": -63.570408, "care_type": "Chiropractor"}, {"name": "Revital Wellness - (Chiropractic, Physiotherapy, Massage Therapy)", "address": "5562 Sackville St #302, Halifax, NS B3J 1L1", "city": "Halifax", "phone": "+1 902-536-3343", "website": "http://www.revitalwellness.ca/", "rating": 5.0, "reviews": 88, "place_id": "ChIJndvseFQhWksRLj0UKf8wcGQ", "latitude": 44.6445768, "longitude": -63.5796557, "care_type": "Chiropractor"}, {"name": "Genesis Chiropractic & Wellness Centre", "address": "255 Lacewood Dr, Halifax, NS B3M 4G2", "city": "Halifax", "phone": "+1 902-445-0221", "website": "https://www.genesischiropracticandwellness.com/%3FUTM_source%3DGBL", "rating": 4.9, "reviews": 31, "place_id": "ChIJk9gqCVcgWksROXyVofoMXCE", "latitude": 44.66355799999999, "longitude": -63.65433599999999, "care_type": "Chiropractor"}, {"name": "Park West Chiropractic - Dr. Shawn Toner", "address": "287 Lacewood Dr Unit 120, Halifax, NS B3M 3Y7", "city": "Halifax", "phone": "+1 902-457-2288", "website": "http://www.parkwestchiro.ca/", "rating": 5.0, "reviews": 26, "place_id": "ChIJU1O2AcQhWksRPwgbH2ahEKY", "latitude": 44.6641306, "longitude": -63.65863779999999, "care_type": "Chiropractor"}, {"name": "Dr. Krista Prowse Welch, Halifax Chiropractor @ Welch Chiropractic", "address": "5991 Spring Garden Rd Suite 435, Halifax, NS B3H 1Y6", "city": "Halifax", "phone": "+1 902-422-3535", "website": "http://www.welchchiropractic.ca/", "rating": 4.8, "reviews": 10, "place_id": "ChIJrZKTw6chWksRG5WtH1M5AmM", "latitude": 44.6410772, "longitude": -63.5867547, "care_type": "Chiropractor"}, {"name": "Healthy Link Chiropractic Wellness Centre", "address": "362 Lacewood Dr Suite 201, Halifax, NS B3S 1M7", "city": "Halifax", "phone": "+1 902-446-5465", "website": "http://www.healthylinkwellness.ca/", "rating": 4.9, "reviews": 48, "place_id": "ChIJTwYHiEQgWksRWiP3qa9Cbzk", "latitude": 44.6571942, "longitude": -63.6696927, "care_type": "Chiropractor"}, {"name": "Fairview Chiropractic & Massage", "address": "25 Titus St, Halifax, NS B3M 2N5", "city": "Halifax", "phone": "+1 902-405-5433", "website": "https://www.fairviewchiropractic.ca/", "rating": 4.7, "reviews": 20, "place_id": "ChIJdV0muqkhWksR02tIBx-Jbmk", "latitude": 44.6602423, "longitude": -63.63470969999999, "care_type": "Chiropractor"}, {"name": "Agricola Holistic Health - (Physiotherapy, Massage Therapy, Chiropractic)", "address": "2741 Gladstone St, Halifax, NS B3K 4W6", "city": "Halifax", "phone": "+1 902-454-2256", "website": "http://www.agricolaholistichealth.ca/", "rating": 4.9, "reviews": 222, "place_id": "ChIJL6W8dNUjWksR80d9knwiyQE", "latitude": 44.6550235, "longitude": -63.600153, "care_type": "Chiropractor"}, {"name": "Brickyard Health (Massage Therapy, Chiropractic, Naturopathic Medicine, Physiotherapy, Osteopathy)", "address": "2111 Maitland St #100, Halifax, NS B3K 2Z8", "city": "Halifax", "phone": "+1 902-406-2006", "website": "http://www.brickyardhealth.com/", "rating": 4.9, "reviews": 122, "place_id": "ChIJz_VKCdQjWksRyGOmTxmba-A", "latitude": 44.6521227, "longitude": -63.5818824, "care_type": "Chiropractor"}, {"name": "MEND|RX Halifax - (Physiotherapy, Massage Therapy, Chiropractic)", "address": "2741 Gladstone St, Halifax, NS B3K 4W6", "city": "Halifax", "phone": "+1 902-536-1856", "website": "https://www.mendrx.ca/", "rating": 4.9, "reviews": 566, "place_id": "ChIJV5I5KEkhWksRVOngsEO72E8", "latitude": 44.6550235, "longitude": -63.600153, "care_type": "Chiropractor"}, {"name": "Atlantic Chiropractic", "address": "1432 Hammonds Plains Rd #16, Hammonds Plains, NS B4B 1P6", "city": "Hammonds Plains", "phone": "+1 902-407-6070", "website": "https://www.atlanticchiropractic.ca/", "rating": 4.9, "reviews": 201, "place_id": "ChIJ2aTT9i-JWUsRKy-CvRgxwRY", "latitude": 44.72805, "longitude": -63.7495, "care_type": "Chiropractor"}, {"name": "Bedford Chiropractic", "address": "1687 Bedford Hwy, Bedford, NS B4A 1G1", "city": "Bedford", "phone": "+1 902-835-6865", "website": "http://www.bedfordchiro.ca/", "rating": 4.9, "reviews": 143, "place_id": "ChIJ5Qx31ciJWUsRxb0w17Mij8M", "latitude": 44.7374211, "longitude": -63.65385819999999, "care_type": "Chiropractor"}, {"name": "Roach Chiropractic Centre", "address": "1160 Bedford Hwy Unit 103, Bedford, NS B4A 1C1", "city": "Bedford", "phone": "+1 902-404-3828", "website": "https://www.roachchiropractic.com/", "rating": 4.9, "reviews": 352, "place_id": "ChIJKXCYxe2JWUsReXJIzXwUwxQ", "latitude": 44.7217338, "longitude": -63.671681, "care_type": "Chiropractor"}, {"name": "Sound Chiropractic and Health Sciences Centre", "address": "620 Nine Mile Dr, Bedford, NS B4A 0H4", "city": "Bedford", "phone": "+1 902-444-4666", "website": "http://soundchiropractic.ca/", "rating": 5.0, "reviews": 84, "place_id": "ChIJO2pXABGKWUsRtv2sl45Ca-I", "latitude": 44.7011826, "longitude": -63.68617099999999, "care_type": "Chiropractor"}, {"name": "Hammond Chiropractic Health Centre", "address": "950 Bedford Hwy Suite 204, Bedford, NS B4A 4B5", "city": "Bedford", "phone": "+1 902-835-7878", "website": "http://www.hammondchiro.ca/", "rating": 4.8, "reviews": 19, "place_id": "ChIJ01ZscfSJWUsRQ4rQa2mZXtE", "latitude": 44.7158487, "longitude": -63.6787467, "care_type": "Chiropractor"}, {"name": "Coastal Sports & Wellness - Halifax", "address": "5689 Cunard St, Halifax, NS B3K 4B4", "city": "Halifax", "phone": "+1 902-417-2958", "website": "https://coastalsportsandwellness.com/", "rating": 5.0, "reviews": 71, "place_id": "ChIJ43V7CGAjWksRSf3EwPh_gCA", "latitude": 44.6518555, "longitude": -63.5880126, "care_type": "Chiropractor"}, {"name": "Paul Whatling Chiropractor", "address": "1567 Grafton St, Halifax, NS B3J 2C3", "city": "Halifax", "phone": "+1 902-405-3733", "website": "http://chiroloft.com/", "rating": 5.0, "reviews": 3, "place_id": "ChIJZT-2CViIWUsRK9FTMuVnXgM", "latitude": 44.6451442, "longitude": -63.5743893, "care_type": "Chiropractor"}, {"name": "Eaglewood Chiropractic Health Centre", "address": "105 Dartmouth Rd, Bedford, NS B4A 2L8", "city": "Bedford", "phone": "+1 902-422-6688", "website": "https://eaglewoodchiro.ca/", "rating": 5.0, "reviews": 1123, "place_id": "ChIJDWh0pr2JWUsRzJhi-Dkq6qY", "latitude": 44.7274947, "longitude": -63.64533359999999, "care_type": "Chiropractor"}, {"name": "Choice Health Centre", "address": "1600 Bedford Hwy, Bedford, NS B4A 1E8", "city": "Bedford", "phone": "+1 902-404-3668", "website": "https://choicehealthcentre.com/", "rating": 4.8, "reviews": 194, "place_id": "ChIJmcdOs8WJWUsRWcotaQ9vLNk", "latitude": 44.733446, "longitude": -63.6563173, "care_type": "Chiropractor"}, {"name": "Kinesis Health Associates", "address": "155 Ochterloney St 2nd floor, Dartmouth, NS B2Y 1C9", "city": "Dartmouth", "phone": "+1 902-464-2225", "website": "https://www.kinesishealth.ca/", "rating": 4.9, "reviews": 318, "place_id": "ChIJg_NiOOEjWksRW3dP7X5_5r8", "latitude": 44.67007359999999, "longitude": -63.5649599, "care_type": "Chiropractor"}, {"name": "Dr. Douglas J. Penrose", "address": "117 Kearney Lake Rd #11, Halifax, NS B3M 4N9", "city": "Halifax", "phone": "+1 902-443-9419", "website": "http://www.claytonparkchiro.ca/", "rating": 5.0, "reviews": 2, "place_id": "ChIJJSI-lJsgWksRwlyT4672ywQ", "latitude": 44.6846064, "longitude": -63.6741767, "care_type": "Chiropractor"}, {"name": "Nova Spinal Care Inc", "address": "50 Gary Martin Dr, Bedford, NS B4B 0P9", "city": "Bedford", "phone": "+1 902-444-6682", "website": "http://www.novaspinalcare.ca/", "rating": 4.9, "reviews": 171, "place_id": "ChIJWwG7Xy0gWksRuYpw7J1Hk98", "latitude": 44.7253061, "longitude": -63.7028167, "care_type": "Chiropractor"}, {"name": "KinFix Health & Fitness", "address": "383 Herring Cove Rd, Halifax, NS B3R 0H1", "city": "Halifax", "phone": "+1 902-333-0138", "website": "http://www.kinfixhealth.ca/", "rating": 5.0, "reviews": 230, "place_id": "ChIJlRNDUVghWksRvVGasfR_FZM", "latitude": 44.6111127, "longitude": -63.6179804, "care_type": "Chiropractor"}, {"name": "COME AND BE RELAXED HEALTH CLINIC DARTMOUTH INCORPORATED", "address": "25 Boutiliers Ln, Dartmouth, NS B2X 2H6", "city": "Dartmouth", "phone": "+1 902-240-7073", "website": "http://acupuncture-chiropractic.com/", "rating": 5.0, "reviews": 107, "place_id": "ChIJ730s4yInWksRMrtHbKqLki4", "latitude": 44.695078, "longitude": -63.5498263, "care_type": "Chiropractor"}, {"name": "Basin View Chiropractic", "address": "1239 Bedford Hwy, Bedford, NS B4A 1C5", "city": "Bedford", "phone": "+1 902-835-5755", "website": "http://www.basinviewchiropractic.com/", "rating": 5.0, "reviews": 62, "place_id": "ChIJi8nLDOyJWUsROFDn0hmsM8Y", "latitude": 44.7243436, "longitude": -63.6692012, "care_type": "Chiropractor"}, {"name": "Bee Well IHC - Halifax Satellite Clinic @ Move East Studios", "address": "6130 Quinpool Rd, Halifax, NS B3L 1A3", "city": "Halifax", "phone": "+1 902-407-3400", "website": "https://beewellihc.com/halifax/", "rating": 5.0, "reviews": 1, "place_id": "ChIJy8TOQLcjWksR3__EXW9LpoA", "latitude": 44.646104, "longitude": -63.59402859999999, "care_type": "Chiropractor"}, {"name": "Choice Health Centre Dartmouth", "address": "560 Windmill Rd Suite 203, Dartmouth, NS B3B 1B3", "city": "Dartmouth", "phone": "+1 902-404-3668", "website": "http://www.choicehealthcentre.com/", "rating": 4.9, "reviews": 287, "place_id": "ChIJZwvcvggkWksRXP_HMmJUTqM", "latitude": 44.6940085, "longitude": -63.6001263, "care_type": "Chiropractor"}, {"name": "Dr. Stephen Dwyer D.C., BSc", "address": "1894 Barrington St #156, Halifax, NS B3J 0G1", "city": "Halifax", "phone": "+1 902-429-5098", "website": "", "rating": 5.0, "reviews": 1, "place_id": "ChIJ_1YtqIsjWksRrIOjVZXx1po", "latitude": 44.6500127, "longitude": -63.5757821, "care_type": "Chiropractor"}, {"name": "ACCEL Health and Sport Performance Centre", "address": "3711 Joseph Howe Dr. Unit 5, Halifax, NS B3L 4H8", "city": "Halifax", "phone": "+1 902-446-4004", "website": "https://accelhealth.ca/", "rating": 4.7, "reviews": 105, "place_id": "ChIJ4dvdBgghWksR9gJewYXQZQI", "latitude": 44.659562, "longitude": -63.6281979, "care_type": "Chiropractor"}, {"name": "Luminate Co Wellness Centre", "address": "486 Starboard Dr, Halifax, NS B3M 0N6", "city": "Halifax", "phone": "+1 902-835-9319", "website": "https://luminateco.ca/clinic/", "rating": 4.7, "reviews": 53, "place_id": "ChIJ3RFreZaLWUsRGqQQ6oId3Jk", "latitude": 44.6965087, "longitude": -63.683197, "care_type": "Chiropractor"}, {"name": "Pelvico Health Centre (Halifax)", "address": "114 Chain Lake Dr Suite 5, Halifax, NS B3S 1B1", "city": "Halifax", "phone": "+1 902-332-8534", "website": "http://pelvico.ca/", "rating": 5.0, "reviews": 92, "place_id": "ChIJ9RZBFLchWksRfcWSoGqPssw", "latitude": 44.6370917, "longitude": -63.6636411, "care_type": "Chiropractor"}, {"name": "Dr. Anne Desneiges", "address": "5991 Spring Garden Rd #1140, Halifax, NS B3H 1Y6", "city": "Halifax", "phone": "+1 902-333-6754", "website": "http://www.innerocean.ca/", "rating": 5.0, "reviews": 2, "place_id": "ChIJ61AmuS8iWksRd0WvIrdU0Pk", "latitude": 44.6407681, "longitude": -63.5864458, "care_type": "Chiropractor"}, {"name": "Oceanside Chiropractic Clinic", "address": "589 Lighthouse Rd, Digby, NS B0V 1A0", "city": "Digby", "phone": "+1 902-247-2139", "website": "https://www.facebook.com/OceansideChiropracticClinic/", "rating": 3.0, "reviews": 2, "place_id": "ChIJ_WbzA24DqEwR8Y3HzTQ0T-M", "latitude": 44.656743, "longitude": -65.768494, "care_type": "Chiropractor"}, {"name": "Kentville Chiropractic", "address": "401 Main St Unit 1, Kentville, NS B4N 1K7", "city": "Kentville", "phone": "+1 902-690-2222", "website": "http://kentvillechiropractic.com/", "rating": 4.9, "reviews": 24, "place_id": "ChIJa8mMJShXWEsRf5f7KkreAl4", "latitude": 45.077573, "longitude": -64.496236, "care_type": "Chiropractor"}, {"name": "West Park Chiropractic Clinic", "address": "747 Park St, Kentville, NS B4N 3V7", "city": "Kentville", "phone": "+1 902-670-8480", "website": "http://www.westparkchiropractic.ca/", "rating": 4.8, "reviews": 15, "place_id": "ChIJwRtjTrBQWEsRxekkrTm8ALI", "latitude": 45.073172, "longitude": -64.544926, "care_type": "Chiropractor"}, {"name": "Hawthorn Clinic Inc", "address": "16 Webster Ct, Kentville, NS B4N 1H2", "city": "Kentville", "phone": "+1 902-678-4142", "website": "http://www.hawthornclinic.ca/", "rating": 4.9, "reviews": 72, "place_id": "ChIJpZD2ktdWWEsR57nrTosmb_s", "latitude": 45.0779421, "longitude": -64.4930871, "care_type": "Chiropractor"}, {"name": "Dr. Daniel Marczak, Chiropractor", "address": "401 Main St B, Kentville, NS B4N 2E2", "city": "Kentville", "phone": "+1 902-690-2222", "website": "http://kentvillechiropractic.com/", "rating": 5.0, "reviews": 2, "place_id": "ChIJf-OvPioiWksRkUVfNVTRaPc", "latitude": 45.0775414, "longitude": -64.4959753, "care_type": "Chiropractor"}, {"name": "Restore Health and Sport", "address": "8934 Commercial St, New Minas, NS B4N 3C9", "city": "New Minas", "phone": "+1 902-681-0068", "website": "http://www.restorehealthandsport.com/", "rating": 5.0, "reviews": 44, "place_id": "ChIJ5XBrn_RXWEsR5u6X4gRaIyQ", "latitude": 45.06773039999999, "longitude": -64.4632713, "care_type": "Chiropractor"}, {"name": "Coldbrook Chiropractic", "address": "7165 Nova Scotia Trunk 1, Coldbrook, NS B4R 1A2", "city": "Coldbrook", "phone": "+1 902-599-4694", "website": "http://www.coldbrookchiropractic.com/", "rating": 5.0, "reviews": 9, "place_id": "ChIJB4pnsjhbWEsRK5JjidkJgIg", "latitude": 45.0679104, "longitude": -64.5679722, "care_type": "Chiropractor"}, {"name": "Eaton Leslie J Dr", "address": "252 Park St, Kentville, NS B4N 1M8", "city": "Kentville", "phone": "+1 902-678-4524", "website": "", "rating": null, "reviews": 0, "place_id": "ChIJOe0HBjNXWEsRV3RYavlUOP8", "latitude": 45.07618, "longitude": -64.517916, "care_type": "Chiropractor"}, {"name": "Joint Effort Health Inc", "address": "74 Stellarton Rd, New Glasgow, NS B2H 1L8", "city": "New Glasgow", "phone": "+1 902-928-5344", "website": "", "rating": 5.0, "reviews": 5, "place_id": "ChIJxxhcuLEeXEsROF-TtEaU15g", "latitude": 45.5888347, "longitude": -62.6499782, "care_type": "Chiropractor"}, {"name": "Associate Chiropractic Centre", "address": "64 Dufferin St, Bridgewater, NS B4V 2G3", "city": "Bridgewater", "phone": "+1 902-543-2131", "website": "http://www.bridgewaterchiropractor.com/", "rating": 4.5, "reviews": 2, "place_id": "ChIJ27vL59xnV0sR4GBvjvWLOo8", "latitude": 44.374358, "longitude": -64.5188907, "care_type": "Chiropractor"}, {"name": "Align Chiropractic & Wellness", "address": "109 Logan Rd Unit 2, Bridgewater, NS B4V 2G7", "city": "Bridgewater", "phone": "+1 902-530-9355", "website": "http://www.alignbridgewater.com/", "rating": 5.0, "reviews": 12, "place_id": "ChIJ203cjuNnV0sRREN6mQ9MjzE", "latitude": 44.3895231, "longitude": -64.5385617, "care_type": "Chiropractor"}, {"name": "Bridgewater Chiropractic Services", "address": "166 North St, Bridgewater, NS B4V 3S9", "city": "Bridgewater", "phone": "+1 902-543-1660", "website": "", "rating": 3.7, "reviews": 6, "place_id": "ChIJ66REi7hnV0sRLXktXMdqX9g", "latitude": 44.3885169, "longitude": -64.52015949999999, "care_type": "Chiropractor"}, {"name": "East Coast Chiropractic and Rehabilitation", "address": "446 York St, Bridgewater, NS B4V 0B4", "city": "Bridgewater", "phone": "+1 902-212-1173", "website": "https://www.eastcoastchiropracticandrehabilitation.com/", "rating": null, "reviews": 0, "place_id": "ChIJWQpSKpdnV0sRi9u7TmJPJPw", "latitude": 44.3844438, "longitude": -64.53549389999999, "care_type": "Chiropractor"}, {"name": "LaHave River Chiropractic &Health Centre", "address": "186 North St, Bridgewater, NS B4V 2V6", "city": "Bridgewater", "phone": "+1 902-527-0550", "website": "https://www.lahaveriverchiro.com/include/first_appointment.htm", "rating": null, "reviews": 0, "place_id": "ChIJQ1FgPdxnV0sRdUGSrEUBxBk", "latitude": 44.38955, "longitude": -64.5209598, "care_type": "Chiropractor"}, {"name": "Dr. Ian Culbert", "address": "64 Dufferin St, Bridgewater, NS B4V 2G3", "city": "Bridgewater", "phone": "+1 902-543-2131", "website": "http://bridgewaterchiropractor.com/dr-ian-culbert/", "rating": 5.0, "reviews": 3, "place_id": "ChIJL7d2GcNnV0sRnsPywN-dmek", "latitude": 44.3743645, "longitude": -64.51898299999999, "care_type": "Chiropractor"}, {"name": "902 Therapy", "address": "446 York St, Bridgewater, NS B4V 0B4", "city": "Bridgewater", "phone": "+1 902-212-1173", "website": "https://www.902athletics.ca/902therapy", "rating": 5.0, "reviews": 117, "place_id": "ChIJJUJ9r_dnV0sRM6BcCqcg82o", "latitude": 44.3844438, "longitude": -64.53549389999999, "care_type": "Chiropractor"}, {"name": "Laurel Cowie DC", "address": "Bridgewater, NS B4V 2V6", "city": "Bridgewater", "phone": "+1 902-527-0550", "website": "https://www.lahaveriverchiro.com/include/health_centre_team.htm", "rating": null, "reviews": 0, "place_id": "ChIJYcue5dxnV0sRGtRqIcy4x6w", "latitude": 44.389141, "longitude": -64.521051, "care_type": "Chiropractor"}, {"name": "Nurture Health And Lifestyle Centre", "address": "64 Dufferin St, Bridgewater, NS B4V 2G3", "city": "Bridgewater", "phone": "", "website": "", "rating": 3.7, "reviews": 3, "place_id": "ChIJAQCwF8NnV0sRYXc6khUezbA", "latitude": 44.3743, "longitude": -64.51886, "care_type": "Chiropractor"}, {"name": "Attune Chiropractic Centre", "address": "4 Robert Angus Dr, Amherst, NS B4H 3Z2", "city": "Amherst", "phone": "+1 902-667-1236", "website": "http://www.attunechiropractic.ca/", "rating": 5.0, "reviews": 4, "place_id": "ChIJPcV8qUJJX0sRCo7dzifZmeI", "latitude": 45.8138608, "longitude": -64.2010695, "care_type": "Chiropractor"}, {"name": "Robichaud Chiropractic Office", "address": "165 Victoria St E, Amherst, NS B4H 1Y4", "city": "Amherst", "phone": "+1 902-667-9734", "website": "http://www.amherstchiropractic.ca/", "rating": 5.0, "reviews": 1, "place_id": "ChIJWVHt3yxJX0sRAeeOJrC7TvM", "latitude": 45.8371207, "longitude": -64.2082497, "care_type": "Chiropractor"}, {"name": "Amherst Chiropractic", "address": "165 Victoria St E, Amherst, NS B4H 1Y4", "city": "Amherst", "phone": "+1 902-660-9355", "website": "http://www.amherstchiropractic.ca/", "rating": 3.0, "reviews": 2, "place_id": "ChIJ8d3hrTJJX0sRTOpEvVFIQyI", "latitude": 45.837064, "longitude": -64.2081789, "care_type": "Chiropractor"}, {"name": "Liverpool Chiropractic & Massage Therapy", "address": "22 Market St, Liverpool, NS B0T 1K0", "city": "Liverpool", "phone": "+1 902-354-3644", "website": "", "rating": 5.0, "reviews": 5, "place_id": "ChIJ8alSZL8jV0sRrE6Q0hxIhVM", "latitude": 44.0395944, "longitude": -64.7149897, "care_type": "Chiropractor"}, {"name": "Pier One Chiropractic & Massage", "address": "101 Water Street, Floor 3B, unit 8 Lobby, Yarmouth, NS B5A 1E9", "city": "Yarmouth", "phone": "+1 902-742-4242", "website": "", "rating": 4.8, "reviews": 4, "place_id": "ChIJg8GPuqoRVksRsT8Lw36m5ow", "latitude": 43.837316, "longitude": -66.121098, "care_type": "Chiropractor"}, {"name": "Dr. Luke Boudreau Chiropractor", "address": "101 Water St Suite 1B, Yarmouth, NS B5A 1E9", "city": "Yarmouth", "phone": "+1 902-881-2226", "website": "http://yarmouthchiropractor.ca/", "rating": 5.0, "reviews": 10, "place_id": "ChIJXWDbWjwRVksRy5KTwGG3A3o", "latitude": 43.83731239999999, "longitude": -66.1211687, "care_type": "Chiropractor"}, {"name": "Yarmouth Chiropractic Ctr", "address": "615 Main St, Yarmouth, NS B5A 1K1", "city": "Yarmouth", "phone": "+1 902-749-0699", "website": "", "rating": 3.0, "reviews": 4, "place_id": "ChIJe8smLeIQVksRFK7Xm0tp2mA", "latitude": 43.8506223, "longitude": -66.11406389999999, "care_type": "Chiropractor"}, {"name": "Alliance Chiropractic Services", "address": "615 Main St Unit 211, Yarmouth, NS B5A 1K1", "city": "Yarmouth", "phone": "+1 902-749-0699", "website": "", "rating": null, "reviews": 0, "place_id": "ChIJ2VWwc-wRVksRK48CPQ3rRvo", "latitude": 43.850713, "longitude": -66.11451, "care_type": "Chiropractor"}, {"name": "Eastern Chiropractic Centre", "address": "646 Main St, Glace Bay, NS B1A 2P8", "city": "Glace Bay", "phone": "+1 902-577-4235", "website": "http://easternchiropractic.janeapp.com/", "rating": 5.0, "reviews": 14, "place_id": "ChIJ9UkEd8XhZ0sR13DQKrJ77Z4", "latitude": 46.1971517, "longitude": -59.9588718, "care_type": "Chiropractor"}, {"name": "Glace Bay Chiropractic Clinic", "address": "139 Commercial St, Glace Bay, NS B1A 3B9", "city": "Glace Bay", "phone": "+1 902-849-0006", "website": "", "rating": null, "reviews": 0, "place_id": "ChIJ3w26S87hZ0sRB5v2j5wCg2Q", "latitude": 46.19634, "longitude": -59.956312, "care_type": "Chiropractor"}, {"name": "Cole Harbour Chiropractic & Wellness", "address": "973 Cole Harbour Rd, Dartmouth, NS B2V 1E8", "city": "Dartmouth", "phone": "+1 902-435-9355", "website": "http://www.coleharbourchiropractic.com/", "rating": 5.0, "reviews": 40, "place_id": "ChIJ_-pN_pkkWksR5QQtOCE9u1M", "latitude": 44.6719738, "longitude": -63.4938221, "care_type": "Chiropractor"}, {"name": "Dartmouth Sport + Spine", "address": "65 Queen St, Dartmouth, NS B2Y 1G4", "city": "Dartmouth", "phone": "+1 902-466-9935", "website": "http://www.dartmouthsportspine.ca/", "rating": 5.0, "reviews": 161, "place_id": "ChIJvewOSeMjWksR8ZNH6iAHKHg", "latitude": 44.6673093, "longitude": -63.5663133, "care_type": "Chiropractor"}, {"name": "Woodside Chiropractic", "address": "18 Acadia St Suite 101, Dartmouth, NS B2Y 4H3", "city": "Dartmouth", "phone": "+1 902-580-2925", "website": "http://woodsidechiropractic.ca/", "rating": 5.0, "reviews": 15, "place_id": "ChIJDfHayW0jWksRyd-t6hNdelc", "latitude": 44.6564979, "longitude": -63.545907, "care_type": "Chiropractor"}, {"name": "Symmetry Wellness Centre", "address": "71 Ilsley Ave, Dartmouth, NS B3B 1L5", "city": "Dartmouth", "phone": "+1 902-444-6555", "website": "http://www.symmetrywellnesscentre.ca/", "rating": 4.9, "reviews": 124, "place_id": "ChIJY5dT_NomWksRYWBsEeqvtec", "latitude": 44.7025792, "longitude": -63.59058, "care_type": "Chiropractor"}, {"name": "Dartmouth Low Back And Neck Pain Walk-In Chiropractic - Dr. Brent S. MacNeil, Chiropractor", "address": "657 Portland St, Dartmouth, NS B2W 2M9", "city": "Dartmouth", "phone": "+1 902-469-4772", "website": "http://www.drbrentmacneilonline.com/", "rating": 5.0, "reviews": 13, "place_id": "ChIJt1-nT4gjWksRu0TJvVG6lpE", "latitude": 44.6721389, "longitude": -63.5252609, "care_type": "Chiropractor"}, {"name": "The Disc Clinic Dartmouth", "address": "644 Portland St #12, Dartmouth, NS B2W 6A3", "city": "Dartmouth", "phone": "+1 902-463-3456", "website": "http://www.thediscclinic.com/", "rating": 4.9, "reviews": 46, "place_id": "ChIJmV5m8IgjWksR2HnVKh3F8N8", "latitude": 44.6707915, "longitude": -63.5262124, "care_type": "Chiropractor"}, {"name": "Pillars of Health", "address": "10 Portland St Unit 101, Dartmouth, NS B2Y 1G9", "city": "Dartmouth", "phone": "+1 902-444-3303", "website": "http://www.pillarsofhealth.ca/", "rating": 4.8, "reviews": 50, "place_id": "ChIJBU4P9t0jWksRXAVmnUJ-UYQ", "latitude": 44.6643276, "longitude": -63.56792369999999, "care_type": "Chiropractor"}, {"name": "The Dartmouth Wellness Collective - Acupuncture, Massage Therapy, Naturopath, BioScan", "address": "35 Baker Dr Suite 105, Dartmouth, NS B2W 6M3", "city": "Dartmouth", "phone": "+1 902-580-3282", "website": "http://dartmouthwellness.ca/", "rating": 4.9, "reviews": 46, "place_id": "ChIJUbNWgo0jWksRrL0xdKGlJWA", "latitude": 44.6684912, "longitude": -63.5310048, "care_type": "Chiropractor"}, {"name": "Helson Chiropractic Health Centre", "address": "8 Portland Hills Dr, Dartmouth, NS B2W 6A1", "city": "Dartmouth", "phone": "+1 902-434-8816", "website": "http://www.sportschiropractic.ca/", "rating": 5.0, "reviews": 4, "place_id": "ChIJv4f1O4IjWksREObifLM5FMk", "latitude": 44.6655864, "longitude": -63.51561969999999, "care_type": "Chiropractor"}, {"name": "PROactive Health & Performance Centre", "address": "26 Akerley Blvd, Dartmouth, NS B3B 0K4", "city": "Dartmouth", "phone": "+1 902-468-0832", "website": "http://www.proactiveperformance.ca/", "rating": 4.7, "reviews": 48, "place_id": "ChIJ7z_R5iAnWksREBstIIiMkWY", "latitude": 44.7083799, "longitude": -63.6062564, "care_type": "Chiropractor"}, {"name": "Natural Path Wellness", "address": "33 Ochterloney St Suite 255, Dartmouth, NS B2Y 4P5", "city": "Dartmouth", "phone": "+1 902-463-9351", "website": "http://www.naturalpathwellness.ca/", "rating": 4.7, "reviews": 63, "place_id": "ChIJ-YA2U44jWksRg1gLpQwTRnc", "latitude": 44.6663232, "longitude": -63.5691918, "care_type": "Chiropractor"}, {"name": "Cole Harbour Integrated Health Services - pt Health", "address": "51 Forest Hills Pkwy, Dartmouth, NS B2W 6C6", "city": "Dartmouth", "phone": "+1 902-435-3391", "website": "https://www.pthealth.ca/clinic/cole-harbour-integrated-health-services-pt-health/%3Futm_source%3Dgmb%26utm_medium%3Dorganic", "rating": 4.8, "reviews": 109, "place_id": "ChIJyb3gZpckWksRuTPCjlwTG4w", "latitude": 44.6839292, "longitude": -63.4901019, "care_type": "Chiropractor"}, {"name": "Dr. Liam Ryan, DC", "address": "65 Queen St, Dartmouth, NS B2Y 1G4", "city": "Dartmouth", "phone": "+1 902-466-9935", "website": "http://www.dartmouthsportspine.ca/", "rating": 5.0, "reviews": 18, "place_id": "ChIJezoRlLMnWksR9gz0MetKyNw", "latitude": 44.6673093, "longitude": -63.5663133, "care_type": "Chiropractor"}, {"name": "Dr. Denise Wright, DC", "address": "10 Portland St Unit 101, Dartmouth, NS B2Y 1G9", "city": "Dartmouth", "phone": "+1 902-444-3303", "website": "http://www.pillarsofhealth.ca/", "rating": 5.0, "reviews": 2, "place_id": "ChIJd0wL9t0jWksRKuIZ6Y47lEk", "latitude": 44.6643252, "longitude": -63.5679502, "care_type": "Chiropractor"}, {"name": "Intrinsic Therapy | Dartmouth, Nova Scotia", "address": "155 Ochterloney St 2nd floor, Dartmouth, NS B2Y 1C9", "city": "Dartmouth", "phone": "+1 902-464-2225", "website": "", "rating": 5.0, "reviews": 4, "place_id": "ChIJvQDFH4AkWksRGnBWBCgHUcc", "latitude": 44.67007359999999, "longitude": -63.5649599, "care_type": "Chiropractor"}, {"name": "Sore Spots Massage Therapy Dartmouth", "address": "Lobby Level, Metropolitan Place, 99 Wyse Rd Suite 105, Dartmouth, NS B3A 4S5", "city": "Dartmouth", "phone": "+1 902-492-6439", "website": "http://sorespots.com/", "rating": 4.9, "reviews": 383, "place_id": "ChIJHWVR4zMhWksR4ZI6eLqjWyE", "latitude": 44.6689502, "longitude": -63.5760939, "care_type": "Chiropractor"}, {"name": "Dr. Emily Wiggin", "address": "155 Ochterloney St 2nd floor, Dartmouth, NS B2Y 1C9", "city": "Dartmouth", "phone": "+1 902-464-2225", "website": "http://dremilywiggin.com/", "rating": 5.0, "reviews": 1, "place_id": "ChIJVVWFk-MjWksR64I4Gsfjc6Y", "latitude": 44.67007359999999, "longitude": -63.5649599, "care_type": "Chiropractor"}, {"name": "ACCEL Health and Sport Performance Centre", "address": "137 Venture Run Suite 101, Dartmouth, NS B3B 0L9", "city": "Dartmouth", "phone": "+1 902-446-4004", "website": "https://accelhealth.ca/", "rating": 4.9, "reviews": 45, "place_id": "ChIJd-wvZ9wmWksRFGowGQIBIDw", "latitude": 44.7050325, "longitude": -63.5885743, "care_type": "Chiropractor"}, {"name": "The Pelvic Health Clinic by Erika Burger Physiotherapy", "address": "1106 Cole Harbour Rd, Dartmouth, NS B2V 1E7", "city": "Dartmouth", "phone": "+1 902-229-8979", "website": "http://www.thepelvichealthclinic.ca/", "rating": 4.9, "reviews": 35, "place_id": "ChIJEUCBN1kjWksRRXLZnIlW2IA", "latitude": 44.6719185, "longitude": -63.4861351, "care_type": "Chiropractor"}, {"name": "Citadel Physiotherapy", "address": "250 Baker Dr, Dartmouth, NS B2W 6L4", "city": "Dartmouth", "phone": "+1 902-407-8733", "website": "https://www.citadelphysio.com/", "rating": 5.0, "reviews": 111, "place_id": "ChIJ_2Qv55gjWksRDezWx8grO3s", "latitude": 44.6573645, "longitude": -63.531003, "care_type": "Chiropractor"}, {"name": "Dr. Geoffrey Hebb, DC", "address": "201 Brownlow Ave, Dartmouth, NS B3B 1T5", "city": "Dartmouth", "phone": "", "website": "", "rating": 5.0, "reviews": 1, "place_id": "ChIJj6JSE6QnWksRxuEUWi8OzlQ", "latitude": 44.6997985, "longitude": -63.58067, "care_type": "Chiropractor"}, {"name": "Nova Physiotherapy - Dartmouth", "address": "201 Brownlow Ave #19, Dartmouth, NS B3B 1W2", "city": "Dartmouth", "phone": "+1 902-405-4545", "website": "https://novaphysiotherapy.ca/location/physiotherapy-center-dartmouth-ns/", "rating": 5.0, "reviews": 64, "place_id": "ChIJmd3fgAWKWUsREIRbJ_4DQtY", "latitude": 44.6983741, "longitude": -63.5800414, "care_type": "Chiropractor"}, {"name": "PROTx Portland Hills", "address": "Parkton Wellness Centre, 842 Portland St Suite 102, Dartmouth, NS B2W 0N2", "city": "Dartmouth", "phone": "+1 902-334-2300", "website": "https://protxservices.ca/", "rating": 5.0, "reviews": 228, "place_id": "ChIJXdawJFElWksRVP91sraIXhk", "latitude": 44.6705255, "longitude": -63.5089741, "care_type": "Chiropractor"}, {"name": "Russell Lake Physiotherapy Dartmouth - pt Health", "address": "240 Baker Dr, Dartmouth, NS B2W 6L4", "city": "Dartmouth", "phone": "+1 902-466-9014", "website": "https://www.pthealth.ca/clinic/russell-lake-physiotherapy-dartmouth-pt-health/%3Futm_source%3Dgmb%26utm_medium%3Dorganic", "rating": 4.8, "reviews": 86, "place_id": "ChIJsw9mjpojWksRT2aTEWTH3jg", "latitude": 44.6566063, "longitude": -63.5294219, "care_type": "Chiropractor"}, {"name": "Coastal Sports & Wellness - Bedford", "address": "15 Dartmouth Rd #200, Bedford, NS B4A 3X6", "city": "Bedford", "phone": "+1 902-404-8034", "website": "https://coastalsportsandwellness.com/", "rating": 5.0, "reviews": 269, "place_id": "ChIJYZ9xTsSJWUsReeuehgMmSXE", "latitude": 44.7294896, "longitude": -63.6554151, "care_type": "Chiropractor"}, {"name": "Fall River Collaborative Health Care (Formerly Fall River Chiropractic)", "address": "fall river sobey's plaza, 3290 NS-2, Fall River, NS B2T 1J2", "city": "Fall River", "phone": "+1 902-861-2511", "website": "http://www.fallriverhealth.ca/", "rating": 4.9, "reviews": 82, "place_id": "ChIJTdiYu6eHWUsR8Abu3ZYud5U", "latitude": 44.817768, "longitude": -63.61036799999999, "care_type": "Chiropractor"}, {"name": "Thrive Family Chiropractic", "address": "579 Sackville Dr, Lower Sackville, NS B4C 2S4", "city": "Lower Sackville", "phone": "+1 902-865-9335", "website": "https://mythrivechiro.ca/", "rating": 4.9, "reviews": 76, "place_id": "ChIJzziBfGIgWksRwBZlbjKXYjc", "latitude": 44.7682464, "longitude": -63.6848221, "care_type": "Chiropractor"}, {"name": "Evolve Integrated Health", "address": "3667 Strawberry Hill St, Halifax, NS B3K 5A8", "city": "Halifax", "phone": "+1 902-707-5429", "website": "http://www.evolveintegratedhealth.com/", "rating": 5.0, "reviews": 459, "place_id": "ChIJkZKSm64hWksR0MOxroF4dVY", "latitude": 44.6621817, "longitude": -63.61945309999999, "care_type": "Chiropractor"}, {"name": "Bee Well Integrated Health Centre (IHC)", "address": "57 Duke St, Bedford, NS B4A 2Z2", "city": "Bedford", "phone": "+1 902-407-3400", "website": "https://beewellihc.com/", "rating": 5.0, "reviews": 67, "place_id": "ChIJS5qscS6IWUsRGVjQffUrshA", "latitude": 44.74822109999999, "longitude": -63.636559, "care_type": "Chiropractor"}, {"name": "Back to Health Chiropractic", "address": "271 Sackville Dr, Lower Sackville, NS B4C 2R5", "city": "Lower Sackville", "phone": "+1 902-865-8500", "website": "https://www.backtohealthchiropractic.ca/%3Futm_source%3DGBP%26utm_medium%3Dorganic", "rating": 4.8, "reviews": 119, "place_id": "ChIJs4e74veIWUsRxXXv4VUjTcU", "latitude": 44.7603876, "longitude": -63.6712578, "care_type": "Chiropractor"}, {"name": "Strada Health and Fitness", "address": "1239 Bedford Hwy, Bedford, NS B4A 1C5", "city": "Bedford", "phone": "+1 902-444-1990", "website": "https://www.stradahealth.com/", "rating": 4.9, "reviews": 74, "place_id": "ChIJ9-9UaPiJWUsRq0JEaCiseek", "latitude": 44.7242502, "longitude": -63.6692647, "care_type": "Chiropractor"}, {"name": "Sackville Chiropractic Clinic", "address": "12-294 Cobequid Rd, Lower Sackville, NS B4C 4C5", "city": "Lower Sackville", "phone": "+1 902-865-6593", "website": "http://www.sackvillechiropractic.ca/", "rating": 4.8, "reviews": 98, "place_id": "ChIJAV5LOFeIWUsRcpmNZZ_Zn6g", "latitude": 44.7612285, "longitude": -63.6555656, "care_type": "Chiropractor"}, {"name": "Peak Energy Chiropractic", "address": "50 Majesty Ct, Hammonds Plains, NS B4B 0A7", "city": "Hammonds Plains", "phone": "+1 902-446-8100", "website": "http://www.peakenergychiro.ca/", "rating": 5.0, "reviews": 78, "place_id": "ChIJR5t8OeCLWUsR6A_uYUWSwBY", "latitude": 44.7270485, "longitude": -63.73879969999999, "care_type": "Chiropractor"}, {"name": "Mike Cochran DC", "address": "164 Ochterloney St, Dartmouth, NS B2Y 1E1", "city": "Dartmouth", "phone": "+1 902-464-2225", "website": "", "rating": null, "reviews": 0, "place_id": "ChIJ_2hrheMjWksRxIV4LbODGqs", "latitude": 44.67022559999999, "longitude": -63.56391869999999, "care_type": "Chiropractor"}, {"name": "Dr. Tanya M. Wood, Chiropractor", "address": "172 B Lincoln St, Lunenburg, NS B0J 2C0", "city": "Lunenburg", "phone": "+1 902-640-3100", "website": "", "rating": null, "reviews": 0, "place_id": "ChIJH1RdK8FbV0sRfi36s8qGEeQ", "latitude": 44.3775089, "longitude": -64.3124349, "care_type": "Chiropractor"}, {"name": "Regional Chiropractic", "address": "1489 George St, Sydney, NS B1P 1P2", "city": "Sydney", "phone": "+1 902-539-6400", "website": "", "rating": 4.8, "reviews": 47, "place_id": "ChIJOwaCN2D7Z0sRZxwxHdCVZWg", "latitude": 46.1170441, "longitude": -60.1698278, "care_type": "Chiropractor"}, {"name": "Sydney Chiropractic & Laser Centre", "address": "254 Kings Rd, Sydney, NS B1S 1A6", "city": "Sydney", "phone": "+1 902-562-1407", "website": "https://www.sydneychiropractic.ca/", "rating": 5.0, "reviews": 21, "place_id": "ChIJBxw9ihX7Z0sRFmWvHPmCh0E", "latitude": 46.12704979999999, "longitude": -60.1973502, "care_type": "Chiropractor"}, {"name": "Mollon Chiropractic", "address": "1154 Kings Rd, Sydney, NS B1S 1C9", "city": "Sydney", "phone": "+1 902-567-1221", "website": "http://www.mollonchiro.com/", "rating": 5.0, "reviews": 4, "place_id": "ChIJ494LpRX7Z0sRbo9sDCIdGEI", "latitude": 46.1103982, "longitude": -60.22172399999999, "care_type": "Chiropractor"}, {"name": "Dr. Roger Morrison, DC Chiropractor", "address": "258B Prince St, Sydney, NS B1P 5K6", "city": "Sydney", "phone": "+1 902-564-1400", "website": "https://www.lifemark.ca/therapists/roger/morrison/3134597", "rating": 5.0, "reviews": 1, "place_id": "ChIJqWIfOGD7Z0sRuulBFwo9x8w", "latitude": 46.1379707, "longitude": -60.186027, "care_type": "Chiropractor"}, {"name": "Arnold Chiropractic", "address": "58 Dorchester St, Sydney, NS B1P 5Z1", "city": "Sydney", "phone": "+1 902-567-3341", "website": "", "rating": 5.0, "reviews": 7, "place_id": "ChIJ2Q0edjj7Z0sR_pFP1npsuHE", "latitude": 46.141067, "longitude": -60.194753, "care_type": "Chiropractor"}, {"name": "Coastal Chiropractic", "address": "325 Main St Unit 108, Antigonish, NS B2G 2C3", "city": "Antigonish", "phone": "+1 902-867-1888", "website": "https://www.coastalchiropractic.ca/", "rating": 5.0, "reviews": 8, "place_id": "ChIJ26d2A6xFXEsRIxYHeHYkYko", "latitude": 45.6220363, "longitude": -61.99389439999999, "care_type": "Chiropractor"}, {"name": "Antigonish Chiropractic", "address": "219 Main St Suite 206, Antigonish, NS B2G 2C1", "city": "Antigonish", "phone": "+1 902-735-3113", "website": "https://antigonishchiropractic.com/", "rating": 5.0, "reviews": 2, "place_id": "ChIJx4AlkRFFXEsR6V4pTIiIPW8", "latitude": 45.6224462, "longitude": -61.98942659999999, "care_type": "Chiropractor"}, {"name": "Restore Motion Chiropractic", "address": "23 Sawhorse Ln, Antigonish, NS B2G 2L2", "city": "Antigonish", "phone": "+1 902-863-9425", "website": "https://restoremotion.ca/", "rating": 5.0, "reviews": 44, "place_id": "ChIJR0e-xYNFXEsRJBNPN9Z1A8o", "latitude": 45.6356021, "longitude": -61.95775, "care_type": "Chiropractor"}, {"name": "Highland Chiropractic Clinic", "address": "59 Beech Hill Rd Unit#4, Antigonish, NS B2G 2P9", "city": "Antigonish", "phone": "+1 902-735-3500", "website": "", "rating": 5.0, "reviews": 8, "place_id": "ChIJBwXJI9-jW0sRkx8xu8AufrE", "latitude": 45.6149253, "longitude": -61.9702644, "care_type": "Chiropractor"}, {"name": "Truro Chiropractic Clinic Inc.", "address": "18 Duke St, Truro, NS B2N 2A1", "city": "Truro", "phone": "+1 902-895-4334", "website": "http://www.trurochiro.ca/", "rating": 5.0, "reviews": 9, "place_id": "ChIJ_bAgFcZPWUsRcEMmNgy5r5E", "latitude": 45.36350119999999, "longitude": -63.2866338, "care_type": "Chiropractor"}, {"name": "Well Within Chiropractic", "address": "68 Robie St, Truro, NS B2N 3A7", "city": "Truro", "phone": "+1 902-843-3445", "website": "https://www.wellwithinchiropractic.net/%3FUTM_source%3DGBL", "rating": 4.5, "reviews": 26, "place_id": "ChIJtYNrmKZPWUsRXK5qlRgo-m0", "latitude": 45.36662889999999, "longitude": -63.3137383, "care_type": "Chiropractor"}, {"name": "Carter Chiropractic Clinic", "address": "73 Dominion St, Truro, NS B2N 3P2", "city": "Truro", "phone": "+1 902-893-7477", "website": "https://www.carterchiropractic.ca/", "rating": 4.6, "reviews": 9, "place_id": "ChIJo_B-wMVPWUsRcdpfFzS4vfo", "latitude": 45.3626885, "longitude": -63.2835635, "care_type": "Chiropractor"}, {"name": "Capture Therapeutics", "address": "1 Commercial St Unit 104, Truro, NS B2N 2A7", "city": "Truro", "phone": "+1 902-843-9681", "website": "http://www.capturetherapeutics.com/", "rating": 4.8, "reviews": 67, "place_id": "ChIJv98FlwpPWUsRxLMU8HoL1Lc", "latitude": 45.3667569, "longitude": -63.286331, "care_type": "Chiropractor"}, {"name": "Legge Health Clinic", "address": "692 Prince St, Truro, NS B2N 1G6", "city": "Truro", "phone": "+1 902-843-7475", "website": "http://leggehealth.ca/", "rating": 4.4, "reviews": 21, "place_id": "ChIJWcVCEM9PWUsRT_fQQuCYZfc", "latitude": 45.3647709, "longitude": -63.2806456, "care_type": "Chiropractor"}, {"name": "Gillam Chiropractic Clinic", "address": "36 Harris Ave, Truro, NS B2N 3N2", "city": "Truro", "phone": "+1 902-895-8881", "website": "", "rating": 5.0, "reviews": 2, "place_id": "ChIJt3wC0OZPWUsRI2UyW4Ky9sI", "latitude": 45.350491, "longitude": -63.2827716, "care_type": "Chiropractor"}]