[{"name": "Loveland Chiropractic Office, inc", "address": "215 Loveland Madeira Rd, Loveland, OH 45140", "city": "Loveland", "phone": "+1 513-683-1052", "website": "http://www.lovelandchiro.com/", "rating": 5.0, "reviews": 183, "place_id": "ChIJoawI56v4QIgREjMoKlmb7IY", "latitude": 39.2671066, "longitude": -84.2656751, "care_type": "Chiropractor"}, {"name": "Englewood Chiropractic", "address": "12 W Wenger Rd #6, Englewood, OH 45322", "city": "Englewood", "phone": "+1 937-836-1288", "website": "https://www.englewoodchiropractic.org/", "rating": 4.9, "reviews": 344, "place_id": "ChIJ2wMEAz6AP4gRkUE9rJMOLJw", "latitude": 39.8615493, "longitude": -84.2862396, "care_type": "Chiropractor"}, {"name": "Anderson Hills Chiropractic", "address": "7758 Beechmont Ave, Anderson Township, OH 45255", "city": "Anderson Township", "phone": "+1 513-232-5999", "website": "https://www.andersonhillschiro.com/", "rating": 4.7, "reviews": 71, "place_id": "ChIJsa093I-uQYgRHQcgGZUbxdc", "latitude": 39.0731748, "longitude": -84.34273209999999, "care_type": "Chiropractor"}, {"name": "Anderson Township Chiropractors", "address": "8276 Beechmont Ave, Cincinnati, OH 45255", "city": "Cincinnati", "phone": "+1 513-474-7378", "website": "http://andersontownshipchiro.com/", "rating": 5.0, "reviews": 3, "place_id": "ChIJI4kR44OpQYgRI-YHQYNu9rI", "latitude": 39.0736711, "longitude": -84.3250264, "care_type": "Chiropractor"}, {"name": "Anderson Chiropractic & Massage", "address": "4044 McLean Dr, Cincinnati, OH 45255", "city": "Cincinnati", "phone": "+1 513-752-5390", "website": "http://www.andersonchiroandmassage.biz/", "rating": 4.9, "reviews": 77, "place_id": "ChIJhdjGqKapQYgR1U_ovpXBUtI", "latitude": 39.0722099, "longitude": -84.30734509999999, "care_type": "Chiropractor"}, {"name": "Ohio Family and Sports Chiropractic", "address": "142 E Main St, New Albany, OH 43054", "city": "New Albany", "phone": "+1 614-855-6999", "website": "http://www.ohio-chiropractic.com/", "rating": 4.9, "reviews": 52, "place_id": "ChIJO0Z7y1BnOIgRQARKb7YFaVQ", "latitude": 40.083537, "longitude": -82.8058506, "care_type": "Chiropractor"}, {"name": "Rebel Chiropractic", "address": "1222 Pray Blvd, Waterville, OH 43566", "city": "Waterville", "phone": "+1 419-878-8142", "website": "http://www.rebelchiropractic.com/", "rating": 4.9, "reviews": 577, "place_id": "ChIJR2WDGfZxPIgRoL1Ha3_QzUw", "latitude": 41.5109489, "longitude": -83.7473436, "care_type": "Chiropractor"}, {"name": "Ohio Sport & Spine", "address": "210 E Spring Valley Pike Suite D, Dayton, OH 45458", "city": "Dayton", "phone": "+1 937-404-2189", "website": "http://www.ohiosportspine.com/", "rating": 5.0, "reviews": 60, "place_id": "ChIJSepm5SiJQIgRJbNNHOf_CMU", "latitude": 39.61234899999999, "longitude": -84.15678899999999, "care_type": "Chiropractor"}, {"name": "Preferred Chiropractic", "address": "2601 Needmore Rd, Dayton, OH 45414", "city": "Dayton", "phone": "+1 937-277-7246", "website": "http://www.daytonchiropractic.com/", "rating": 4.9, "reviews": 53, "place_id": "ChIJd6czcx6CQIgRSFFpp9nJwNU", "latitude": 39.8202395, "longitude": -84.1837534, "care_type": "Chiropractor"}, {"name": "Poelking Chiropractic", "address": "2660 Woodman Center Ct, Dayton, OH 45420", "city": "Dayton", "phone": "+1 937-299-2900", "website": "https://www.poelkingchiro.com/", "rating": 4.8, "reviews": 176, "place_id": "ChIJTwMHOx-FQIgRQ4Wh-pQ2zqU", "latitude": 39.7052075, "longitude": -84.1237117, "care_type": "Chiropractor"}, {"name": "Patrick M. Prikkel, DC", "address": "2301 Far Hills Ave, Dayton, OH 45419", "city": "Dayton", "phone": "+1 937-293-3052", "website": "http://www.drprikkel.com/", "rating": 5.0, "reviews": 15, "place_id": "ChIJA9Gz6cyFQIgRGj3uOLm0gyY", "latitude": 39.7105389, "longitude": -84.1715595, "care_type": "Chiropractor"}, {"name": "The Chiropractic Health and Wellness Center", "address": "2301 Far Hills Ave, Dayton, OH 45419", "city": "Dayton", "phone": "+1 937-293-3052", "website": "http://www.drprikkel.com/", "rating": 4.8, "reviews": 32, "place_id": "ChIJA9Gz6cyFQIgRVvzX4XN3MMQ", "latitude": 39.7105389, "longitude": -84.1715595, "care_type": "Chiropractor"}, {"name": "Dr. Jill Bryson, DC", "address": "2601 Needmore Rd, Dayton, OH 45414", "city": "Dayton", "phone": "+1 937-277-7246", "website": "http://www.daytonchiropractic.com/", "rating": 5.0, "reviews": 7, "place_id": "ChIJqeVOdVyDQIgRPMpjIKtxvOE", "latitude": 39.8202395, "longitude": -84.1837534, "care_type": "Chiropractor"}, {"name": "Dixie Chiropractic- Dayton", "address": "2669 S Dixie Dr, Dayton, OH 45409", "city": "Dayton", "phone": "+1 937-643-0893", "website": "http://www.tier1chiropractic.com/", "rating": 4.7, "reviews": 88, "place_id": "ChIJL8UX0ImGQIgRG6PH2u9Pchg", "latitude": 39.7140143, "longitude": -84.19979819999999, "care_type": "Chiropractor"}, {"name": "Holten Wellness Center", "address": "7626 Paragon Rd, Dayton, OH 45459", "city": "Dayton", "phone": "+1 937-435-8480", "website": "https://www.holtenwellness.com/", "rating": 5.0, "reviews": 288, "place_id": "ChIJQdOl5SiPQIgR4XRJEQbqdEM", "latitude": 39.6320408, "longitude": -84.1787353, "care_type": "Chiropractor"}, {"name": "Loechinger Chiropractic Clinic", "address": "180-A E Spring Valley Pike, Dayton, OH 45458", "city": "Dayton", "phone": "+1 937-434-8700", "website": "https://www.drloechinger.com/", "rating": 4.8, "reviews": 5, "place_id": "ChIJL3t0W9aIQIgR1bQXn9z0FvA", "latitude": 39.6127109, "longitude": -84.1572118, "care_type": "Chiropractor"}, {"name": "Dr. Richard Loechinger", "address": "A, Duplicate of 180, 180 E Spring Valley Pike, Dayton, OH 45458", "city": "Dayton", "phone": "+1 937-434-8700", "website": "http://www.drloechinger.com/", "rating": 5.0, "reviews": 6, "place_id": "ChIJL3t0W9aIQIgRmkXcUw5Qxgw", "latitude": 39.6124783, "longitude": -84.15782999999999, "care_type": "Chiropractor"}, {"name": "The Winchester Institute of Chiropractic Health and Wellness", "address": "6425 Post Rd #101, Dublin, OH 43016", "city": "Dublin", "phone": "+1 614-760-5555", "website": "https://www.thewinchesterinstitute.com/", "rating": 4.9, "reviews": 824, "place_id": "ChIJH06NSEqTOIgRfyfbXPLudcY", "latitude": 40.106339, "longitude": -83.163646, "care_type": "Chiropractor"}, {"name": "Dana Winchester, DC", "address": "6425 Post Rd #101, Dublin, OH 43016", "city": "Dublin", "phone": "+1 614-760-5555", "website": "https://www.thewinchesterinstitute.com/chiropractor-dublin-ohio/dr-winchester", "rating": 4.7, "reviews": 12, "place_id": "ChIJH06NSEqTOIgRuj2CcrFH4XI", "latitude": 40.106345, "longitude": -83.163645, "care_type": "Chiropractor"}, {"name": "Kettering Chiropractic Center", "address": "3817 Wilmington Pike, Kettering, OH 45429", "city": "Kettering", "phone": "+1 937-303-4602", "website": "http://ketteringchiropractic.com/", "rating": 5.0, "reviews": 16, "place_id": "ChIJB_61Gw2FQIgRv1SJC-UVCL0", "latitude": 39.6911779, "longitude": -84.135116, "care_type": "Chiropractor"}, {"name": "Stull Chiropractic Center", "address": "2200 Woodman Dr, Kettering, OH 45420", "city": "Kettering", "phone": "+1 937-259-8850", "website": "http://www.stullchiropracticcenter.com/", "rating": 5.0, "reviews": 293, "place_id": "ChIJ7Xe_bgiFQIgRK4b6PWhriO0", "latitude": 39.7150626, "longitude": -84.1236922, "care_type": "Chiropractor"}, {"name": "Wilmington Pike Chiropractic", "address": "4770 Wilmington Pike, Kettering, OH 45440", "city": "Kettering", "phone": "+1 937-433-5154", "website": "http://www.wilmingtonpikechiropractic.com/", "rating": 4.9, "reviews": 95, "place_id": "ChIJY003yVuFQIgRMUCrCT6CEro", "latitude": 39.674036, "longitude": -84.1150098, "care_type": "Chiropractor"}, {"name": "Zimmer Chiropractic", "address": "2436 E Dorothy Ln, Kettering, OH 45420", "city": "Kettering", "phone": "+1 937-294-1484", "website": "", "rating": 4.8, "reviews": 41, "place_id": "ChIJVzgSViKFQIgRtxDT6Y130fw", "latitude": 39.701312, "longitude": -84.120277, "care_type": "Chiropractor"}, {"name": "Howell Chiropractic Inc", "address": "1311 E Stroop Rd, Kettering, OH 45429", "city": "Kettering", "phone": "+1 937-558-2824", "website": "https://www.howellchiro.com/", "rating": 5.0, "reviews": 21, "place_id": "ChIJ1Yv2X3WFQIgRayJ_uLtO6UY", "latitude": 39.6889325, "longitude": -84.1436363, "care_type": "Chiropractor"}, {"name": "Homegrown Chiropractic & Wellness", "address": "1204 E Dorothy Ln, Dayton, OH 45419", "city": "Dayton", "phone": "+1 937-350-1888", "website": "http://homegrownchiropractic.com/", "rating": 5.0, "reviews": 272, "place_id": "ChIJ53G5z6aFQIgRISGBA94K0qQ", "latitude": 39.703575, "longitude": -84.1448534, "care_type": "Chiropractor"}, {"name": "Miami Valley Chiropractic", "address": "3205 Wilmington Pike #1, Kettering, OH 45429", "city": "Kettering", "phone": "+1 937-294-2225", "website": "", "rating": 4.6, "reviews": 11, "place_id": "ChIJ7Xe_bgiFQIgRtaoEIIOJ054", "latitude": 39.6992289, "longitude": -84.14189789999999, "care_type": "Chiropractor"}, {"name": "Xcell Medical Group", "address": "710 Leona Rd Suite #2, Elyria, OH 44035", "city": "Elyria", "phone": "+1 440-328-8487", "website": "https://xcellmedicalgroup.com/", "rating": 4.6, "reviews": 213, "place_id": "ChIJrd21L06ZMIgR6Vws8Bh29oM", "latitude": 41.4006942, "longitude": -82.1200241, "care_type": "Chiropractor"}, {"name": "Midway Pointe Chiropractic", "address": "170 Midway Blvd, Elyria, OH 44035", "city": "Elyria", "phone": "+1 440-324-2040", "website": "https://midwaypointechiropractic.com/", "rating": 4.9, "reviews": 74, "place_id": "ChIJ-ZoJv2iZMIgRFoVK4kJL5Lw", "latitude": 41.3983869, "longitude": -82.10264459999999, "care_type": "Chiropractor"}, {"name": "Dr. Nicholas Fabian, DC", "address": "710 Leona Rd Suite #2, Elyria, OH 44035", "city": "Elyria", "phone": "+1 440-324-0092", "website": "https://xcellmedicalgroup.com/", "rating": 5.0, "reviews": 43, "place_id": "ChIJQ0KFPA6ZMIgR2u_cI1M_9j0", "latitude": 41.4006741, "longitude": -82.12026259999999, "care_type": "Chiropractor"}, {"name": "Lorain County Chiropractic", "address": "New Sunrise office complex, 1100 Abbe Rd N C, Elyria, OH 44035", "city": "Elyria", "phone": "+1 440-366-0042", "website": "", "rating": 4.9, "reviews": 24, "place_id": "ChIJbbqNjS6aMIgRrjPvJ8UWEEs", "latitude": 41.415206, "longitude": -82.0777573, "care_type": "Chiropractor"}, {"name": "Daniel J. Schaffer, DC", "address": "170 Midway Blvd, Elyria, OH 44035", "city": "Elyria", "phone": "+1 440-324-2040", "website": "https://midwaypointechiropractic.com/meet-dr-schaffer/", "rating": 5.0, "reviews": 14, "place_id": "ChIJFX0zjWiZMIgR2aEgMwvcIKM", "latitude": 41.398423, "longitude": -82.1026574, "care_type": "Chiropractor"}, {"name": "Lorain Injury Center", "address": "2106 N Ridge Rd, Elyria, OH 44035", "city": "Elyria", "phone": "+1 440-240-9390", "website": "https://www.loraininjurycenter.com/", "rating": 4.9, "reviews": 112, "place_id": "ChIJRcQU5wacMIgRKL7XbjDyL1U", "latitude": 41.418313, "longitude": -82.12279559999999, "care_type": "Chiropractor"}, {"name": "Cleveland Clinic, Elyria, OH 44035", "address": "303 Chestnut Commons Dr, Elyria, OH 44035", "city": "Elyria", "phone": "", "website": "", "rating": null, "reviews": 0, "place_id": "ChIJV1J9bgCZMIgRJumypNpiUmg", "latitude": 41.3454966, "longitude": -82.0659022, "care_type": "Chiropractor"}, {"name": "Integrity Chiropractic and Wellness", "address": "2113 Tiffin Ave Suite 101, Findlay, OH 45840", "city": "Findlay", "phone": "+1 419-424-0100", "website": "https://www.ihcare.com/", "rating": 4.8, "reviews": 105, "place_id": "ChIJmWR-wi-rPogR_0i8ez3M1MA", "latitude": 41.0540026, "longitude": -83.6016224, "care_type": "Chiropractor"}, {"name": "Back To Health Chiropractic Center", "address": "1611 Tiffin Ave, Findlay, OH 45840", "city": "Findlay", "phone": "+1 419-420-1555", "website": "https://backtohealthnow.net/", "rating": 4.9, "reviews": 173, "place_id": "ChIJ8-sRIhGrPogRrpRd7i5VRw8", "latitude": 41.0514498, "longitude": -83.6200384, "care_type": "Chiropractor"}, {"name": "Findlay Family Chiropractic Clinic", "address": "2303 N Main St, Findlay, OH 45840", "city": "Findlay", "phone": "+1 419-424-9922", "website": "https://www.findlaywellspine.com/", "rating": 4.9, "reviews": 33, "place_id": "ChIJI1FQx0yqPogRxBAgw-w2WuI", "latitude": 41.0668677, "longitude": -83.6496263, "care_type": "Chiropractor"}, {"name": "Kirk Chiropractic", "address": "116 W Lima St, Findlay, OH 45840", "city": "Findlay", "phone": "+1 419-425-9798", "website": "http://www.kirkchiro.com/", "rating": 4.6, "reviews": 65, "place_id": "ChIJxe0RK4yrPogR42Y1QmKcVxM", "latitude": 41.0332441, "longitude": -83.6510907, "care_type": "Chiropractor"}, {"name": "Blanchard Valley Chiropractic", "address": "228 W Hardin St, Findlay, OH 45840", "city": "Findlay", "phone": "+1 419-422-3686", "website": "http://www.bvchiro.com/", "rating": 4.9, "reviews": 69, "place_id": "ChIJZWKaf5KrPogRGhSDo0VgpYs", "latitude": 41.035944, "longitude": -83.6533539, "care_type": "Chiropractor"}, {"name": "Hosey Chiropractic", "address": "2121 Bright Rd, Findlay, OH 45840", "city": "Findlay", "phone": "+1 419-422-4240", "website": "http://www.drhosey.com/", "rating": 4.8, "reviews": 113, "place_id": "ChIJ80z_zuGqPogRnrFEDuY9dK0", "latitude": 41.0649547, "longitude": -83.6166757, "care_type": "Chiropractor"}, {"name": "Ohio Movement Clinic", "address": "7430 Timberstone Dr I, Findlay, OH 45840", "city": "Findlay", "phone": "+1 419-413-3120", "website": "https://www.ohiomovementclinic.com/", "rating": 5.0, "reviews": 26, "place_id": "ChIJE8Md68GrPogRLkyPD2rNcY4", "latitude": 41.0603507, "longitude": -83.5955606, "care_type": "Chiropractor"}, {"name": "Clinger Chiropractic Center", "address": "245 Stanford Pkwy, Findlay, OH 45840", "city": "Findlay", "phone": "+1 419-429-1111", "website": "http://www.clingerchiropractic.com/", "rating": 5.0, "reviews": 180, "place_id": "ChIJDUzUko6rPogRniTw-vcxBpk", "latitude": 41.0430864, "longitude": -83.6752743, "care_type": "Chiropractor"}, {"name": "Risner Spinal Center", "address": "1500 Tiffin Ave, Findlay, OH 45840", "city": "Findlay", "phone": "+1 419-422-7677", "website": "http://www.risnerspinalcenter.com/", "rating": 4.9, "reviews": 57, "place_id": "ChIJ4c7fLxerPogRBJCbEDX8-zk", "latitude": 41.0515289, "longitude": -83.62243409999999, "care_type": "Chiropractor"}, {"name": "Dr. Dan Chiropractic", "address": "748 Western Ave, Findlay, OH 45840", "city": "Findlay", "phone": "+1 419-887-9990", "website": "http://drdanchiro.com/", "rating": 5.0, "reviews": 24, "place_id": "ChIJSTwV0dmrPogRwhzKzThp9pg", "latitude": 41.0331804, "longitude": -83.6602054, "care_type": "Chiropractor"}, {"name": "Conkle Chiropractic Clinic", "address": "1206 Lima Ave, Findlay, OH 45840", "city": "Findlay", "phone": "+1 419-423-4700", "website": "", "rating": 4.6, "reviews": 21, "place_id": "ChIJawaGKQSsPogRZJ3MowjdvHc", "latitude": 41.021746, "longitude": -83.6700359, "care_type": "Chiropractor"}, {"name": "Trenton Chiropractic", "address": "643 E Trenton Ave, Findlay, OH 45840", "city": "Findlay", "phone": "+1 419-427-6300", "website": "", "rating": 4.8, "reviews": 19, "place_id": "ChIJ3-GD2cirPogRuPK62WYkmwg", "latitude": 41.05848599999999, "longitude": -83.6614888, "care_type": "Chiropractor"}, {"name": "Piasecki William DC", "address": "2303 N Main St, Findlay, OH 45840", "city": "Findlay", "phone": "+1 419-424-9922", "website": "http://www.findlaywellspine.com/", "rating": 5.0, "reviews": 9, "place_id": "ChIJI1FQx0yqPogRe764dQo12Wg", "latitude": 41.0668846, "longitude": -83.6495281, "care_type": "Chiropractor"}, {"name": "Simons Family Chiropractic", "address": "1433 E Sandusky St suite a, Findlay, OH 45840", "city": "Findlay", "phone": "+1 419-427-2100", "website": "http://findlaychiropractic.com/", "rating": 5.0, "reviews": 4, "place_id": "ChIJ9cDiObqrPogRHlF8UmRswA4", "latitude": 41.036582, "longitude": -83.6227459, "care_type": "Chiropractor"}, {"name": "Mccarty Chiropractic Center", "address": "16380 OH-12, Findlay, OH 45840", "city": "Findlay", "phone": "+1 419-425-1020", "website": "", "rating": 4.4, "reviews": 7, "place_id": "ChIJ2eOfd2tVOYgR8CHJP5wjzsg", "latitude": 41.0837918, "longitude": -83.5664121, "care_type": "Chiropractor"}, {"name": "Christopher B. Berry, DC", "address": "1611 Tiffin Ave suite a, Findlay, OH 45840", "city": "Findlay", "phone": "+1 419-420-1555", "website": "", "rating": 5.0, "reviews": 3, "place_id": "ChIJ8-sRIhGrPogRksaOnHqsqW8", "latitude": 41.0514346, "longitude": -83.62002269999999, "care_type": "Chiropractor"}, {"name": "Thiel Chiropractic Inc.", "address": "1003 Blanchard Ave, Findlay, OH 45840", "city": "Findlay", "phone": "+1 419-422-4491", "website": "", "rating": 5.0, "reviews": 16, "place_id": "ChIJR5PdV4GrPogRGOxywMjA4RI", "latitude": 41.0304857, "longitude": -83.63961839999999, "care_type": "Chiropractor"}, {"name": "Flag City Sport & Spine- Dr. Chris Lofquist", "address": "643 W Trenton Ave, Findlay, OH 45840", "city": "Findlay", "phone": "+1 419-427-6300", "website": "http://www.flagcityspine.com/", "rating": 5.0, "reviews": 12, "place_id": "ChIJ3-GD2cirPogRcpkK9Vk7_Hw", "latitude": 41.0584194, "longitude": -83.66149829999999, "care_type": "Chiropractor"}, {"name": "Michelle R. Simons, DC", "address": "1433 E Sandusky St suite a, Findlay, OH 45840", "city": "Findlay", "phone": "+1 419-427-2100", "website": "http://findlaychiropractic.com/", "rating": 5.0, "reviews": 4, "place_id": "ChIJieqxyiyrPogRjFLBAj-OaiA", "latitude": 41.0366123, "longitude": -83.62274359999999, "care_type": "Chiropractor"}, {"name": "Richard E. Marra, DC", "address": "228 W Hardin St, Findlay, OH 45840", "city": "Findlay", "phone": "+1 419-422-3686", "website": "http://www.bvchiro.com/", "rating": 5.0, "reviews": 5, "place_id": "ChIJZWKaf5KrPogRU2TH0Tagj_4", "latitude": 41.0359439, "longitude": -83.6533539, "care_type": "Chiropractor"}, {"name": "Steven L. Thiel, DC", "address": "1003 Blanchard Ave, Findlay, OH 45840", "city": "Findlay", "phone": "+1 419-422-4491", "website": "", "rating": 4.9, "reviews": 7, "place_id": "ChIJR5PdV4GrPogRcUKXC7WZV0Y", "latitude": 41.0303628, "longitude": -83.6395975, "care_type": "Chiropractor"}, {"name": "McCarty David DC", "address": "16380 OH-12, Findlay, OH 45840", "city": "Findlay", "phone": "+1 419-425-1020", "website": "", "rating": 5.0, "reviews": 4, "place_id": "ChIJ2eOfd2tVOYgRZVkev1ohs-c", "latitude": 41.0838257, "longitude": -83.5664963, "care_type": "Chiropractor"}, {"name": "Kentris Chiropractic Clinic", "address": "1665 Tiffin Ave Ste A5, Findlay, OH 45840", "city": "Findlay", "phone": "+1 419-423-2268", "website": "", "rating": 5.0, "reviews": 5, "place_id": "ChIJK_U7OxerPogRyDiAntca0WA", "latitude": 41.052388, "longitude": -83.617559, "care_type": "Chiropractor"}, {"name": "Perry Spine & Wellness Center", "address": "1650 Tiffin Ave, Findlay, OH 45840", "city": "Findlay", "phone": "+1 419-425-2225", "website": "", "rating": 5.0, "reviews": 1, "place_id": "ChIJGw88aBerPogRfCgqEmV9mPA", "latitude": 41.0523499, "longitude": -83.618439, "care_type": "Chiropractor"}, {"name": "Flag City Sport & Spine", "address": "643 W Trenton Ave, Findlay, OH 45840", "city": "Findlay", "phone": "+1 419-427-6300", "website": "http://www.flagcityspine.com/", "rating": 5.0, "reviews": 2, "place_id": "ChIJExNM2sirPogRvC5katxWnKA", "latitude": 41.0584194, "longitude": -83.66149829999999, "care_type": "Chiropractor"}, {"name": "Heck Heather A DC", "address": "7595 County Rd 236, Findlay, OH 45840", "city": "Findlay", "phone": "+1 419-427-3117", "website": "http://nwomedicine.com/", "rating": 5.0, "reviews": 3, "place_id": "ChIJn29GUNNUOYgRxAy2Bp-CXV0", "latitude": 41.0572199, "longitude": -83.5914454, "care_type": "Chiropractor"}, {"name": "Dr. James W Mcnally", "address": "116 W Lima St, Findlay, OH 45840", "city": "Findlay", "phone": "+1 419-425-9798", "website": "http://www.kirkchiro.com/", "rating": 5.0, "reviews": 2, "place_id": "ChIJxe0RK4yrPogRDMXgvrx-FGQ", "latitude": 41.033283, "longitude": -83.651028, "care_type": "Chiropractor"}, {"name": "Hamilton G. Wetzel, DC", "address": "2113 Tiffin Ave Suite 101, Findlay, OH 45840", "city": "Findlay", "phone": "+1 419-424-0100", "website": "http://www.ihcare.com/", "rating": null, "reviews": 0, "place_id": "ChIJ9XjInbWrPogRUsrEZRtYrFA", "latitude": 41.0540026, "longitude": -83.6016224, "care_type": "Chiropractor"}, {"name": "Douglas Hosey, DC", "address": "2121 Bright Rd, Findlay, OH 45840", "city": "Findlay", "phone": "+1 419-422-4240", "website": "", "rating": 5.0, "reviews": 1, "place_id": "ChIJ80z_zuGqPogR_lAovkQ5vfI", "latitude": 41.06492, "longitude": -83.616697, "care_type": "Chiropractor"}, {"name": "Robert B. Conkle, DC", "address": "1206 Lima Ave, Findlay, OH 45840", "city": "Findlay", "phone": "+1 419-423-4700", "website": "", "rating": 5.0, "reviews": 2, "place_id": "ChIJawaGKQSsPogRXS_Azhp_VQY", "latitude": 41.0217135, "longitude": -83.6701023, "care_type": "Chiropractor"}, {"name": "Dr. John Coleman", "address": "1611 Tiffin Ave suite a, Findlay, OH 45840", "city": "Findlay", "phone": "+1 419-420-1555", "website": "https://backtohealthnow.net/", "rating": 5.0, "reviews": 1, "place_id": "ChIJAQDUIxGrPogRTW8lOVD1Oho", "latitude": 41.0514346, "longitude": -83.62002269999999, "care_type": "Chiropractor"}, {"name": "R & R Chiropractic", "address": "402 Tiffin Ave, Findlay, OH 45840", "city": "Findlay", "phone": "+1 419-425-2225", "website": "", "rating": null, "reviews": 0, "place_id": "ChIJD3-Sa5irPogRgz619oj43Xg", "latitude": 41.0447882, "longitude": -83.6438944, "care_type": "Chiropractor"}, {"name": "Mark J. Kirk, DC", "address": "116 W Lima St, Findlay, OH 45840", "city": "Findlay", "phone": "+1 419-425-9798", "website": "http://www.kirkchiro.com/", "rating": null, "reviews": 0, "place_id": "ChIJxe0RK4yrPogReIeQNgN5WG8", "latitude": 41.0332227, "longitude": -83.65107259999999, "care_type": "Chiropractor"}, {"name": "NWO Orthopedics and Sports Medicine", "address": "7595 County Rd 236, Findlay, OH 45840", "city": "Findlay", "phone": "+1 419-427-1984", "website": "http://nwomedicine.com/", "rating": 4.8, "reviews": 1785, "place_id": "ChIJn29GUNNUOYgR-k6CG5MRvCM", "latitude": 41.0572401, "longitude": -83.5914323, "care_type": "Chiropractor"}, {"name": "Nicholas Wank", "address": "116 W Lima St, Findlay, OH 458403032", "city": "Findlay", "phone": "+1 419-425-9798", "website": "https://www.kirkchiro.com/about", "rating": 5.0, "reviews": 2, "place_id": "ChIJVVWZK4yrPogR608L4U5piLM", "latitude": 41.0332227, "longitude": -83.65107259999999, "care_type": "Chiropractor"}, {"name": "Edward G. Schwartz, DC", "address": "2121 Bright Rd, Findlay, OH 45840", "city": "Findlay", "phone": "+1 419-422-4240", "website": "", "rating": 5.0, "reviews": 1, "place_id": "ChIJ80z_zuGqPogRqf23IT4dsfo", "latitude": 41.06492, "longitude": -83.616697, "care_type": "Chiropractor"}, {"name": "Taylor Family Chiropractic", "address": "Findlay, OH 45840", "city": "Findlay", "phone": "+1 419-427-2100", "website": "", "rating": null, "reviews": 0, "place_id": "ChIJieqxyiyrPogReWpXBCoJQ6A", "latitude": 41.0564698, "longitude": -83.592389, "care_type": "Chiropractor"}, {"name": "James Darrach DC FIAMA AAPM", "address": "643 W Trenton Ave, Findlay, OH 45840", "city": "Findlay", "phone": "+1 419-427-6300", "website": "", "rating": 3.7, "reviews": 6, "place_id": "ChIJ3-GD2cirPogR37nMy9Gyx2Y", "latitude": 41.0584193, "longitude": -83.6615242, "care_type": "Chiropractor"}, {"name": "Jason W. Simpson, DC", "address": "342 Glessner Ave, Findlay, OH 45840", "city": "Findlay", "phone": "+1 419-424-8833", "website": "", "rating": null, "reviews": 0, "place_id": "ChIJt8RYfO-rPogRS4YNmmSk4tQ", "latitude": 41.0393948, "longitude": -83.6666864, "care_type": "Chiropractor"}, {"name": "Lindsey Sneary", "address": "239 S Main St, Findlay, OH 458403336", "city": "Findlay", "phone": "+1 419-429-1111", "website": "", "rating": 5.0, "reviews": 1, "place_id": "ChIJ08Q3b5GrPogRsn-lc0cvXjU", "latitude": 41.0392736, "longitude": -83.6500519, "care_type": "Chiropractor"}, {"name": "Renee S. Perry, DC", "address": "402 Tiffin Ave, Findlay, OH 45840", "city": "Findlay", "phone": "+1 419-425-2225", "website": "", "rating": null, "reviews": 0, "place_id": "ChIJZYCC0iSrPogRjOasm7jbPMM", "latitude": 41.0523499, "longitude": -83.618439, "care_type": "Chiropractor"}, {"name": "Findlay DOT DOC", "address": "643 W Trenton Ave, Findlay, OH 45840", "city": "Findlay", "phone": "+1 419-427-6300", "website": "https://www.findlaydotdoc.com/", "rating": 5.0, "reviews": 1, "place_id": "ChIJw8tlPwCrPogRmYZ0McOnRo8", "latitude": 41.0584194, "longitude": -83.66149829999999, "care_type": "Chiropractor"}, {"name": "Nwo Chiropractic & Nutrition", "address": "7595 County Rd 236, Findlay, OH 45840", "city": "Findlay", "phone": "+1 419-427-3117", "website": "http://www.nwomedicine.com/", "rating": 3.0, "reviews": 2, "place_id": "ChIJn29GUNNUOYgR6G_YhsDG7-c", "latitude": 41.0571576, "longitude": -83.5911462, "care_type": "Chiropractor"}, {"name": "Kirk Chiropractic: Morman Anthony G DC", "address": "116 W Lima St, Findlay, OH 45840", "city": "Findlay", "phone": "+1 419-425-9798", "website": "http://www.kirkchiro.com/", "rating": 1.0, "reviews": 1, "place_id": "ChIJxe0RK4yrPogRCb9qwYaNqtk", "latitude": 41.033283, "longitude": -83.651028, "care_type": "Chiropractor"}, {"name": "Simons Family Chiropractic", "address": "1433 E Sandusky St suite a, Findlay, OH 45840", "city": "Findlay", "phone": "+1 567-208-9253", "website": "http://findlaychiropractic.com/", "rating": null, "reviews": 0, "place_id": "ChIJKzDf8nepPogRuHrxZAXjaz0", "latitude": 41.0365501, "longitude": -83.62271129999999, "care_type": "Chiropractor"}, {"name": "Dr. Rodney L. Betts, D.C.", "address": "1210 N Main St, Findlay, OH 45840", "city": "Findlay", "phone": "+1 419-422-4390", "website": "http://drbetts.com/", "rating": null, "reviews": 0, "place_id": "ChIJH_1lrLCrPogRV3NxfIoq1LA", "latitude": 41.05637369999999, "longitude": -83.6503929, "care_type": "Chiropractor"}, {"name": "N8 Family Chiropractic", "address": "340 W Fair Ave, Lancaster, OH 43130", "city": "Lancaster", "phone": "+1 740-265-2355", "website": "https://www.n8familychiropractic.com/locations/west-lancaster-oh/", "rating": 4.7, "reviews": 116, "place_id": "ChIJqxG6jgqKR4gRFq0qjSABu34", "latitude": 39.7238658, "longitude": -82.6074007, "care_type": "Chiropractor"}, {"name": "Lancaster Chiropractic Rehab Center", "address": "616 N Columbus St, Lancaster, OH 43130", "city": "Lancaster", "phone": "+1 740-653-2973", "website": "https://www.jsimondc.com/", "rating": 5.0, "reviews": 207, "place_id": "ChIJa_E95_WKR4gRTwDwmU8KqP8", "latitude": 39.7205313, "longitude": -82.6040611, "care_type": "Chiropractor"}, {"name": "Bruce Chiropractic", "address": "422 N Columbus St, Lancaster, OH 43130", "city": "Lancaster", "phone": "+1 740-422-8484", "website": "http://www.brucechiropractic.com/", "rating": 5.0, "reviews": 1102, "place_id": "ChIJGZ88wfmKR4gRWBLpkswXE-Y", "latitude": 39.7182399, "longitude": -82.60397119999999, "care_type": "Chiropractor"}, {"name": "Sparks Family Chiropractic", "address": "365 E Main St, Lancaster, OH 43130", "city": "Lancaster", "phone": "+1 740-689-1175", "website": "https://www.sparksfamilychiropractic.com/", "rating": 4.7, "reviews": 111, "place_id": "ChIJr3sTjvqKR4gRijYbA05dfsI", "latitude": 39.7140636, "longitude": -82.5956776, "care_type": "Chiropractor"}, {"name": "N8 Family Chiropractic", "address": "1728 E Main St, Lancaster, OH 43130", "city": "Lancaster", "phone": "+1 740-240-6605", "website": "https://www.n8familychiropractic.com/locations/east-lancaster-oh/", "rating": 4.9, "reviews": 45, "place_id": "ChIJAQC8jgqKR4gR-6y-ZJTKi_s", "latitude": 39.7136764, "longitude": -82.56454459999999, "care_type": "Chiropractor"}, {"name": "Wellness Within Chiropractic", "address": "2658 N Columbus St STE G, Lancaster, OH 43130", "city": "Lancaster", "phone": "+1 740-918-9994", "website": "http://www.wellnesswithinchiropractic.com/", "rating": 5.0, "reviews": 19, "place_id": "ChIJcaqXzIiLR4gReiOnSePnaD8", "latitude": 39.7449011, "longitude": -82.6404787, "care_type": "Chiropractor"}, {"name": "Buckeye Chiropractic & Rehab", "address": "1619 Victor Rd NW, Lancaster, OH 43130", "city": "Lancaster", "phone": "+1 740-653-5390", "website": "http://www.buckeyechiro.com/", "rating": 5.0, "reviews": 14, "place_id": "ChIJTyT12gF2OIgRar8_K8SPCXI", "latitude": 39.7496299, "longitude": -82.6522293, "care_type": "Chiropractor"}, {"name": "Copious Chiropractic", "address": "136 W Mulberry St, Lancaster, OH 43130", "city": "Lancaster", "phone": "+1 740-415-6498", "website": "https://www.copiouschiropractic.com/", "rating": 5.0, "reviews": 11, "place_id": "ChIJcRAGBsKLR4gRAB_gKX6coVw", "latitude": 39.7160553, "longitude": -82.603269, "care_type": "Chiropractor"}, {"name": "Hometown Integrated Medicine", "address": "321 S Columbus St Suite A, Lancaster, OH 43130", "city": "Lancaster", "phone": "+1 740-277-6556", "website": "https://hometownintegratedmedicine.com/", "rating": 5.0, "reviews": 21, "place_id": "ChIJYwVv8gGLR4gR3iwguxb-F-4", "latitude": 39.7105758, "longitude": -82.604548, "care_type": "Chiropractor"}, {"name": "Peak Performance Sport & Spine", "address": "2265 W Fair Ave, Lancaster, OH 43130", "city": "Lancaster", "phone": "+1 740-494-1470", "website": "https://www.peakperformss.com/%3Futm_source%3Dgmb%26utm_medium%3Dorganic", "rating": 5.0, "reviews": 23, "place_id": "ChIJTbJW6NKLR4gRF59OAj27AfQ", "latitude": 39.7266278, "longitude": -82.64258989999999, "care_type": "Chiropractor"}, {"name": "Health Link Chiropractic", "address": "117 W Main St Suite 102, Lancaster, OH 43130", "city": "Lancaster", "phone": "+1 740-689-9355", "website": "http://healthlinkohio.com/", "rating": 4.9, "reviews": 8, "place_id": "ChIJtcKgZfWKR4gRZiDVG0GbIwY", "latitude": 39.71405499999999, "longitude": -82.6025633, "care_type": "Chiropractor"}, {"name": "Fairfield Spine and Rehab Center, LLC", "address": "2217 W Fair Ave, Lancaster, OH 43130", "city": "Lancaster", "phone": "+1 740-654-3375", "website": "http://rehabmyspine.com/", "rating": 5.0, "reviews": 11, "place_id": "ChIJ_1MlIqmKR4gRLQAPUA6YMZU", "latitude": 39.7261842, "longitude": -82.6410334, "care_type": "Chiropractor"}, {"name": "Lincoln H. Kohner, DC", "address": "117 W Main St Suite 102, Lancaster, OH 43130", "city": "Lancaster", "phone": "+1 740-689-9355", "website": "http://healthlinkohio.com/", "rating": 4.7, "reviews": 3, "place_id": "ChIJ8yY1DP2JR4gRVafe9AkVzOU", "latitude": 39.71405499999999, "longitude": -82.6025633, "care_type": "Chiropractor"}, {"name": "Dr. Jerrold Simon", "address": "616 N Columbus St, Lancaster, OH 43130", "city": "Lancaster", "phone": "+1 740-653-2973", "website": "", "rating": 3.0, "reviews": 4, "place_id": "ChIJq6ru5vWKR4gRX2wIcB8_ygI", "latitude": 39.7205165, "longitude": -82.603999, "care_type": "Chiropractor"}, {"name": "Dr. James Depietro", "address": "2217 W Fair Ave, Lancaster, OH 43130", "city": "Lancaster", "phone": "+1 740-654-3375", "website": "https://rehabmyspine.com/", "rating": 5.0, "reviews": 2, "place_id": "ChIJMXD8QiKKR4gRhqF2EKfU1LU", "latitude": 39.7261575, "longitude": -82.64105699999999, "care_type": "Chiropractor"}, {"name": "Walters Todd B DC", "address": "1583 Victor Rd NW, Lancaster, OH 43130", "city": "Lancaster", "phone": "+1 740-653-5390", "website": "", "rating": 5.0, "reviews": 1, "place_id": "ChIJTyT12gF2OIgRpocp4ppyk00", "latitude": 39.7494041, "longitude": -82.6521025, "care_type": "Chiropractor"}, {"name": "Lorraine Ficocelli, DC", "address": "365 E Main St, Lancaster, OH 43130", "city": "Lancaster", "phone": "+1 740-689-1175", "website": "http://www.sparksfamilychiropractic.com/", "rating": null, "reviews": 0, "place_id": "ChIJr3sTjvqKR4gRtFuisT2i_-w", "latitude": 39.7139551, "longitude": -82.59575199999999, "care_type": "Chiropractor"}, {"name": "Todd A. Hamilton, DC", "address": "340 W Fair Ave, Lancaster, OH 43130", "city": "Lancaster", "phone": "+1 740-689-0199", "website": "", "rating": null, "reviews": 0, "place_id": "ChIJBabks1-KR4gR7DDgc6FVFmk", "latitude": 39.7238019, "longitude": -82.6074436, "care_type": "Chiropractor"}, {"name": "Keller Family Chiropractic, LLC Glen E. Keller DC", "address": "10400 Lancaster-Newark Rd NE, Millersport, OH 43046", "city": "Millersport", "phone": "+1 740-467-2486", "website": "http://www.kellerfamilychiro.com/", "rating": 4.9, "reviews": 204, "place_id": "ChIJ5VeBgc1yOIgRkrG0V3BPNDc", "latitude": 39.8766222, "longitude": -82.5650028, "care_type": "Chiropractor"}, {"name": "Dr. Joseph Fields", "address": "340 W Fair Ave, Lancaster, OH 43130", "city": "Lancaster", "phone": "+1 740-689-0199", "website": "", "rating": null, "reviews": 0, "place_id": "ChIJq6pasV-KR4gRNOA__KWCziE", "latitude": 39.7238005, "longitude": -82.6074405, "care_type": "Chiropractor"}, {"name": "Krystal D. Huber, DC", "address": "340 W Fair Ave, Lancaster, OH 43130", "city": "Lancaster", "phone": "+1 740-689-0199", "website": "", "rating": null, "reviews": 0, "place_id": "ChIJBabks1-KR4gRl20WC8PZMlk", "latitude": 39.7238005, "longitude": -82.6074405, "care_type": "Chiropractor"}, {"name": "Sparks Family Chiropractic: Muhlenkamp Brad DC", "address": "365 E Main St, Lancaster, OH 43130", "city": "Lancaster", "phone": "+1 740-689-1175", "website": "https://www.sparksfamilychiropractic.com/", "rating": null, "reviews": 0, "place_id": "ChIJYXoTjvqKR4gRi9xCn_ZXzK8", "latitude": 39.7140637, "longitude": -82.5956776, "care_type": "Chiropractor"}, {"name": "The Joint Chiropractic", "address": "2692 Madison Rd Ste A2, Cincinnati, OH 45208", "city": "Cincinnati", "phone": "+1 513-866-7120", "website": "https://www.thejoint.com/ohio/cincinnati/rookwood-17014", "rating": 4.8, "reviews": 240, "place_id": "ChIJS4alytOzQYgRiEXOV5tHyH4", "latitude": 39.1453845, "longitude": -84.4441927, "care_type": "Chiropractor"}, {"name": "Greater Cincinnati Chiropractic", "address": "11123 Montgomery Rd #100, Cincinnati, OH 45249", "city": "Cincinnati", "phone": "+1 513-469-6400", "website": "http://www.greatercincychiro.com/", "rating": 4.8, "reviews": 522, "place_id": "ChIJOy9--J9WQIgRg1Eq6RkpxRk", "latitude": 39.266461, "longitude": -84.333157, "care_type": "Chiropractor"}, {"name": "Ripploh Chiropractic", "address": "3830 Paxton Ave, Cincinnati, OH 45209", "city": "Cincinnati", "phone": "+1 513-827-9032", "website": "http://www.ripplohchiropractic.com/", "rating": 5.0, "reviews": 1174, "place_id": "ChIJP7vVhoKtQYgRagmekQHD4iM", "latitude": 39.1459541, "longitude": -84.4275157, "care_type": "Chiropractor"}, {"name": "Thrive Chiropractic - Cincinnati", "address": "3071 Madison Rd, Cincinnati, OH 45209", "city": "Cincinnati", "phone": "+1 513-723-1190", "website": "http://www.thrivechiropracticcenter.com/", "rating": 4.9, "reviews": 48, "place_id": "ChIJuXYsaWytQYgR8XfMzCU7tFg", "latitude": 39.1520952, "longitude": -84.4314923, "care_type": "Chiropractor"}, {"name": "Mt. Lookout Chiropractic", "address": "455 Delta Ave #1, Cincinnati, OH 45226", "city": "Cincinnati", "phone": "+1 513-321-8484", "website": "http://www.mtlookoutchiro.com/", "rating": 4.9, "reviews": 1248, "place_id": "ChIJVaiBUoytQYgRniUuAfTwroc", "latitude": 39.1189514, "longitude": -84.4385479, "care_type": "Chiropractor"}, {"name": "Intuitive Spine Chiropractor Cincinnati - Dr. Trae Masten", "address": "3181 Linwood Ave Suite 21, Cincinnati, OH 45208", "city": "Cincinnati", "phone": "+1 513-301-0074", "website": "http://theintuitivespine.com/", "rating": 5.0, "reviews": 72, "place_id": "ChIJ9SI_siqtQYgRVVKFQ4SCVI4", "latitude": 39.1294766, "longitude": -84.4306258, "care_type": "Chiropractor"}, {"name": "The Joint Chiropractic", "address": "11255 Reed Hartman Hwy Suite G, Cincinnati, OH 45241", "city": "Cincinnati", "phone": "+1 513-586-2771", "website": "https://www.thejoint.com/ohio/blue-ash/blue-ash-17005", "rating": 4.8, "reviews": 651, "place_id": "ChIJ4eDj7WBRQIgR0WM5c1D0l3k", "latitude": 39.2713743, "longitude": -84.37681649999999, "care_type": "Chiropractor"}, {"name": "The Joint Chiropractic", "address": "7625 Beechmont Ave Suite D, Cincinnati, OH 45255", "city": "Cincinnati", "phone": "+1 513-982-5570", "website": "https://www.thejoint.com/ohio/cincinnati/anderson-township-17018", "rating": 4.9, "reviews": 321, "place_id": "ChIJ94ROF1OpQYgR27yJXv4hjyU", "latitude": 39.072125, "longitude": -84.3461044, "care_type": "Chiropractor"}, {"name": "Glendale Family Chiropractic", "address": "1125 Congress Ave Suite 1, Cincinnati, OH 45246", "city": "Cincinnati", "phone": "+1 513-771-1109", "website": "http://www.glendalefamilychiropractic.com/", "rating": 5.0, "reviews": 349, "place_id": "ChIJv-7IFHdOQIgRDbVtwRnJJQk", "latitude": 39.2760773, "longitude": -84.4682918, "care_type": "Chiropractor"}, {"name": "West Chiropractic and Rehabilitation", "address": "2852 Boudinot Ave # 201, Cincinnati, OH 45238", "city": "Cincinnati", "phone": "+1 513-662-2273", "website": "https://www.westchirorehab.com/%3Futm_source%3Dgmb%26utm_medium%3Dorganic", "rating": 5.0, "reviews": 180, "place_id": "ChIJI6-zxoq1QYgR8DmZ7H0l4xk", "latitude": 39.13469, "longitude": -84.6044917, "care_type": "Chiropractor"}, {"name": "Spine and Wellness Cincinnati", "address": "7809 Laurel Ave Ste. 11, Cincinnati, OH 45243", "city": "Cincinnati", "phone": "+1 513-428-9355", "website": "http://www.spinewellnesscincinnati.com/", "rating": 4.9, "reviews": 206, "place_id": "ChIJ4RadV1FTQIgRKmVbRNhAHF4", "latitude": 39.1894643, "longitude": -84.3600191, "care_type": "Chiropractor"}, {"name": "Center for Chiropractic Rehabilitation & Wellness, LLC", "address": "7364 Reading Rd, Cincinnati, OH 45237", "city": "Cincinnati", "phone": "+1 513-761-7246", "website": "http://www.c4crwhealth.com/", "rating": 5.0, "reviews": 78, "place_id": "ChIJhRgWHWhNQIgR2dokhnQsgH8", "latitude": 39.1968895, "longitude": -84.4587275, "care_type": "Chiropractor"}, {"name": "Cincinnati Chiropractic, LLC", "address": "4021 Harrison Ave, Cheviot, OH 45211", "city": "Cheviot", "phone": "+1 513-661-6666", "website": "http://www.cincinnatichiropractic.com/", "rating": 4.6, "reviews": 30, "place_id": "ChIJtcwwzofKQYgRxxVX9Dz_X3o", "latitude": 39.1570362, "longitude": -84.6156984, "care_type": "Chiropractor"}, {"name": "Norwood Chiropractic & Sports Injury Center", "address": "2089 Sherman Ave Suite 410, Cincinnati, OH 45212", "city": "Cincinnati", "phone": "+1 513-531-2277", "website": "https://www.norwoodchiropractic.com/", "rating": 4.9, "reviews": 651, "place_id": "ChIJGW7PFZGyQYgRczw2n2AcRRM", "latitude": 39.1602894, "longitude": -84.4567998, "care_type": "Chiropractor"}, {"name": "The Chiropractic & Sports Injury Center of Cincinnati", "address": "11867 Mason Montgomery Rd, Cincinnati, OH 45249", "city": "Cincinnati", "phone": "+1 513-677-2200", "website": "http://www.cincinnatichiro.com/", "rating": 5.0, "reviews": 137, "place_id": "ChIJv2M5s_RWQIgRNfrsvJ_n9Z8", "latitude": 39.2859838, "longitude": -84.31656629999999, "care_type": "Chiropractor"}, {"name": "Sayler Park Chiropractic", "address": "6581 Gracely Dr, Cincinnati, OH 45233", "city": "Cincinnati", "phone": "+1 513-941-6650", "website": "http://saylerparkchiropractic.com/", "rating": 5.0, "reviews": 12, "place_id": "ChIJndQxf6vOQYgRDG0922NrUSA", "latitude": 39.1120327, "longitude": -84.6923049, "care_type": "Chiropractor"}, {"name": "Cincinnati Animal Chiropractic", "address": "1125 Congress Ave Suite 2, Cincinnati, OH 45246", "city": "Cincinnati", "phone": "+1 513-805-2040", "website": "https://www.cincinnatianimalchiropractic.com/", "rating": 5.0, "reviews": 136, "place_id": "ChIJk8GAkutPQIgRTH31Fb6GuOc", "latitude": 39.2760773, "longitude": -84.4682918, "care_type": "Chiropractor"}, {"name": "Baker Chiropractic and Wellness", "address": "4625 Red Bank Rd #101, Cincinnati, OH 45227", "city": "Cincinnati", "phone": "+1 513-561-2273", "website": "https://bakerchiropractic.org/", "rating": 5.0, "reviews": 315, "place_id": "ChIJ-U2zeBqtQYgRrnKysI41xTA", "latitude": 39.1571278, "longitude": -84.4043229, "care_type": "Chiropractor"}, {"name": "Shift Chiropractic Wellness", "address": "805 Elm St, Cincinnati, OH 45202", "city": "Cincinnati", "phone": "+1 503-504-8840", "website": "http://shiftchiro.com/", "rating": 5.0, "reviews": 23, "place_id": "ChIJ741UA1SxQYgRrSpTyap29FQ", "latitude": 39.104346, "longitude": -84.517287, "care_type": "Chiropractor"}, {"name": "McCrossen Chiropractic", "address": "7994 Colerain Ave, Cincinnati, OH 45239", "city": "Cincinnati", "phone": "+1 513-521-3360", "website": "https://www.drtimmccrossen.com/", "rating": 5.0, "reviews": 329, "place_id": "ChIJ6VF51ZRKQIgRocvqr5S3Prg", "latitude": 39.2184133, "longitude": -84.5852453, "care_type": "Chiropractor"}, {"name": "Western Hills Chiropractic", "address": "5948 Glenway Ave, Cincinnati, OH 45238", "city": "Cincinnati", "phone": "+1 513-251-2273", "website": "http://www.chirohealthplus.com/", "rating": 4.6, "reviews": 28, "place_id": "ChIJJWG_HG7KQYgRJY7exgRLfVw", "latitude": 39.1401997, "longitude": -84.6168093, "care_type": "Chiropractor"}, {"name": "Eastern Hills Chiropractic", "address": "684 Old State Rte 74 Ste. B, Cincinnati, OH 45245", "city": "Cincinnati", "phone": "+1 513-528-2200", "website": "http://www.easternhillschiropractic.com/", "rating": 4.9, "reviews": 324, "place_id": "ChIJC-ITKhqqQYgR5CF7CA3PXfI", "latitude": 39.1059383, "longitude": -84.2857045, "care_type": "Chiropractor"}, {"name": "Oak Hills Back & Neck Care Center", "address": "5981 Harrison Ave, Cincinnati, OH 45248", "city": "Cincinnati", "phone": "+1 513-598-1693", "website": "http://www.painfreechiro.com/", "rating": 5.0, "reviews": 28, "place_id": "ChIJlfafxN_KQYgRZOe_aF55ixY", "latitude": 39.17781069999999, "longitude": -84.6461879, "care_type": "Chiropractor"}, {"name": "Cincinnati Healing Arts", "address": "3559 Reading Rd #103, Cincinnati, OH 45229", "city": "Cincinnati", "phone": "+1 513-376-3996", "website": "https://www.cincinnatihealingarts.com/%3Futm_source%3DGBP%26utm_medium%3Dorganic", "rating": 4.4, "reviews": 21, "place_id": "ChIJ8ZAg7AyzQYgRHRE-GTZ6CZc", "latitude": 39.1466683, "longitude": -84.4899538, "care_type": "Chiropractor"}, {"name": "Academy Chiropractic Clinic", "address": "7351 Montgomery Rd, Cincinnati, OH 45236", "city": "Cincinnati", "phone": "+1 513-791-7155", "website": "https://www.cohenchiropracticcincinnati.com/", "rating": 5.0, "reviews": 42, "place_id": "ChIJ67ebU9ZSQIgRdnSwQvCEBGM", "latitude": 39.193964, "longitude": -84.39845199999999, "care_type": "Chiropractor"}, {"name": "Auto Injury Center", "address": "2055 Reading Rd suite 230, Cincinnati, OH 45202", "city": "Cincinnati", "phone": "+1 513-525-4500", "website": "https://www.emergencychiropracticofohio.com/", "rating": 5.0, "reviews": 10, "place_id": "ChIJu0m1YqCzQYgRA36VKwYTOt4", "latitude": 39.1196927, "longitude": -84.5005944, "care_type": "Chiropractor"}, {"name": "Miami Heights Chiropractic Center", "address": "6379 Bridgetown Rd, Cincinnati, OH 45248", "city": "Cincinnati", "phone": "+1 513-941-6464", "website": "http://www.miamiheightschiropracticcenter.com/", "rating": 4.7, "reviews": 23, "place_id": "ChIJ858O5oXMQYgRBxm7uDc53eU", "latitude": 39.153129, "longitude": -84.6571156, "care_type": "Chiropractor"}, {"name": "Roots & Wings Chiropractic, LLC", "address": "311 Elm St, Cincinnati, OH 45202", "city": "Cincinnati", "phone": "+1 513-999-6200", "website": "http://www.rootsandwingschiropractic.com/", "rating": 5.0, "reviews": 17, "place_id": "ChIJRWPXfEKxQYgRYzFv0bQXu9I", "latitude": 39.0985802, "longitude": -84.5161155, "care_type": "Chiropractor"}, {"name": "Accident Care & Wellness Center of Cincinnati (Norwood)", "address": "4600 Smith Rd Ste B-1, Norwood, OH 45212", "city": "Norwood", "phone": "+1 513-275-6858", "website": "https://accidentcaretherapy.com/%3Futm_source%3Dgoogle%26utm_medium%3Dlocal%26utm_campaign%3Dgmb_listing", "rating": 5.0, "reviews": 65, "place_id": "ChIJGYb-Co-zQYgROQPpyKJjH54", "latitude": 39.1605788, "longitude": -84.4522788, "care_type": "Chiropractor"}, {"name": "Dr. Louis Valentine", "address": "4015 Executive Park Dr # 110, Cincinnati, OH 45241", "city": "Cincinnati", "phone": "+1 513-788-7246", "website": "https://www.drlouisvalentine.com/", "rating": 5.0, "reviews": 457, "place_id": "ChIJl-GN3JtWQIgRJlEgWTDT3e4", "latitude": 39.2877235, "longitude": -84.3943939, "care_type": "Chiropractor"}, {"name": "Walnut Hills Chiropractic", "address": "711 E McMillan St, Cincinnati, OH 45206", "city": "Cincinnati", "phone": "+1 513-559-1200", "website": "https://walnuthillschiro.com/", "rating": 3.6, "reviews": 5, "place_id": "ChIJ04dKmUCzQYgRUiUBw7_5sU8", "latitude": 39.1260313, "longitude": -84.4945642, "care_type": "Chiropractor"}, {"name": "Cincinnati Spine & Rehab", "address": "3021 Vernon Pl, Cincinnati, OH 45219", "city": "Cincinnati", "phone": "+1 513-751-6990", "website": "https://cincinnatispineandrehab.com/", "rating": 4.8, "reviews": 6, "place_id": "ChIJu78Y3r2zQYgRtpxh7cdTlMk", "latitude": 39.1342833, "longitude": -84.49992019999999, "care_type": "Chiropractor"}, {"name": "Cincinnati Spine and Sport", "address": "504 E Business Way, Cincinnati, OH 45241", "city": "Cincinnati", "phone": "+1 513-354-3800", "website": "http://cincinnatispineandsport.com/", "rating": 5.0, "reviews": 62, "place_id": "ChIJuyj7N0ZRQIgRcKB3FDMxhuI", "latitude": 39.286326, "longitude": -84.3675947, "care_type": "Chiropractor"}, {"name": "Simply Well Chiropractic", "address": "5721 Dragon Way # 101, Cincinnati, OH 45227", "city": "Cincinnati", "phone": "+1 513-271-1233", "website": "https://simplywellchiro.com/", "rating": 5.0, "reviews": 115, "place_id": "ChIJbRVfRFSsQYgRnHzJJsu1rao", "latitude": 39.1408538, "longitude": -84.39304349999999, "care_type": "Chiropractor"}, {"name": "HealthQuest Chiropractic of Cincinnati", "address": "8390 E Kemper Rd Suite A, Cincinnati, OH 45249", "city": "Cincinnati", "phone": "+1 513-774-9800", "website": "https://healthquestspine.com/", "rating": 4.9, "reviews": 430, "place_id": "ChIJUw8xSFxWQIgRqhKTdxD7XGM", "latitude": 39.27527389999999, "longitude": -84.3323884, "care_type": "Chiropractor"}, {"name": "Forest Park Chiropractic & Acupuncture", "address": "1250 W Kemper Rd, Cincinnati, OH 45240", "city": "Cincinnati", "phone": "+1 513-742-0880", "website": "https://www.drreedmoeller.com/", "rating": 4.9, "reviews": 322, "place_id": "ChIJZ-U3O0xJQIgR-zX9By93HV4", "latitude": 39.2900734, "longitude": -84.5268978, "care_type": "Chiropractor"}, {"name": "Mark A. King, DC", "address": "455 Delta Ave, Cincinnati, OH 45226", "city": "Cincinnati", "phone": "+1 513-321-8484", "website": "https://mtlookoutchiro.com/meet-the-doctors/", "rating": 5.0, "reviews": 3, "place_id": "ChIJVaiBUoytQYgRrwZb59WePQ8", "latitude": 39.1189922, "longitude": -84.4385472, "care_type": "Chiropractor"}, {"name": "Alec Tucker , DC", "address": "805 Elm St, Cincinnati, OH 45202", "city": "Cincinnati", "phone": "+1 503-504-8840", "website": "http://shiftchiro.com/", "rating": 5.0, "reviews": 3, "place_id": "ChIJ741UA1SxQYgRWJc4k2HfcLc", "latitude": 39.104346, "longitude": -84.517287, "care_type": "Chiropractor"}, {"name": "Wells Chiropractic", "address": "8035 Hamilton Ave, Cincinnati, OH 45231", "city": "Cincinnati", "phone": "+1 513-522-3600", "website": "http://www.cincinnatichiropractor.com/", "rating": 4.6, "reviews": 46, "place_id": "ChIJ0_l3RqFLQIgRNcWU_Sl7Fec", "latitude": 39.2401917, "longitude": -84.5479567, "care_type": "Chiropractor"}, {"name": "Wyoming Family Chiropractic & Massage", "address": "Springfield Pike, Cincinnati, OH 45215", "city": "Cincinnati", "phone": "+1 513-445-4808", "website": "http://wyomingchiro.com/", "rating": 4.9, "reviews": 35, "place_id": "ChIJo3ydQBZNQIgRYjDhgI7bKmA", "latitude": 39.2406448, "longitude": -84.4719391, "care_type": "Chiropractor"}, {"name": "Apex Chiropractic & Wellness Center: Dr. Laurie Jahnke DC & Dr. Stephan Moje DC", "address": "800 Compton Rd UNIT 4, Cincinnati, OH 45231", "city": "Cincinnati", "phone": "+1 513-931-4300", "website": "https://apexchirocenter.com/%3Futm_source%3Dgoogle%26utm_medium%3Dbusiness_listing%26utm_campaign%3Dhomepage", "rating": 4.9, "reviews": 47, "place_id": "ChIJEeE1mIRMQIgRheJTnxN3yfk", "latitude": 39.2341729, "longitude": -84.5109291, "care_type": "Chiropractor"}, {"name": "Dr. Andrew J. Limle, DC", "address": "4021 Harrison Ave, Cincinnati, OH 45211", "city": "Cincinnati", "phone": "+1 513-661-6666", "website": "http://www.cincinnatichiropractic.com/", "rating": 5.0, "reviews": 17, "place_id": "ChIJtcwwzofKQYgRhgtUoSH3qfM", "latitude": 39.1570362, "longitude": -84.6156908, "care_type": "Chiropractor"}, {"name": "Dr. Kelly Duffner Chiropractor", "address": "Springfield Pike, Cincinnati, OH 45215", "city": "Cincinnati", "phone": "+1 513-445-4808", "website": "http://www.wyomingchiro.com/", "rating": 5.0, "reviews": 20, "place_id": "ChIJcVYDwvFNQIgRzgYFv8_oz0o", "latitude": 39.2406448, "longitude": -84.4719391, "care_type": "Chiropractor"}, {"name": "Embrace Family Chiropractic and Wellness", "address": "3607 Church St Suite 100, Cincinnati, OH 45244", "city": "Cincinnati", "phone": "+1 513-828-5459", "website": "http://www.embracefamilychiro.com/%3Futm_source%3Dgmb%26utm_medium%3Dorganic", "rating": 5.0, "reviews": 39, "place_id": "ChIJbwEngdetQYgRfnTlv0KL0TI", "latitude": 39.1267862, "longitude": -84.360653, "care_type": "Chiropractor"}, {"name": "Elwert Chiropractic", "address": "5616 Cheviot Rd, Cincinnati, OH 45247", "city": "Cincinnati", "phone": "+1 513-741-4700", "website": "https://cincyspinecare.com/", "rating": 4.6, "reviews": 38, "place_id": "ChIJeblREFO1QYgREkhCIwFQU84", "latitude": 39.1937967, "longitude": -84.5986312, "care_type": "Chiropractor"}, {"name": "Beechmont Chiropractic Center", "address": "7801 Beechmont Ave STE 16, Cincinnati, OH 45255", "city": "Cincinnati", "phone": "+1 513-231-4100", "website": "https://www.beechmontchiropracticcenter.com/", "rating": 4.9, "reviews": 40, "place_id": "ChIJ01DjsTupQYgRRI6ONlHE6ss", "latitude": 39.0723255, "longitude": -84.3406461, "care_type": "Chiropractor"}, {"name": "University Pain & Injury", "address": "3000 Vernon Pl, Cincinnati, OH 45219", "city": "Cincinnati", "phone": "+1 513-221-6900", "website": "https://ohiopain.org/", "rating": 4.9, "reviews": 17, "place_id": "ChIJZ3f_eb6zQYgRh4mZDFmx7wI", "latitude": 39.13368, "longitude": -84.4992894, "care_type": "Chiropractor"}, {"name": "Bell Chiropractic & Wellness Center", "address": "4069 E Galbraith Rd, Cincinnati, OH 45236", "city": "Cincinnati", "phone": "+1 513-841-1050", "website": "https://www.bellcincychiro.com/", "rating": 4.8, "reviews": 32, "place_id": "ChIJET1AhVGtQYgRQZIdOzWXmrE", "latitude": 39.2083302, "longitude": -84.4001147, "care_type": "Chiropractor"}, {"name": "Family Tree Chiropractic & Wellness", "address": "8241 Cornell Rd #220, Cincinnati, OH 45249", "city": "Cincinnati", "phone": "+1 513-777-0024", "website": "https://www.familytreecc.com/", "rating": 4.9, "reviews": 73, "place_id": "ChIJtxWZ3h1UQIgRvVFG2zFV0ws", "latitude": 39.2640246, "longitude": -84.33827889999999, "care_type": "Chiropractor"}, {"name": "Accident Care and Wellness Center of Cincinnati (Colerain)", "address": "8878 Colerain Ave, Cincinnati, OH 45251", "city": "Cincinnati", "phone": "+1 513-245-1107", "website": "https://accidentcaretherapy.com/%3Futm_source%3Dgoogle%26utm_medium%3Dlocal%26utm_campaign%3Dgmb_listing", "rating": 5.0, "reviews": 601, "place_id": "ChIJT1FeWYlKQIgRnqK50eAT95E", "latitude": 39.2325448, "longitude": -84.5901494, "care_type": "Chiropractor"}, {"name": "Marcon Chiropractic & Wellness Center", "address": "463 Ohio Pike # 104, Cincinnati, OH 45255", "city": "Cincinnati", "phone": "+1 513-474-1111", "website": "", "rating": 5.0, "reviews": 68, "place_id": "ChIJ7X38ixapQYgRBCwAwk9Web4", "latitude": 39.070935, "longitude": -84.31008299999999, "care_type": "Chiropractor"}, {"name": "Dr. Corbin Critz", "address": "311 Elm St, Cincinnati, OH 45202", "city": "Cincinnati", "phone": "+1 513-999-6200", "website": "http://www.rootsandwingschiropractic.com/", "rating": 5.0, "reviews": 1, "place_id": "ChIJG5ozVxqxQYgRxNEr6cVmqyg", "latitude": 39.0985802, "longitude": -84.5161155, "care_type": "Chiropractor"}, {"name": "Knuckles Chiropractic", "address": "5725 Dragon Way Suite 302-A, Cincinnati, OH 45227", "city": "Cincinnati", "phone": "+1 513-313-4803", "website": "https://knuckleschiropractic.com/", "rating": 5.0, "reviews": 36, "place_id": "ChIJXVAAOOitQYgR69UoVIA0nLI", "latitude": 39.140993, "longitude": -84.39215399999999, "care_type": "Chiropractor"}, {"name": "Sheppard Chiropractic", "address": "3878 McMann Rd, Cincinnati, OH 45245", "city": "Cincinnati", "phone": "+1 513-753-7246", "website": "http://sheppardchiropractic.com/", "rating": 4.9, "reviews": 379, "place_id": "ChIJTUj-zXEHQYgRgo-G9_HWx-g", "latitude": 39.0566158, "longitude": -84.25617539999999, "care_type": "Chiropractor"}, {"name": "Fick Chiropractic Centers", "address": "415 Glensprings Dr #100, Cincinnati, OH 45246", "city": "Cincinnati", "phone": "+1 513-851-8686", "website": "http://www.fickchiropractic.com/", "rating": 4.6, "reviews": 37, "place_id": "ChIJxeK1A41OQIgRLoF24s8zRg4", "latitude": 39.2924915, "longitude": -84.4882757, "care_type": "Chiropractor"}, {"name": "Bliss Chiropractic and Acupuncture", "address": "7687 Beechmont Ave, Cincinnati, OH 45255", "city": "Cincinnati", "phone": "+1 513-232-9040", "website": "https://www.blisschiro.com/", "rating": 4.8, "reviews": 115, "place_id": "ChIJEzrjjzCpQYgR_6AQHRZ0p44", "latitude": 39.0715543, "longitude": -84.3444519, "care_type": "Chiropractor"}, {"name": "Northwest Chiropractic", "address": "8221 Colerain Ave, Cincinnati, OH 45239", "city": "Cincinnati", "phone": "+1 513-923-9300", "website": "http://spearsdc.com/", "rating": 5.0, "reviews": 11, "place_id": "ChIJfYssvZRKQIgR3BZH4yqJQlo", "latitude": 39.2205973, "longitude": -84.5872887, "care_type": "Chiropractor"}, {"name": "Patrick J. Brunner D.C., L.L.C.", "address": "5330 Rapid Run Rd, Cincinnati, OH 45238", "city": "Cincinnati", "phone": "+1 513-922-0606", "website": "http://brunnerchiropractic.com/", "rating": 4.7, "reviews": 13, "place_id": "ChIJYeYhDPfJQYgRLN0d96mif3U", "latitude": 39.1105942, "longitude": -84.6181548, "care_type": "Chiropractor"}, {"name": "Clearly Chiropractic- Dr. Jack Hendricks", "address": "1228 Nordica Ln, Cincinnati, OH 45255", "city": "Cincinnati", "phone": "+1 513-474-9377", "website": "https://clearlychiropractic.com/", "rating": 5.0, "reviews": 83, "place_id": "ChIJJzGr8D2pQYgR8-KJVqUDi0M", "latitude": 39.0734937, "longitude": -84.33358679999999, "care_type": "Chiropractor"}, {"name": "Shelby Chiropractic", "address": "8221 Colerain Ave, Cincinnati, OH 45239", "city": "Cincinnati", "phone": "+1 513-521-4333", "website": "https://www.drskyshelby.com/", "rating": 4.8, "reviews": 82, "place_id": "ChIJU1KGl5RKQIgREDcNIfMBuEY", "latitude": 39.2205973, "longitude": -84.5872887, "care_type": "Chiropractor"}, {"name": "OTR Chiropractic & Acupuncture", "address": "910 Race St, Cincinnati, OH 45202", "city": "Cincinnati", "phone": "+1 513-913-0014", "website": "", "rating": 5.0, "reviews": 3, "place_id": "ChIJyxjX-8exQYgR3iy3GxzKk6c", "latitude": 39.1055251, "longitude": -84.5154601, "care_type": "Chiropractor"}, {"name": "Cincinnati Rehabilitation Center", "address": "10198 Springfield Pike, Cincinnati, OH 45215", "city": "Cincinnati", "phone": "+1 513-772-9065", "website": "http://www.cincyrehabcenter.com/%3FUTM_source%3DGBL", "rating": 4.9, "reviews": 94, "place_id": "ChIJHWi2cMhNQIgRe6C3c-wWZYw", "latitude": 39.253344, "longitude": -84.4696836, "care_type": "Chiropractor"}, {"name": "Advance Chiropractic & Nutrition", "address": "792 Eastgate S Dr Ste 750, Cincinnati, OH 45245", "city": "Cincinnati", "phone": "+1 513-843-7323", "website": "https://www.advchironutrition.com/%3Futm_source%3Dgoogle%26utm_medium%3Dlocal%26utm_campaign%3Dgmb_listing", "rating": 5.0, "reviews": 15, "place_id": "ChIJ-ypjOboHQYgRJEqsrQwIFIo", "latitude": 39.095417, "longitude": -84.267456, "care_type": "Chiropractor"}, {"name": "Eastgate Homan Chiropractic", "address": "4380 Glen Este-Withamsville Rd, Cincinnati, OH 45245", "city": "Cincinnati", "phone": "+1 513-753-6325", "website": "https://www.homanchiropractic.com/", "rating": 4.9, "reviews": 189, "place_id": "ChIJ6d4LOlEHQYgRzqqjqUsVEpU", "latitude": 39.0918661, "longitude": -84.26308209999999, "care_type": "Chiropractor"}, {"name": "A Better Life Chiropractic", "address": "9882 Colerain Ave, Cincinnati, OH 45251", "city": "Cincinnati", "phone": "+1 513-540-1159", "website": "https://www.abetterlifechiro.com/%3Futm_source%3DGBP%26utm_medium%3Dorganic", "rating": 4.8, "reviews": 139, "place_id": "ChIJwTYjnXFKQIgRJ9uGom0RNqk", "latitude": 39.2520497, "longitude": -84.59703379999999, "care_type": "Chiropractor"}, {"name": "Kevin Huey, DC", "address": "7106 Pippin Rd, Cincinnati, OH 45239", "city": "Cincinnati", "phone": "+1 513-931-8829", "website": "http://www.nchspine.com/", "rating": 5.0, "reviews": 26, "place_id": "ChIJx7jB1m9KQIgR40cl0xP7mtc", "latitude": 39.2110072, "longitude": -84.57350629999999, "care_type": "Chiropractor"}, {"name": "Form + Function Movement Lab", "address": "934 E McMillan St Unit B, Cincinnati, OH 45206", "city": "Cincinnati", "phone": "+1 513-268-6683", "website": "http://ffmovementlab.com/", "rating": 5.0, "reviews": 94, "place_id": "ChIJJwcfWK-tQYgRPrfLEih73rM", "latitude": 39.1261505, "longitude": -84.4893596, "care_type": "Chiropractor"}, {"name": "Dr. John Ruch, DC", "address": "3233 Westbourne Dr, Cincinnati, OH 45248", "city": "Cincinnati", "phone": "+1 513-922-1598", "website": "https://drjohnruch.com/", "rating": 4.6, "reviews": 11, "place_id": "ChIJeajQEV3KQYgRw8WAmqLJeVY", "latitude": 39.1450713, "longitude": -84.6298379, "care_type": "Chiropractor"}, {"name": "Guenthner Chiropractic", "address": "3257 W Galbraith Rd, Cincinnati, OH 45239", "city": "Cincinnati", "phone": "+1 513-741-9090", "website": "https://www.mercy.com/find-a-doctor/physicians/karen-m-guenthner/290264", "rating": 5.0, "reviews": 1, "place_id": "ChIJ2Yu8P5RKQIgR-Nts8to8GJo", "latitude": 39.2198988, "longitude": -84.5891444, "care_type": "Chiropractor"}, {"name": "Advanced Chiropractic & Rehab", "address": "8041 Hosbrook Rd #404, Cincinnati, OH 45236", "city": "Cincinnati", "phone": "+1 513-793-6104", "website": "http://www.advchiro.us/", "rating": 5.0, "reviews": 1, "place_id": "ChIJiectukFTQIgRVRypbLh1S-I", "latitude": 39.2039129, "longitude": -84.3717904, "care_type": "Chiropractor"}, {"name": "Steven W. King, DC", "address": "455 Delta Ave, Cincinnati, OH 45226", "city": "Cincinnati", "phone": "+1 513-321-8484", "website": "", "rating": 5.0, "reviews": 1, "place_id": "ChIJVaiBUoytQYgRwn4RZes_rqQ", "latitude": 39.1190018, "longitude": -84.43856249999999, "care_type": "Chiropractor"}, {"name": "Centers of Active Spine Health", "address": "1444 Linn St, Cincinnati, OH 45214", "city": "Cincinnati", "phone": "+1 513-429-5412", "website": "", "rating": 3.8, "reviews": 5, "place_id": "ChIJqbXciwG0QYgRvByMilW3B5s", "latitude": 39.1109409, "longitude": -84.5272438, "care_type": "Chiropractor"}, {"name": "Mason Chiropractic and Rehabilitation Center", "address": "111 Reading Rd, Mason, OH 45040", "city": "Mason", "phone": "+1 513-398-2020", "website": "http://masonchirocenter.com/", "rating": 5.0, "reviews": 25, "place_id": "ChIJ7Z6kPM1ZQIgRtoH1IKecs20", "latitude": 39.360156, "longitude": -84.3130479, "care_type": "Chiropractor"}, {"name": "Hospital terapias gissel", "address": "3418 Burnet Ave, Cincinnati, OH 45229", "city": "Cincinnati", "phone": "", "website": "", "rating": null, "reviews": 0, "place_id": "ChIJXatDWQCzQYgRK5S5I9zaQRc", "latitude": 39.1425641, "longitude": -84.4998418, "care_type": "Chiropractor"}, {"name": "Lawrence E. Wells, DC", "address": "6581 Gracely Dr, Cincinnati, OH 45233", "city": "Cincinnati", "phone": "+1 513-941-6650", "website": "http://saylerparkchiropractic.com/", "rating": 5.0, "reviews": 3, "place_id": "ChIJndQxf6vOQYgR8j-g6GptI7s", "latitude": 39.1120857, "longitude": -84.6924353, "care_type": "Chiropractor"}, {"name": "Brianna Opperman, DC, CCSP", "address": "4021 Harrison Ave, Cincinnati, OH 45211", "city": "Cincinnati", "phone": "+1 513-661-6666", "website": "http://cincinnatichiropractic.com/", "rating": 5.0, "reviews": 1, "place_id": "ChIJ10Mj3CrLQYgRGY3rGWEjTCM", "latitude": 39.1570472, "longitude": -84.6158181, "care_type": "Chiropractor"}, {"name": "Three Hab", "address": "Cincinnati, OH 45220", "city": "Cincinnati", "phone": "+1 513-221-3422", "website": "http://www.3hab.com/", "rating": 1.7, "reviews": 6, "place_id": "ChIJAQAAAISzQYgRMcLMRtE0ikk", "latitude": 39.145206, "longitude": -84.5170006, "care_type": "Chiropractor"}, {"name": "Dr. Michael Nell", "address": "2847 Woodburn Ave, Cincinnati, OH 45206", "city": "Cincinnati", "phone": "+1 513-861-0033", "website": "https://www.fickchiropractic.com/staff", "rating": null, "reviews": 0, "place_id": "ChIJC5GxTUqyQYgRT4LLBcRA118", "latitude": 39.1301328, "longitude": -84.4768411, "care_type": "Chiropractor"}, {"name": "Pagani Neurological Institute", "address": "111 Wellington Pl, Cincinnati, OH 45219", "city": "Cincinnati", "phone": "+1 513-621-0007", "website": "", "rating": null, "reviews": 0, "place_id": "ChIJ3-ZEKeyzQYgRGWco9SE5z3g", "latitude": 39.1240849, "longitude": -84.509653, "care_type": "Chiropractor"}, {"name": "Toledo Chiropractic, LLC", "address": "743 S Byrne Rd, Toledo, OH 43609", "city": "Toledo", "phone": "+1 419-382-7400", "website": "https://www.toledochiropractic.net/", "rating": 4.6, "reviews": 87, "place_id": "ChIJB6H0Nvh4PIgRGKT7BbjNl58", "latitude": 41.6260072, "longitude": -83.6254744, "care_type": "Chiropractor"}, {"name": "The Joint Chiropractic", "address": "3504 Secor Rd Suite 325, Toledo, OH 43606", "city": "Toledo", "phone": "+1 419-273-9601", "website": "https://www.thejoint.com/ohio/toledo/west-toledo-17007", "rating": 4.7, "reviews": 296, "place_id": "ChIJJV_Q6Rd_PIgRoZt-t7dEJ2o", "latitude": 41.6840268, "longitude": -83.6221951, "care_type": "Chiropractor"}, {"name": "1st Choice Chiropractic & Acupuncture", "address": "2955 W Sylvania Ave, Toledo, OH 43613", "city": "Toledo", "phone": "+1 419-473-2955", "website": "http://www.1stchoicechiropractor.com/", "rating": 4.9, "reviews": 193, "place_id": "ChIJgzsclRJ_PIgRiN7qf2iyt60", "latitude": 41.6917191, "longitude": -83.6151501, "care_type": "Chiropractor"}, {"name": "Glass City Spine", "address": "4333 Monroe St D, Toledo, OH 43606", "city": "Toledo", "phone": "+1 419-472-2610", "website": "http://glasscityspine.com/", "rating": 4.9, "reviews": 188, "place_id": "ChIJR6iblGp_PIgRT36WbwIYHWQ", "latitude": 41.6840139, "longitude": -83.6120476, "care_type": "Chiropractor"}, {"name": "Prime Chiropractic Center", "address": "2735 N Holland Sylvania Rd #b1, Toledo, OH 43615", "city": "Toledo", "phone": "+1 419-930-6607", "website": "http://www.primechirocenter.com/", "rating": 5.0, "reviews": 72, "place_id": "ChIJbU5YXoB9PIgRykeA6sxqQto", "latitude": 41.6721497, "longitude": -83.6832404, "care_type": "Chiropractor"}, {"name": "Foundation Chiropractic Clinic", "address": "1515 S Byrne Rd #106, Toledo, OH 43614", "city": "Toledo", "phone": "+1 419-389-1721", "website": "https://www.doctorjajuga.com/", "rating": 5.0, "reviews": 279, "place_id": "ChIJf_jOgk94PIgRVw_jp9nEF84", "latitude": 41.611621, "longitude": -83.624461, "care_type": "Chiropractor"}, {"name": "Fairwood Chiropractic & Physical Therapy", "address": "5215 Monroe St #4, Toledo, OH 43623", "city": "Toledo", "phone": "+1 419-843-1515", "website": "https://www.fairwoodchiropractic.com/", "rating": 5.0, "reviews": 264, "place_id": "ChIJ2ScGIvR-PIgRYUgsRuDc9sw", "latitude": 41.7004101, "longitude": -83.6514713, "care_type": "Chiropractor"}, {"name": "Monroe Street Chiropractic", "address": "4165 Monroe St # A, Toledo, OH 43606", "city": "Toledo", "phone": "+1 419-754-1100", "website": "", "rating": 5.0, "reviews": 6, "place_id": "ChIJsU_zX0J_PIgRm4qmp13UBQA", "latitude": 41.6811535, "longitude": -83.60554239999999, "care_type": "Chiropractor"}, {"name": "East Toledo Chiropractic", "address": "431 E Broadway St, Toledo, OH 43605", "city": "Toledo", "phone": "+1 419-693-0721", "website": "", "rating": 5.0, "reviews": 8, "place_id": "ChIJlyV4faOGO4gR9jyERVS7Hsg", "latitude": 41.6425652, "longitude": -83.5156147, "care_type": "Chiropractor"}, {"name": "Chiropractic 419", "address": "6546 Weatherfield Ct C1, Maumee, OH 43537", "city": "Maumee", "phone": "+1 419-720-1472", "website": "http://www.chiro419.com/", "rating": 4.9, "reviews": 351, "place_id": "ChIJTe4rodp5PIgRDs1LPwPsch4", "latitude": 41.5759854, "longitude": -83.6990014, "care_type": "Chiropractor"}, {"name": "Aligned Family Chiropractic", "address": "2477 Shoreland Ave, Toledo, OH 43611", "city": "Toledo", "phone": "+1 419-729-1619", "website": "http://alignedfamilychiropractic.com/", "rating": 5.0, "reviews": 45, "place_id": "ChIJpRNHTROCO4gRi4w_Gs343PU", "latitude": 41.7211477, "longitude": -83.4858371, "care_type": "Chiropractor"}, {"name": "Westgate Spine and Rehab", "address": "3450 Central Ave #136, Toledo, OH 43606", "city": "Toledo", "phone": "+1 419-536-2222", "website": "", "rating": 4.9, "reviews": 33, "place_id": "ChIJfYRD2uF_PIgRS29z0TCH-bE", "latitude": 41.6781405, "longitude": -83.6270048, "care_type": "Chiropractor"}, {"name": "Toledo Holistic Healthcare Chiropractic & Acupuncture", "address": "2828 Central Ave #1, Toledo, OH 43606", "city": "Toledo", "phone": "+1 419-472-7055", "website": "http://acupuncturetoledo.com/", "rating": 4.7, "reviews": 30, "place_id": "ChIJt5SUIUN_PIgRK__Mb_vy_Io", "latitude": 41.6776971, "longitude": -83.61208959999999, "care_type": "Chiropractor"}, {"name": "Team Chiropractic", "address": "4887 Monroe St, Toledo, OH 43623", "city": "Toledo", "phone": "+1 419-475-8326", "website": "https://teamchiropractictoledo.com/", "rating": 4.8, "reviews": 38, "place_id": "ChIJpfWEEv1-PIgROsrI_-BIiMY", "latitude": 41.6956784, "longitude": -83.6367966, "care_type": "Chiropractor"}, {"name": "Fields Chiropractic", "address": "4405 Talmadge Rd # 2, Toledo, OH 43623", "city": "Toledo", "phone": "+1 419-474-8000", "website": "", "rating": 4.7, "reviews": 34, "place_id": "ChIJ_RHhe_p-PIgRp6jDZQ67hUs", "latitude": 41.697319, "longitude": -83.64545439999999, "care_type": "Chiropractor"}, {"name": "Frame Chiropractic and Acupuncture", "address": "4417 N Holland Sylvania Rd Unit 301-A, Toledo, OH 43623", "city": "Toledo", "phone": "+1 419-475-9355", "website": "https://www.getwelltoledo.com/%3Futm_source%3DGBP%26utm_medium%3Dorganic", "rating": 4.9, "reviews": 113, "place_id": "ChIJgQv4qeV-PIgR-R1rpWO_DdI", "latitude": 41.696739, "longitude": -83.6906133, "care_type": "Chiropractor"}, {"name": "McMahon and Conner Chiropractic", "address": "1850 Eastgate Rd STE I, Toledo, OH 43614", "city": "Toledo", "phone": "+1 419-385-0002", "website": "http://www.mcmahonandconnerchiro.com/", "rating": 5.0, "reviews": 57, "place_id": "ChIJoWy5eL95PIgRfXWd4WGVgoU", "latitude": 41.6053735, "longitude": -83.65337889999999, "care_type": "Chiropractor"}, {"name": "Toledo Chiropractic & Rehab", "address": "4041 W Sylvania Ave, Toledo, OH 43623", "city": "Toledo", "phone": "+1 419-214-1550", "website": "", "rating": 5.0, "reviews": 1, "place_id": "ChIJ67xTl3d_PIgRevSGRKeIkj0", "latitude": 41.69088379999999, "longitude": -83.6390855, "care_type": "Chiropractor"}, {"name": "Taylor Walk-In Chiropractic", "address": "5350 Airport Hwy, Toledo, OH 43615", "city": "Toledo", "phone": "+1 419-382-2225", "website": "", "rating": 4.3, "reviews": 11, "place_id": "ChIJ4WBneoV5PIgRLUwzNwyoUhk", "latitude": 41.6170664, "longitude": -83.66860679999999, "care_type": "Chiropractor"}, {"name": "Hampton Park Chiropractic", "address": "4253 Monroe St, Toledo, OH 43606", "city": "Toledo", "phone": "+1 419-214-1610", "website": "", "rating": 4.9, "reviews": 14, "place_id": "ChIJbx59_kF_PIgR--0-k8tl0Co", "latitude": 41.682448, "longitude": -83.608532, "care_type": "Chiropractor"}, {"name": "Connie S. Smith, DC", "address": "2955 W Sylvania Ave, Toledo, OH 43613", "city": "Toledo", "phone": "+1 419-473-2955", "website": "http://1stchoicechiropractors.com/", "rating": 4.7, "reviews": 16, "place_id": "ChIJgzsclRJ_PIgRZLb7V9L0mGE", "latitude": 41.6916849, "longitude": -83.6151957, "care_type": "Chiropractor"}, {"name": "Dr. Mickey Frame", "address": "4417 N Holland Sylvania Rd Unit 301-A, Toledo, OH 43623", "city": "Toledo", "phone": "", "website": "https://getwelltoledo.com/", "rating": 4.4, "reviews": 7, "place_id": "ChIJqyXV9OF-PIgRJlBFW79-gg0", "latitude": 41.696739, "longitude": -83.6906133, "care_type": "Chiropractor"}, {"name": "Toledo Chiropractic Wellness", "address": "4334 Central Ave Suite 210, Toledo, OH 43615", "city": "Toledo", "phone": "+1 419-902-7101", "website": "", "rating": 5.0, "reviews": 3, "place_id": "ChIJgW0nAm9_PIgRlDS1092SwRk", "latitude": 41.6773977, "longitude": -83.6452065, "care_type": "Chiropractor"}, {"name": "Accident & Injury Pain Center", "address": "602 W Sylvania Ave, Toledo, OH 43612", "city": "Toledo", "phone": "+1 419-478-8600", "website": "https://www.findlaywellspine.com/location/findlay-family-chiropractic-clinic-toledo", "rating": 5.0, "reviews": 4, "place_id": "ChIJW-gnTPqAO4gR8NfmiFhQoL8", "latitude": 41.6929999, "longitude": -83.5579705, "care_type": "Chiropractor"}, {"name": "St. John Chiropractic", "address": "5232 N Summit St, Toledo, OH 43611", "city": "Toledo", "phone": "+1 419-727-1790", "website": "", "rating": 5.0, "reviews": 5, "place_id": "ChIJYc_hnmmCO4gRIWcT3y3p2CI", "latitude": 41.7174448, "longitude": -83.4790415, "care_type": "Chiropractor"}, {"name": "Skrzynecki Chiropractic", "address": "2526 N Reynolds Rd, Toledo, OH 43615", "city": "Toledo", "phone": "+1 419-842-1235", "website": "", "rating": 5.0, "reviews": 3, "place_id": "ChIJeyO-9OF-PIgRRELS1mBiOBM", "latitude": 41.6687332, "longitude": -83.66744349999999, "care_type": "Chiropractor"}, {"name": "Dr. Michael Jajuga", "address": "1515 S Byrne Rd, Toledo, OH 43614", "city": "Toledo", "phone": "+1 419-389-1721", "website": "https://www.doctorjajuga.com/", "rating": 4.6, "reviews": 11, "place_id": "ChIJq6pqf094PIgRXtKSscUbGuY", "latitude": 41.6114835, "longitude": -83.62455949999999, "care_type": "Chiropractor"}, {"name": "Valleybrook Chiropractic Clinic", "address": "2600 N Reynolds Rd SUITE 103A, Toledo, OH 43615", "city": "Toledo", "phone": "+1 419-531-5366", "website": "https://www.toledochiropractor.net/", "rating": 3.4, "reviews": 10, "place_id": "ChIJB_wEc61-PIgRgDJf4Qw_C5I", "latitude": 41.6694952, "longitude": -83.6675016, "care_type": "Chiropractor"}, {"name": "Brendan F. Mcmahon, DC", "address": "1850 Eastgate Rd STE I, Toledo, OH 43614", "city": "Toledo", "phone": "+1 419-385-0002", "website": "http://www.mcmahonchiropractictoledo.com/dr-mcmahon.htm", "rating": 4.8, "reviews": 12, "place_id": "ChIJoWy5eL95PIgRkL19QTTePw0", "latitude": 41.6053735, "longitude": -83.65337889999999, "care_type": "Chiropractor"}, {"name": "Richard F. Buck, Chiropractor", "address": "5207 Secor Rd, Toledo, OH 43623", "city": "Toledo", "phone": "+1 419-474-1002", "website": "", "rating": 4.1, "reviews": 13, "place_id": "ChIJ81qbC7p_PIgRrPaqVJdA2aY", "latitude": 41.7095985, "longitude": -83.6243286, "care_type": "Chiropractor"}, {"name": "Schraw Chiropractic", "address": "2821 N Holland Sylvania Rd, Toledo, OH 43615", "city": "Toledo", "phone": "+1 419-531-6000", "website": "", "rating": 5.0, "reviews": 15, "place_id": "ChIJh2Po9QN8PIgRBiiovCyeQEA", "latitude": 41.6727399, "longitude": -83.6835534, "care_type": "Chiropractor"}, {"name": "Michael A Poitinger DC", "address": "1825 N Reynolds Rd, Toledo, OH 43615", "city": "Toledo", "phone": "+1 419-535-1331", "website": "", "rating": 5.0, "reviews": 7, "place_id": "ChIJoYakP1B5PIgRF7Yuss4lvO4", "latitude": 41.6574829, "longitude": -83.66793969999999, "care_type": "Chiropractor"}, {"name": "Timothy E. Trax, DC", "address": "2955 W Sylvania Ave, Toledo, OH 43613", "city": "Toledo", "phone": "+1 419-474-9019", "website": "http://1stchoicechiropractor.com/", "rating": 5.0, "reviews": 9, "place_id": "ChIJgzsclRJ_PIgRSOBr4ADYIk8", "latitude": 41.6916849, "longitude": -83.6151957, "care_type": "Chiropractor"}, {"name": "Walter P. Grady, DC", "address": "3773 Monroe St, Toledo, OH 43606", "city": "Toledo", "phone": "+1 419-473-2818", "website": "", "rating": 4.9, "reviews": 14, "place_id": "ChIJjXdgr6eAO4gR9dbhNhH9K3M", "latitude": 41.6738238, "longitude": -83.590211, "care_type": "Chiropractor"}, {"name": "Body Resort, LLC", "address": "5612 W Bancroft St, Toledo, OH 43615", "city": "Toledo", "phone": "+1 419-410-8776", "website": "", "rating": null, "reviews": 0, "place_id": "ChIJTRfqcxF5PIgRACAqcps3wCg", "latitude": 41.6625025, "longitude": -83.6751081, "care_type": "Chiropractor"}, {"name": "The Wellness Corner", "address": "7409 Central Ave, Toledo, OH 43617", "city": "Toledo", "phone": "+1 419-320-7797", "website": "https://the-wellness-corner.square.site/", "rating": 5.0, "reviews": 13, "place_id": "ChIJq6rqAot-PIgRs2dUYbhPh4k", "latitude": 41.67302859999999, "longitude": -83.7202664, "care_type": "Chiropractor"}, {"name": "Well Balanced Chiropractic, Inc.", "address": "991 Commerce Dr, Perrysburg, OH 43551", "city": "Perrysburg", "phone": "+1 419-874-7700", "website": "http://www.wellbalancedchiro.com/", "rating": 5.0, "reviews": 494, "place_id": "ChIJJaBirsh3PIgREMeekg36EwE", "latitude": 41.5406622, "longitude": -83.63770699999999, "care_type": "Chiropractor"}, {"name": "Dr. Jeff Koepfler, D.C.", "address": "4400 Heatherdowns Blvd #5a, Toledo, OH 43614", "city": "Toledo", "phone": "+1 419-720-1472", "website": "https://www.chiro419.com/", "rating": 5.0, "reviews": 2, "place_id": "ChIJ_Wqitdp5PIgRrs8UKMYD244", "latitude": 41.5951165, "longitude": -83.6467253, "care_type": "Chiropractor"}, {"name": "Warner Mark DC", "address": "4554 N Summit St, Toledo, OH 43611", "city": "Toledo", "phone": "+1 419-726-1352", "website": "", "rating": 5.0, "reviews": 8, "place_id": "ChIJXS0ej0WCO4gRP4GRJMXEA-8", "latitude": 41.7053745, "longitude": -83.4784974, "care_type": "Chiropractor"}, {"name": "Turning Point Chiropractic, LLC", "address": "353 Elm St, Perrysburg, OH 43551", "city": "Perrysburg", "phone": "+1 419-874-4840", "website": "https://uppercervicaltoledo.com/", "rating": 5.0, "reviews": 49, "place_id": "ChIJy4fZlaR3PIgRvpM6AvWxugg", "latitude": 41.5584481, "longitude": -83.6257389, "care_type": "Chiropractor"}, {"name": "Jerome C. Dombeck, DC", "address": "4887 Monroe St, Toledo, OH 43623", "city": "Toledo", "phone": "+1 419-475-8326", "website": "https://www.teamchiropractictoledo.com/staff/", "rating": 5.0, "reviews": 4, "place_id": "ChIJ450RSOR-PIgRwZWQa08hjXQ", "latitude": 41.6956448, "longitude": -83.63682229999999, "care_type": "Chiropractor"}, {"name": "The Joint Chiropractic", "address": "10630 Fremont Pike Suite 2, Perrysburg, OH 43551", "city": "Perrysburg", "phone": "+1 419-871-4200", "website": "https://www.thejoint.com/ohio/perrysburg/perrysburg-17020", "rating": 4.8, "reviews": 139, "place_id": "ChIJna3NFWV3PIgR3B9R30J6xf8", "latitude": 41.5492165, "longitude": -83.5977545, "care_type": "Chiropractor"}, {"name": "Sylvania Chiropractic", "address": "7135 W Sylvania Ave # 1B, Sylvania, OH 43560", "city": "Sylvania", "phone": "+1 419-841-3273", "website": "https://www.sylvaniachiropractic.com/", "rating": 5.0, "reviews": 2, "place_id": "ChIJTw9IAV58PIgRTojxoJ7X4mE", "latitude": 41.6888199, "longitude": -83.71491189999999, "care_type": "Chiropractor"}, {"name": "Innate Health Chiropractic", "address": "26580 N Dixie Hwy #101, Perrysburg, OH 43551", "city": "Perrysburg", "phone": "+1 419-872-2255", "website": "https://www.getinnatehealth.com/", "rating": 4.9, "reviews": 120, "place_id": "ChIJOR5MFlZ2PIgReFSR4iPW68k", "latitude": 41.5386909, "longitude": -83.63391109999999, "care_type": "Chiropractor"}, {"name": "Bryan D. Royer, DC, DACNB, CCSP - Sports Medicine - Functional Neurology", "address": "5800 Monroe St A11, Sylvania, OH 43560", "city": "Sylvania", "phone": "+1 419-517-5055", "website": "https://harmonychiro.com/", "rating": 4.6, "reviews": 9, "place_id": "ChIJr_tqVXJ8PIgReTTX9l38VOc", "latitude": 41.7113312, "longitude": -83.6786868, "care_type": "Chiropractor"}, {"name": "Frame Animal Chiropractic", "address": "4417 N Holland Sylvania Rd, Toledo, OH 43623", "city": "Toledo", "phone": "+1 419-475-9355", "website": "https://frameanimalchiro.com/", "rating": 5.0, "reviews": 2, "place_id": "ChIJJ9tIyud9PIgRfRK3cTyoYQs", "latitude": 41.696739, "longitude": -83.6906133, "care_type": "Chiropractor"}, {"name": "Herbert B. Schraw, DC", "address": "2821 N Holland Sylvania Rd, Toledo, OH 43615", "city": "Toledo", "phone": "+1 419-531-6000", "website": "", "rating": 4.8, "reviews": 11, "place_id": "ChIJh2Po9QN8PIgRO7btktvHAdk", "latitude": 41.6727464, "longitude": -83.6831239, "care_type": "Chiropractor"}, {"name": "Heatherdowns Chiropractic Wellness Center", "address": "2526 Perrysburg Holland Rd, Maumee, OH 43537", "city": "Maumee", "phone": "+1 419-866-0462", "website": "http://www.heatherdownschiropractic.com/", "rating": 5.0, "reviews": 5, "place_id": "ChIJKTVJ_QR6PIgRpNLfkC7WTyE", "latitude": 41.5937774, "longitude": -83.68381169999999, "care_type": "Chiropractor"}, {"name": "Precision Spinal Care", "address": "10005 Fremont Pike, Perrysburg, OH 43551", "city": "Perrysburg", "phone": "+1 419-873-7223", "website": "https://www.chiropractorperrysburg.com/", "rating": 5.0, "reviews": 56, "place_id": "ChIJk6qpytSJO4gR-9bprUdMyCE", "latitude": 41.54208149999999, "longitude": -83.58762019999999, "care_type": "Chiropractor"}, {"name": "Lollar Daniel E DC", "address": "THE AVERILL BUILDING, 2600 N Reynolds Rd # 102C, Toledo, OH 43615", "city": "Toledo", "phone": "+1 419-537-8624", "website": "", "rating": 5.0, "reviews": 5, "place_id": "ChIJgVc-lq1-PIgRwrnqKyWznog", "latitude": 41.6693826, "longitude": -83.6676207, "care_type": "Chiropractor"}, {"name": "Healthy Family Chiropractic", "address": "5525 Harroun Rd, Sylvania, OH 43560", "city": "Sylvania", "phone": "+1 419-322-0741", "website": "http://www.hfchiropractic.com/", "rating": 5.0, "reviews": 18, "place_id": "ChIJDTp5ysl9PIgR8UhgOktQSFs", "latitude": 41.714674, "longitude": -83.6952613, "care_type": "Chiropractor"}, {"name": "Bentley Chiropractic, Inc", "address": "123 E William St, Maumee, OH 43537", "city": "Maumee", "phone": "+1 419-893-0231", "website": "https://www.getwellmaumee.com/", "rating": 4.5, "reviews": 17, "place_id": "ChIJ3Wg81hR3PIgRb7SSlNU74Ys", "latitude": 41.5653355, "longitude": -83.6535217, "care_type": "Chiropractor"}, {"name": "Engel Chiropractic, Inc.", "address": "26597 N Dixie Hwy Ste 159, Perrysburg, OH 43551", "city": "Perrysburg", "phone": "+1 419-874-9744", "website": "https://engelchiropractic.com/", "rating": 4.9, "reviews": 140, "place_id": "ChIJwzEyVPh2PIgRj42NdLaXr60", "latitude": 41.5374555, "longitude": -83.63745829999999, "care_type": "Chiropractor"}, {"name": "Boneyard Chiropractic Clinic", "address": "27108 Oakmead Dr, Perrysburg, OH 43551", "city": "Perrysburg", "phone": "+1 419-872-2100", "website": "", "rating": 4.8, "reviews": 41, "place_id": "ChIJxb8VWtR3PIgRL28Ar9prmUA", "latitude": 41.5458575, "longitude": -83.59512629999999, "care_type": "Chiropractor"}, {"name": "Holland chiropractic & therapy center", "address": "757 S McCord Rd, Holland, OH 43528", "city": "Holland", "phone": "+1 419-865-1727", "website": "", "rating": 4.4, "reviews": 29, "place_id": "ChIJp3ktW0t6PIgRgDowhNSdGHI", "latitude": 41.6268752, "longitude": -83.7028551, "care_type": "Chiropractor"}, {"name": "New Life Spine Center", "address": "1331 Conant St #104, Maumee, OH 43537", "city": "Maumee", "phone": "+1 419-724-5433", "website": "http://newlifespinecenter.net/", "rating": 4.7, "reviews": 44, "place_id": "ChIJ1XWBZUN3PIgRUDSeP2FUOLk", "latitude": 41.5744855, "longitude": -83.6608002, "care_type": "Chiropractor"}, {"name": "Dr. Shawn Brohl , D.C.", "address": "7015 Spring Meadows W Dr Suite 100, Holland, OH 43528", "city": "Holland", "phone": "+1 419-866-6325", "website": "http://springmeadowschiropractic.com/", "rating": 5.0, "reviews": 8, "place_id": "ChIJS3jq_UN6PIgRCcCaxm-gYO8", "latitude": 41.6109721, "longitude": -83.7100427, "care_type": "Chiropractor"}, {"name": "James C. Kreger, D.C. LLC", "address": "7584 Kings Pointe Rd, Toledo, OH 43617", "city": "Toledo", "phone": "+1 419-841-4207", "website": "", "rating": 5.0, "reviews": 5, "place_id": "ChIJ_f_E_Yt8PIgRwOAmeN2G4qg", "latitude": 41.6847054, "longitude": -83.7252259, "care_type": "Chiropractor"}, {"name": "Dr. Deana Burrington", "address": "2477 Shoreland Ave, Toledo, OH 43611", "city": "Toledo", "phone": "+1 419-729-1619", "website": "http://www.lajinessfamilychiro.com/", "rating": 5.0, "reviews": 1, "place_id": "ChIJ___7TBOCO4gRgnoopT8-bpU", "latitude": 41.7211477, "longitude": -83.4858371, "care_type": "Chiropractor"}, {"name": "Jacob Brandman D.C.", "address": "Prime Chiropractic Center, 2735 N Holland Sylvania Rd #b1, Toledo, OH 43615", "city": "Toledo", "phone": "+1 419-930-6607", "website": "http://primechirocenter.com/", "rating": 4.0, "reviews": 4, "place_id": "ChIJIz9OdvN9PIgRLJr9P6dWj5M", "latitude": 41.67196209999999, "longitude": -83.6831708, "care_type": "Chiropractor"}, {"name": "Dr. Edward G. Schwartz, DC", "address": "4253 Monroe St, Toledo, OH 43606", "city": "Toledo", "phone": "", "website": "", "rating": 3.7, "reviews": 6, "place_id": "ChIJ0ZD3bUJ_PIgRLJDHWbWf95Y", "latitude": 41.6824589, "longitude": -83.6085465, "care_type": "Chiropractor"}, {"name": "Procare Accident & Injury Center, Inc.", "address": "2515 Central Ave, Toledo, OH 43606", "city": "Toledo", "phone": "+1 419-248-9999", "website": "", "rating": 4.6, "reviews": 9, "place_id": "ChIJ2foq-LWAO4gRqCy2GUlzPFI", "latitude": 41.677485, "longitude": -83.6036515, "care_type": "Chiropractor"}, {"name": "Chiropractic Wellness Center", "address": "830 S Erie Blvd, Hamilton, OH 45011", "city": "Hamilton", "phone": "+1 513-896-9355", "website": "https://www.facebook.com/docnobbs/", "rating": 4.9, "reviews": 57, "place_id": "ChIJZWc3kDhGQIgRBp5dHpai3yo", "latitude": 39.3870702, "longitude": -84.5489906, "care_type": "Chiropractor"}, {"name": "Brown Family Chiropractic", "address": "1250 NW Washington Blvd, Hamilton, OH 45013", "city": "Hamilton", "phone": "+1 513-863-1800", "website": "http://brownfamilychiropractic.org/", "rating": 4.8, "reviews": 21, "place_id": "ChIJp1S7_D1HQIgRXGz_UjW-Yss", "latitude": 39.423083, "longitude": -84.57957569999999, "care_type": "Chiropractor"}, {"name": "Rauch Chiropractic & Rehab", "address": "1250 Eaton Ave, Hamilton, OH 45013", "city": "Hamilton", "phone": "+1 513-895-9000", "website": "http://thehamiltonchiropractor.com/%3Futm_source%3DGBP%26utm_medium%3Dorganic", "rating": 5.0, "reviews": 150, "place_id": "ChIJkQxaKmpHQIgRNwe8C6al4MI", "latitude": 39.4256658, "longitude": -84.5770888, "care_type": "Chiropractor"}, {"name": "Hamilton Health Associates", "address": "6531 Winford Ave, Hamilton, OH 45011", "city": "Hamilton", "phone": "+1 513-863-2273", "website": "https://www.hamiltonhealth.us/", "rating": 4.9, "reviews": 93, "place_id": "ChIJ21sRuWxHQIgRn5H7nj3YaKg", "latitude": 39.3927707, "longitude": -84.5101414, "care_type": "Chiropractor"}, {"name": "Brian Nobbs, DC", "address": "830 S Erie Blvd, Hamilton, OH 45011", "city": "Hamilton", "phone": "+1 513-896-9355", "website": "", "rating": 4.5, "reviews": 33, "place_id": "ChIJZWc3kDhGQIgRxW_KVxsZtzI", "latitude": 39.3870702, "longitude": -84.5489906, "care_type": "Chiropractor"}, {"name": "Dr. Brandon Zoller, DC - Chiropractor", "address": "6531 Winford Ave, Hamilton, OH 45011", "city": "Hamilton", "phone": "+1 513-863-2273", "website": "http://www.hamiltonhealth.us/", "rating": 5.0, "reviews": 4, "place_id": "ChIJCTcw02FXQIgRYbxmyzF8Dvo", "latitude": 39.3927906, "longitude": -84.51013669999999, "care_type": "Chiropractor"}, {"name": "Thaddeus J. Rauch, DC", "address": "1250 Eaton Ave, Hamilton, OH 45013", "city": "Hamilton", "phone": "+1 513-895-9000", "website": "https://www.thehamiltonchiropractor.com/", "rating": 5.0, "reviews": 1, "place_id": "ChIJSQtaKmpHQIgR0Tv9tRrYS7w", "latitude": 39.4257064, "longitude": -84.5771201, "care_type": "Chiropractor"}, {"name": "Hamilton Pain & Injury", "address": "860 NW Washington Blvd Suite D, Hamilton, OH 45013", "city": "Hamilton", "phone": "+1 513-867-8600", "website": "http://www.cincinnatichiropractor.com/", "rating": 5.0, "reviews": 1, "place_id": "ChIJi1Lqj1ZHQIgRHw11Qsx4gYI", "latitude": 39.4271821, "longitude": -84.59117959999999, "care_type": "Chiropractor"}, {"name": "Bokeno Chiropractic & Holistic Health", "address": "1050 Millville Ave, Hamilton, OH 45013", "city": "Hamilton", "phone": "+1 513-822-9780", "website": "http://bokenochiropractic.janeapp.com/", "rating": 5.0, "reviews": 39, "place_id": "ChIJUS1VbQRHQIgRxQhtUlM-xg8", "latitude": 39.405856, "longitude": -84.5975744, "care_type": "Chiropractor"}, {"name": "Ault Matt DC", "address": "3328 Princeton Rd, Hamilton, OH 45011", "city": "Hamilton", "phone": "+1 513-887-9400", "website": "http://principledhealthcare.com/", "rating": 4.3, "reviews": 6, "place_id": "ChIJoR9tBslFQIgRH4Gt4Q1HEYU", "latitude": 39.39118939999999, "longitude": -84.50397219999999, "care_type": "Chiropractor"}, {"name": "Premier Chiropractic 513", "address": "4887 Princeton Rd, West Chester Township, OH 45011", "city": "West Chester Township", "phone": "+1 513-779-2400", "website": "https://premierchiro513.com/%3Futm_source%3DWest_Chester_Township_OH_GBP%26utm_medium%3Dorganic", "rating": 5.0, "reviews": 410, "place_id": "ChIJ0YcL93NPQIgR7Gp42tJ25WQ", "latitude": 39.3874953, "longitude": -84.45568209999999, "care_type": "Chiropractor"}, {"name": "Hunter Chiropractic", "address": "3987 Hamilton Middletown Rd, Hamilton, OH 45011", "city": "Hamilton", "phone": "+1 513-737-1073", "website": "", "rating": 3.7, "reviews": 3, "place_id": "ChIJp8kb2V5EQIgR7w-YSsSVIbA", "latitude": 39.4135471, "longitude": -84.4817116, "care_type": "Chiropractor"}, {"name": "Baker Chiropractic and Wellness", "address": "675 Deis Dr, Fairfield, OH 45014", "city": "Fairfield", "phone": "+1 513-858-6700", "website": "https://bakerchiropractic.org/", "rating": 4.9, "reviews": 228, "place_id": "ChIJLTtjfl9IQIgRwC_a4bL-Hek", "latitude": 39.3363609, "longitude": -84.56473539999999, "care_type": "Chiropractor"}, {"name": "Wellness Docs", "address": "3328 Princeton Rd, Hamilton, OH 45011", "city": "Hamilton", "phone": "+1 513-342-1700", "website": "https://www.wellnessdocs.com/", "rating": 5.0, "reviews": 4, "place_id": "ChIJY4qzITVFQIgRGPPCAovsZ0c", "latitude": 39.3911752, "longitude": -84.5039822, "care_type": "Chiropractor"}, {"name": "Stanley Chiropractic", "address": "633 High St # 202, Hamilton, OH 45011", "city": "Hamilton", "phone": "+1 513-405-1580", "website": "", "rating": null, "reviews": 0, "place_id": "ChIJW8AaEldGQIgRzmhIaxR7SSc", "latitude": 39.397502, "longitude": -84.5552644, "care_type": "Chiropractor"}, {"name": "Huey Jay G DC", "address": "4259 Hamilton Cleves Rd, Fairfield, OH 45014", "city": "Fairfield", "phone": "+1 513-738-4440", "website": "", "rating": 5.0, "reviews": 11, "place_id": "ChIJR3UCRPg2QIgRzPk9xZaBeBk", "latitude": 39.3135032, "longitude": -84.64944419999999, "care_type": "Chiropractor"}, {"name": "Evans Chiropractic", "address": "6600 Dixie Hwy L, Fairfield, OH 45014", "city": "Fairfield", "phone": "+1 513-330-5462", "website": "http://www.fairfieldohchiropractor.com/", "rating": 4.9, "reviews": 41, "place_id": "ChIJdykPsR5PQIgRLIRaK1McGlo", "latitude": 39.3201814, "longitude": -84.49685269999999, "care_type": "Chiropractor"}, {"name": "Tylersville Rd Chiropractic and Rehab", "address": "7924 Jessies Wy suite c, Fairfield, OH 45011", "city": "Fairfield", "phone": "+1 513-816-7519", "website": "", "rating": 4.7, "reviews": 13, "place_id": "ChIJe8xSffNFQIgRFKBnHYsXxXk", "latitude": 39.3626996, "longitude": -84.5015055, "care_type": "Chiropractor"}, {"name": "Rob J. Cartwright, DC", "address": "2766 Mack Rd, Fairfield, OH 45014", "city": "Fairfield", "phone": "+1 513-942-2500", "website": "https://www.cartwrightchiropractic.com/", "rating": 4.6, "reviews": 11, "place_id": "ChIJ-fEy_CtJQIgRnsCsVMoYBPY", "latitude": 39.3118071, "longitude": -84.52734559999999, "care_type": "Chiropractor"}, {"name": "Fred M. Southard, DC", "address": "860 NW Washington Blvd, Hamilton, OH 45013", "city": "Hamilton", "phone": "+1 513-868-0978", "website": "", "rating": null, "reviews": 0, "place_id": "ChIJ5we8wENHQIgR8ibAptCKIIs", "latitude": 39.4271821, "longitude": -84.59117959999999, "care_type": "Chiropractor"}, {"name": "Chiropractic", "address": "225 Main St, Hamilton, OH 45013", "city": "Hamilton", "phone": "", "website": "", "rating": null, "reviews": 0, "place_id": "ChIJyTRN1wBHQIgRhzF2WZLB874", "latitude": 39.403446, "longitude": -84.568872, "care_type": "Chiropractor"}, {"name": "Springfield Chiropractic and Rehab LLC", "address": "1052 Upper Valley Pike, Springfield, OH 45504", "city": "Springfield", "phone": "+1 937-505-1447", "website": "https://www.springfieldohiochiro.com/", "rating": 4.8, "reviews": 50, "place_id": "ChIJ4fPRxbRdP4gRTyzzezZW6PM", "latitude": 39.9407641, "longitude": -83.8551327, "care_type": "Chiropractor"}, {"name": "First Chiropractic", "address": "1108 N Bechtle Ave, Springfield, OH 45504", "city": "Springfield", "phone": "+1 937-328-3220", "website": "https://www.thefirstchiro.com/", "rating": 4.3, "reviews": 29, "place_id": "ChIJ9XINFZ1bP4gR9TvzO8W57k8", "latitude": 39.939335, "longitude": -83.835304, "care_type": "Chiropractor"}, {"name": "Revive Health and Injury", "address": "333 N Limestone St #101, Springfield, OH 45503", "city": "Springfield", "phone": "+1 937-319-4343", "website": "http://www.revivespringfield.com/", "rating": 5.0, "reviews": 399, "place_id": "ChIJK1PxdbJbP4gRS2Dd-Kb1FsM", "latitude": 39.9289301, "longitude": -83.8084837, "care_type": "Chiropractor"}, {"name": "Dr. Greg Hixon, D.C.", "address": "1108 N Bechtle Ave, Springfield, OH 45504", "city": "Springfield", "phone": "+1 937-328-3220", "website": "", "rating": 5.0, "reviews": 6, "place_id": "ChIJDfQcFZ1bP4gRL9UJV4XkIYw", "latitude": 39.9392804, "longitude": -83.835205, "care_type": "Chiropractor"}, {"name": "Dr. Michael McIntyre - Chiropractic Physician", "address": "333 N Limestone St #104, Springfield, OH 45503", "city": "Springfield", "phone": "+1 937-319-4343", "website": "", "rating": 5.0, "reviews": 5, "place_id": "ChIJF78JkDFbP4gRSYd-yy_-TiM", "latitude": 39.9289341, "longitude": -83.8083707, "care_type": "Chiropractor"}, {"name": "Harding Holistics - Dr. John & Dr. Shanna Paciorek", "address": "427 W Harding Rd, Springfield, OH 45504", "city": "Springfield", "phone": "+1 937-399-1159", "website": "https://www.hardingholistics.com/", "rating": 4.9, "reviews": 211, "place_id": "ChIJ-zJNPw9bP4gRcM1CgD5Rtjw", "latitude": 39.9457789, "longitude": -83.8168798, "care_type": "Chiropractor"}, {"name": "Beistline Chiropractic Family Wellness Center", "address": "3321 Dayton Springfield Rd, Springfield, OH 45506", "city": "Springfield", "phone": "+1 937-864-1404", "website": "http://www.beistlinechiropractic.com/", "rating": 5.0, "reviews": 293, "place_id": "ChIJrYWJP55gP4gRC3jpOcCVJh4", "latitude": 39.9072445, "longitude": -83.8732507, "care_type": "Chiropractor"}, {"name": "Dr. John J. Paciorek, DC", "address": "427 W Harding Rd #2, Springfield, OH 45504", "city": "Springfield", "phone": "+1 937-399-1159", "website": "https://www.hardingholistics.com/", "rating": 5.0, "reviews": 1, "place_id": "ChIJ-zJNPw9bP4gRB7J9qGaq0Pw", "latitude": 39.9457657, "longitude": -83.81685019999999, "care_type": "Chiropractor"}, {"name": "John E. Ellsworth, DC", "address": "2181 Olympic St, Springfield, OH 45503", "city": "Springfield", "phone": "+1 937-390-9080", "website": "", "rating": 5.0, "reviews": 1, "place_id": "ChIJiy-yfe5aP4gR_YbfxPYyA24", "latitude": 39.9508848, "longitude": -83.7897364, "care_type": "Chiropractor"}, {"name": "Terrell Mark J DC", "address": "1930 N Limestone St, Springfield, OH 45503", "city": "Springfield", "phone": "+1 937-390-6403", "website": "", "rating": 4.2, "reviews": 5, "place_id": "ChIJ88RPteJaP4gR1V8sjUMKoOM", "latitude": 39.949283, "longitude": -83.8041271, "care_type": "Chiropractor"}, {"name": "Yellow Springs Chiropractic", "address": "233 Corry St, Yellow Springs, OH 45387", "city": "Yellow Springs", "phone": "+1 937-767-7251", "website": "https://www.yellowspringschiropractic.com/", "rating": 5.0, "reviews": 14, "place_id": "ChIJTxArKoqgQIgRVEtvPKHnEYI", "latitude": 39.80519109999999, "longitude": -83.887528, "care_type": "Chiropractor"}, {"name": "Dr. Jason Malucci", "address": "333 N Limestone St #104, Springfield, OH 45503", "city": "Springfield", "phone": "+1 937-319-4343", "website": "", "rating": 5.0, "reviews": 2, "place_id": "ChIJZ34SdrJbP4gRPN4gBQLX6xo", "latitude": 39.9289301, "longitude": -83.8084733, "care_type": "Chiropractor"}, {"name": "Scott A. Wilke, DC", "address": "4490 Derr Rd, Springfield, OH 45503", "city": "Springfield", "phone": "+1 937-399-6782", "website": "", "rating": 4.3, "reviews": 6, "place_id": "ChIJHUyDEkhFP4gRPCZWWjoAzG4", "latitude": 39.9883164, "longitude": -83.7824377, "care_type": "Chiropractor"}, {"name": "Judy L. Jones, DC", "address": "2181 Olympic St, Springfield, OH 45503", "city": "Springfield", "phone": "+1 937-390-9080", "website": "https://alternativehealingspringfield.com/our-team", "rating": 3.7, "reviews": 3, "place_id": "ChIJiy-yfe5aP4gRs-i_XdFPIGQ", "latitude": 39.9509611, "longitude": -83.789757, "care_type": "Chiropractor"}, {"name": "Alternative Healing Arts LLC", "address": "2181 Olympic St, Springfield, OH 45503", "city": "Springfield", "phone": "+1 937-390-9080", "website": "https://alternativehealingspringfield.com/alternative-healing-arts", "rating": 4.4, "reviews": 8, "place_id": "ChIJiy-yfe5aP4gRu5CaQL8Wdpo", "latitude": 39.9509963, "longitude": -83.7898254, "care_type": "Chiropractor"}, {"name": "Daniel J. Lynch, DC", "address": "3150 El Camino Dr, Springfield, OH 45503", "city": "Springfield", "phone": "+1 937-390-6138", "website": "", "rating": 5.0, "reviews": 1, "place_id": "ChIJQzju1cFaP4gRzc90reS9JMM", "latitude": 39.9646477, "longitude": -83.7878695, "care_type": "Chiropractor"}, {"name": "Dr. Shanna D. Paciorek, DC", "address": "427 W Harding Rd STE 1, Springfield, OH 45504", "city": "Springfield", "phone": "+1 937-399-1159", "website": "https://www.hardingholistics.com/", "rating": null, "reviews": 0, "place_id": "ChIJ-zJNPw9bP4gRlKO-hOqqaac", "latitude": 39.9457842, "longitude": -83.8168558, "care_type": "Chiropractor"}, {"name": "Northside Soft Tissue Center", "address": "4490 Derr Rd, Springfield, OH 45503", "city": "Springfield", "phone": "+1 937-399-6782", "website": "", "rating": 4.9, "reviews": 29, "place_id": "ChIJHUyDEkhFP4gRkN2tPiftYz8", "latitude": 39.988335, "longitude": -83.78243499999999, "care_type": "Chiropractor"}, {"name": "Brenn Donald J", "address": "2427 E High St, Springfield, OH 45505", "city": "Springfield", "phone": "+1 937-324-1110", "website": "", "rating": 5.0, "reviews": 2, "place_id": "ChIJSSMMD3JaP4gRL2RJza21QG4", "latitude": 39.9213799, "longitude": -83.77252879999999, "care_type": "Chiropractor"}, {"name": "Allen Gregory D DC", "address": "427 W Harding Rd, Springfield, OH 45504", "city": "Springfield", "phone": "+1 937-399-1159", "website": "http://www.drphealth.com/", "rating": null, "reviews": 0, "place_id": "ChIJ-zJNPw9bP4gRG7ItcNLGWo8", "latitude": 39.9457831, "longitude": -83.8168536, "care_type": "Chiropractor"}, {"name": "Grove City Chiropractic Center", "address": "4305 Broadway, Grove City, OH 43123", "city": "Grove City", "phone": "+1 614-875-1121", "website": "https://www.grovecitychiropractic.com/", "rating": 5.0, "reviews": 6, "place_id": "ChIJ2WYpRUCbOIgRx0w2kfF3AII", "latitude": 39.876941, "longitude": -83.098602, "care_type": "Chiropractor"}, {"name": "Wieging Chiropractic & Physical Medicine", "address": "3435 Farm Bank Way, Grove City, OH 43123", "city": "Grove City", "phone": "+1 614-539-0405", "website": "http://www.wiegingchiropractic.com/", "rating": 4.8, "reviews": 133, "place_id": "ChIJxQSNbjqbOIgRBBbgjNTt-Hc", "latitude": 39.8943062, "longitude": -83.0861651, "care_type": "Chiropractor"}, {"name": "Tree of Life Chiropractic", "address": "3725 Broadway, Grove City, OH 43123", "city": "Grove City", "phone": "+1 614-594-0596", "website": "https://treeoflifefamilychiro.com/", "rating": 4.9, "reviews": 226, "place_id": "ChIJ_S3S4S-bOIgRImPogQK6rqU", "latitude": 39.8880547, "longitude": -83.0889025, "care_type": "Chiropractor"}, {"name": "Complete Wellness Chiropractic", "address": "2600 Columbus St, Grove City, OH 43123", "city": "Grove City", "phone": "+1 614-539-8200", "website": "https://www.completewellnesscolumbus.com/", "rating": 4.9, "reviews": 98, "place_id": "ChIJ52TdQMmEOIgRxRPow5uL1P0", "latitude": 39.8816357, "longitude": -83.072372, "care_type": "Chiropractor"}, {"name": "Heaton Family Chiropractic", "address": "3995 Broadway STE 150, Grove City, OH 43123", "city": "Grove City", "phone": "+1 614-883-8100", "website": "http://www.heatonfamilychiropractic.com/", "rating": 5.0, "reviews": 326, "place_id": "ChIJGagLQsiEOIgRw7U_x8e2AcQ", "latitude": 39.8828361, "longitude": -83.0937331, "care_type": "Chiropractor"}, {"name": "Ability Chiropractic", "address": "3621 Southwest Blvd C, Grove City, OH 43123", "city": "Grove City", "phone": "+1 614-957-0004", "website": "https://abilitychiro.com/grove-city-west-office", "rating": 5.0, "reviews": 13, "place_id": "ChIJ48-hn9qbOIgRl1dbQT1dBng", "latitude": 39.8920545, "longitude": -83.0988844, "care_type": "Chiropractor"}, {"name": "Whole Health Chiropractic", "address": "3407 McDowell Rd, Grove City, OH 43123", "city": "Grove City", "phone": "+1 614-991-0224", "website": "http://www.wholehealthcolumbus.com/", "rating": 5.0, "reviews": 82, "place_id": "ChIJGTSapsGEOIgRp65avAwJ4Nc", "latitude": 39.8800654, "longitude": -83.0603806, "care_type": "Chiropractor"}, {"name": "Love Chiropractic", "address": "3590 Hoover Rd, Grove City, OH 43123", "city": "Grove City", "phone": "+1 614-871-8400", "website": "http://www.drlovechiropractic.com/", "rating": 4.7, "reviews": 15, "place_id": "ChIJX7JGgtCEOIgRSuA2pCVKA-c", "latitude": 39.8900852, "longitude": -83.0684575, "care_type": "Chiropractor"}, {"name": "Feldkamp Chiropractic Clinic", "address": "4227 Hoover Rd, Grove City, OH 43123", "city": "Grove City", "phone": "+1 614-683-3045", "website": "https://www.grovecitychiropractors.com/", "rating": 4.6, "reviews": 85, "place_id": "ChIJbbr4J8iEOIgRfa0wd7N3As8", "latitude": 39.8770264, "longitude": -83.0703229, "care_type": "Chiropractor"}, {"name": "Schmit Chiropractic", "address": "4141 Kelnor Dr, Grove City, OH 43123", "city": "Grove City", "phone": "+1 614-875-2225", "website": "http://schmitchiro.com/", "rating": 5.0, "reviews": 13, "place_id": "ChIJpzUyx8eEOIgRCd4QOjb2yGY", "latitude": 39.878398, "longitude": -83.067217, "care_type": "Chiropractor"}, {"name": "Rehab at Wieging Physical Medicine", "address": "3429 Farm Bank Way, Grove City, OH 43123", "city": "Grove City", "phone": "+1 614-539-0405", "website": "http://www.wiegingchiropractic.com/", "rating": 5.0, "reviews": 14, "place_id": "ChIJBWeVdZybOIgRLfQinvc-c_E", "latitude": 39.894276, "longitude": -83.0861369, "care_type": "Chiropractor"}, {"name": "Christopher M. Love, DC", "address": "3590 Hoover Rd, Grove City, OH 43123", "city": "Grove City", "phone": "+1 614-871-8400", "website": "http://www.drlovechiropractic.com/", "rating": 4.7, "reviews": 15, "place_id": "ChIJjy7FNzSbOIgRp8SDxk0dItU", "latitude": 39.8900832, "longitude": -83.068445, "care_type": "Chiropractor"},