[{"name": "Bristol Chiropractic", "address": "685 Metacom Ave, Bristol, RI 02809", "city": "Bristol", "phone": "+1 401-396-9892", "website": "http://www.bristolchiro.com/", "rating": 5.0, "reviews": 127, "place_id": "ChIJsdy_z3pU5IkR6f4JLhWBMkI", "latitude": 41.7029953, "longitude": -71.26582859999999, "care_type": "Chiropractor"}, {"name": "DeCrescenzo Chiropractic - Pawtucket", "address": "1168 Newport Ave, Pawtucket, RI 02861", "city": "Pawtucket", "phone": "+1 401-725-2112", "website": "https://www.decrescenzochiropractic.com/pawtucket-office/", "rating": 4.9, "reviews": 83, "place_id": "ChIJbwkmZJBc5IkRH4NappbicEM", "latitude": 41.8862806, "longitude": -71.35446809999999, "care_type": "Chiropractor"}, {"name": "DeCrescenzo Chiropractic - East Providence", "address": "160 Taunton Ave, East Providence, RI 02914", "city": "East Providence", "phone": "+1 401-435-2002", "website": "https://www.decrescenzochiropractic.com/east-providence-office/", "rating": 4.9, "reviews": 265, "place_id": "ChIJa40Ukc5a5IkRmX6qHF0wvqw", "latitude": 41.8198611, "longitude": -71.37644639999999, "care_type": "Chiropractor"}, {"name": "The Movement Collective", "address": "44 Cray St Suite 1, Cumberland, RI 02864", "city": "Cumberland", "phone": "+1 401-414-2216", "website": "https://movementcollectiveri.com/", "rating": 5.0, "reviews": 21, "place_id": "ChIJRz2-_ytD5IkRhSbgHkxH0Es", "latitude": 41.9271263, "longitude": -71.4208606, "care_type": "Chiropractor"}, {"name": "Seaside Family Chiropractic, LLC", "address": "146 Anoka Ave, Barrington, RI 02806", "city": "Barrington", "phone": "+1 401-289-0155", "website": "https://seasidefamilychiro.com/", "rating": 5.0, "reviews": 2, "place_id": "ChIJL5T0oxlR5IkRnHL27hORr0Q", "latitude": 41.7381456, "longitude": -71.3152676, "care_type": "Chiropractor"}, {"name": "Coastal Chiropractic Group - Bristol Upper Cervical Chiropractor", "address": "576 Metacom Avenue Belltower Plaza, Suite 8, Bristol, RI 02809", "city": "Bristol", "phone": "+1 401-253-1130", "website": "http://www.coastalchiropracticgroup.com/", "rating": 4.9, "reviews": 90, "place_id": "ChIJsdy_z3pU5IkR5oaJFIzFUnY", "latitude": 41.6934359, "longitude": -71.2622894, "care_type": "Chiropractor"}, {"name": "Spinal Health & Rehab", "address": "20 Bosworth St, Barrington, RI 02806", "city": "Barrington", "phone": "+1 401-247-2991", "website": "http://spinalhealthri.com/", "rating": 5.0, "reviews": 10, "place_id": "ChIJBbx_nSRR5IkRAwDqFiAfJh4", "latitude": 41.7361204, "longitude": -71.305267, "care_type": "Chiropractor"}, {"name": "East Bay Chiropractic Health Center", "address": "970 Hope St, Bristol, RI 02809", "city": "Bristol", "phone": "+1 401-253-7475", "website": "http://www.eastbaychiropractic.com/", "rating": 4.8, "reviews": 21, "place_id": "ChIJIYZ8Ag1U5IkRVUWecm5hxLI", "latitude": 41.68375899999999, "longitude": -71.278476, "care_type": "Chiropractor"}, {"name": "Van Amberg Family Chiropractic", "address": "606 Metacom Ave UNIT 5, Warren, RI 02885", "city": "Warren", "phone": "+1 401-245-6294", "website": "http://vanambergchiropractic.com/", "rating": 4.6, "reviews": 10, "place_id": "ChIJX4FVuMBW5IkRTV50v_auVlE", "latitude": 41.719845, "longitude": -71.2687366, "care_type": "Chiropractor"}, {"name": "Hoffmann Chiropractic", "address": "207 Waseca Ave, Barrington, RI 02806", "city": "Barrington", "phone": "+1 401-289-2444", "website": "http://hoffmannchiropractic.com/", "rating": 5.0, "reviews": 17, "place_id": "ChIJh-RKNBpR5IkROD9GTZMFTIY", "latitude": 41.7383248, "longitude": -71.3090881, "care_type": "Chiropractor"}, {"name": "Providence Chiropractic Clinic", "address": "1637 Mineral Spring Ave #201, North Providence, RI 02904", "city": "North Providence", "phone": "+1 401-354-5120", "website": "http://www.provchiro.com/", "rating": 5.0, "reviews": 26, "place_id": "ChIJk1Q0j2pE5IkRtpG7y69OB_k", "latitude": 41.8652789, "longitude": -71.45098999999999, "care_type": "Chiropractor"}, {"name": "Bruno Chiropractic", "address": "1417 Douglas Ave second floor, North Providence, RI 02904", "city": "North Providence", "phone": "+1 401-353-5990", "website": "http://www.brunochiropractic.com/", "rating": 4.6, "reviews": 11, "place_id": "ChIJ969uiztE5IkRRKehsAuCQyw", "latitude": 41.864112, "longitude": -71.4535444, "care_type": "Chiropractor"}, {"name": "Chiropractic Associates Inc.", "address": "1026 Mineral Spring Ave, North Providence, RI 02904", "city": "North Providence", "phone": "+1 401-726-2222", "website": "https://www.richiroinc.com/", "rating": 4.9, "reviews": 7, "place_id": "ChIJ8zP-mGBF5IkRPBG8PdZy2hs", "latitude": 41.868662, "longitude": -71.4238567, "care_type": "Chiropractor"}, {"name": "DeCrescenzo Chiropractic - Providence", "address": "231 Douglas Ave, Providence, RI 02908", "city": "Providence", "phone": "+1 401-421-7414", "website": "https://www.decrescenzochiropractic.com/providence-office/", "rating": 4.9, "reviews": 101, "place_id": "ChIJOehlegNF5IkRWBbMmcslUbU", "latitude": 41.8377637, "longitude": -71.42332929999999, "care_type": "Chiropractor"}, {"name": "Northeast Chiropractic", "address": "187 Waterman St, Providence, RI 02906", "city": "Providence", "phone": "+1 401-861-1300", "website": "http://www.wickedgoodposture.com/", "rating": 5.0, "reviews": 24, "place_id": "ChIJWZM8pS9F5IkRkBMDoKzmpjI", "latitude": 41.8277248, "longitude": -71.3921642, "care_type": "Chiropractor"}, {"name": "Lanni Chiropractic", "address": "667 Academy Ave 2nd floor, Providence, RI 02908", "city": "Providence", "phone": "+1 401-354-4460", "website": "", "rating": 5.0, "reviews": 26, "place_id": "ChIJga0CIrNF5IkRPIuxlpvjF4M", "latitude": 41.8433076, "longitude": -71.4449249, "care_type": "Chiropractor"}, {"name": "Basler Chiropractic Center", "address": "1261 N Main St, Providence, RI 02904", "city": "Providence", "phone": "+1 401-421-0290", "website": "https://www.baslerchiropractic.com/", "rating": 4.8, "reviews": 72, "place_id": "ChIJ64W3mapc5IkRWnxIHTKId7A", "latitude": 41.8546726, "longitude": -71.4001615, "care_type": "Chiropractor"}, {"name": "Ocean State Chiropractic", "address": "1920 Mineral Spring Ave Unit 16, North Providence, RI 02904", "city": "North Providence", "phone": "+1 401-354-5500", "website": "", "rating": 3.0, "reviews": 2, "place_id": "ChIJVVVVASVE5IkRCArShmF0d0w", "latitude": 41.8598833, "longitude": -71.468167, "care_type": "Chiropractor"}, {"name": "Cityside Chiropractic", "address": "480 Broadway, Providence, RI 02909", "city": "Providence", "phone": "+1 401-272-5710", "website": "http://www.citysidechiropractic.com/", "rating": 5.0, "reviews": 143, "place_id": "ChIJpywRHxpP5IkRhwQMPSmSrnM", "latitude": 41.8185298, "longitude": -71.4341149, "care_type": "Chiropractor"}, {"name": "Gallucci Edward T DC", "address": "1337 Smith St, Providence, RI 02908", "city": "Providence", "phone": "+1 401-831-0900", "website": "", "rating": 5.0, "reviews": 21, "place_id": "ChIJIdO1GjVE5IkRwS05eQ77RtI", "latitude": 41.8480324, "longitude": -71.4555958, "care_type": "Chiropractor"}, {"name": "Luke J. Basler, DC", "address": "1261 N Main St, Providence, RI 02904", "city": "Providence", "phone": "+1 401-421-0290", "website": "https://www.baslerchiropractic.com/", "rating": 5.0, "reviews": 13, "place_id": "ChIJoZ8QZQ5C5okRR6f_V8MRHYs", "latitude": 41.8546907, "longitude": -71.40014769999999, "care_type": "Chiropractor"}, {"name": "Anania Chiropractic", "address": "172 Broadway, Providence, RI 02903", "city": "Providence", "phone": "+1 401-521-2225", "website": "http://ananiachiropractic.net/", "rating": 5.0, "reviews": 502, "place_id": "ChIJiSKOS3NF5IkRrbvc-Bc0ZEg", "latitude": 41.8211918, "longitude": -71.4227951, "care_type": "Chiropractor"}, {"name": "Balance Chiropractic & Wellness Center", "address": "145 Waterman St, Providence, RI 02906", "city": "Providence", "phone": "+1 401-831-2000", "website": "http://providencechiropractor.com/", "rating": 5.0, "reviews": 49, "place_id": "ChIJTeWMJCVF5IkRfwWGPH50fvs", "latitude": 41.8274477, "longitude": -71.3966449, "care_type": "Chiropractor"}, {"name": "Dr. Jeffrey Newman, D.C. Health First Chiropractic", "address": "134 Thurbers Ave Ste 214, Providence, RI 02905", "city": "Providence", "phone": "+1 401-941-8300", "website": "https://www.healthfirstchirori.com/", "rating": 5.0, "reviews": 96, "place_id": "ChIJ49uB-l9F5IkRnscdUK1acYI", "latitude": 41.7998146, "longitude": -71.4052339, "care_type": "Chiropractor"}, {"name": "Heart Chiropractic and Wellness - Dr. Mariel Phillip", "address": "2 Charles St Unit A41, Providence, RI 02904", "city": "Providence", "phone": "+1 401-429-2085", "website": "https://www.heartchirowellness.com/", "rating": 5.0, "reviews": 28, "place_id": "ChIJwbVhomNE5IkRxhOwoEtyMKc", "latitude": 41.832715, "longitude": -71.4115312, "care_type": "Chiropractor"}, {"name": "Precision Chiropractic - Gregg Medeiros D.C.", "address": "1205 Westminster St, Providence, RI 02909", "city": "Providence", "phone": "+1 401-459-6780", "website": "https://chiropracticri.com/", "rating": 4.4, "reviews": 14, "place_id": "ChIJbwJoDaNP5IkRTCJgxCifJmY", "latitude": 41.8171786, "longitude": -71.4290133, "care_type": "Chiropractor"}, {"name": "Rhode Island Chiropractic Pain Control Clinic", "address": "371 Broadway, Providence, RI 02909", "city": "Providence", "phone": "+1 401-274-5100", "website": "https://www.rhodeislandchiropractic.net/", "rating": 3.9, "reviews": 7, "place_id": "ChIJ_ajVKJ5F5IkR-L2HhABCKNc", "latitude": 41.819778, "longitude": -71.43030809999999, "care_type": "Chiropractor"}, {"name": "Zola Chiropractic Center Inc", "address": "144 Waterman St #2, Providence, RI 02906", "city": "Providence", "phone": "+1 401-785-1978", "website": "http://www.drmichaelzolaonline.com/", "rating": 5.0, "reviews": 28, "place_id": "ChIJbwJoDaNP5IkRRebxRabcbkY", "latitude": 41.8277818, "longitude": -71.39648489999999, "care_type": "Chiropractor"}, {"name": "Be Well Chiropractic & Health", "address": "255 Hope St, Providence, RI 02906", "city": "Providence", "phone": "+1 401-337-5684", "website": "http://www.bewellprovidence.com/", "rating": 4.9, "reviews": 28, "place_id": "ChIJg-_7VyRR5IkRT5rK02jG3hw", "latitude": 41.8324068, "longitude": -71.4001275, "care_type": "Chiropractor"}, {"name": "Lombardi Chiropractic Center", "address": "895 N Main St, Providence, RI 02904", "city": "Providence", "phone": "+1 401-272-9007", "website": "", "rating": 4.0, "reviews": 2, "place_id": "ChIJYTmQgN1E5IkR0VFDPdQGq18", "latitude": 41.8447994, "longitude": -71.4059466, "care_type": "Chiropractor"}, {"name": "Chiropractic Associates LLC", "address": "1196 Elmwood Ave, Providence, RI 02907", "city": "Providence", "phone": "+1 401-461-1600", "website": "https://www.richiroinc.com/", "rating": 4.8, "reviews": 22, "place_id": "ChIJbwJoDaNP5IkRe2Xyt71nZIY", "latitude": 41.7790279, "longitude": -71.42032379999999, "care_type": "Chiropractor"}, {"name": "Anania Karen DC", "address": "172 Broadway, Providence, RI 02903", "city": "Providence", "phone": "+1 401-521-2225", "website": "http://ananiachiropractic.net/", "rating": 4.8, "reviews": 25, "place_id": "ChIJiSKOS3NF5IkRhIYeHg_OIeA", "latitude": 41.8211918, "longitude": -71.4227951, "care_type": "Chiropractor"}, {"name": "Rhode Island Chiro Pain: Lancellotti Joseph DC", "address": "197 Taunton Ave E, East Providence, RI 02914", "city": "East Providence", "phone": "+1 401-435-4999", "website": "https://www.rhodeislandchiropractic.net/about-us/meet-the-doctors.html", "rating": 5.0, "reviews": 1, "place_id": "ChIJ57jCD89a5IkRJXIrWCE-AzM", "latitude": 41.8195216, "longitude": -71.3727308, "care_type": "Chiropractor"}, {"name": "Bruno Chiropractic: Marino Leonardo DC", "address": "1822 Mineral Spring Ave, North Providence, RI 02904", "city": "North Providence", "phone": "+1 401-353-5990", "website": "http://www.brunochiropractic.com/", "rating": null, "reviews": 0, "place_id": "ChIJ969uiztE5IkRee0agUj9R5M", "latitude": 41.8612608, "longitude": -71.4612597, "care_type": "Chiropractor"}, {"name": "Zimmer Chiropractic Inc.", "address": "46 Holley St, South Kingstown, RI 02879", "city": "South Kingstown", "phone": "+1 401-308-2173", "website": "http://zimmer-chiro.com/", "rating": 5.0, "reviews": 65, "place_id": "ChIJ4QjQXEO55YkRQ5MDxzO1tVc", "latitude": 41.44268599999999, "longitude": -71.490557, "care_type": "Chiropractor"}, {"name": "Wakefield Chiropractic", "address": "116 Main St, Wakefield, RI 02879", "city": "Wakefield", "phone": "+1 401-515-5552", "website": "https://www.wakefieldchiropractic.com/", "rating": 5.0, "reviews": 93, "place_id": "ChIJ91w_3Ki55YkRR7LP6iB-PpQ", "latitude": 41.4409067, "longitude": -71.4927098, "care_type": "Chiropractor"}, {"name": "Center for Health", "address": "24 Salt Pond Rd STE C5, South Kingstown, RI 02879", "city": "South Kingstown", "phone": "+1 401-789-5008", "website": "http://www.centerforhealthri.com/", "rating": 5.0, "reviews": 13, "place_id": "ChIJ-xfbtU255YkRrY6yZ3hqvBk", "latitude": 41.4314944, "longitude": -71.4910171, "care_type": "Chiropractor"}, {"name": "Dr. Gary Post", "address": "24 Salt Pond Rd STE C5, South Kingstown, RI 02879", "city": "South Kingstown", "phone": "+1 401-789-5008", "website": "http://www.centerforhealthri.com/", "rating": 4.5, "reviews": 16, "place_id": "ChIJo4jftU255YkRJZS4uex7FvQ", "latitude": 41.431303, "longitude": -71.4918029, "care_type": "Chiropractor"}, {"name": "Wickford Chiropractic", "address": "Shewatuck Building, 610 Ten Rod Rd, North Kingstown, RI 02852", "city": "North Kingstown", "phone": "+1 401-295-9767", "website": "http://www.wickfordchiro.com/", "rating": 5.0, "reviews": 56, "place_id": "ChIJjxGlFq625YkRndtL0WHA2y0", "latitude": 41.572495, "longitude": -71.484532, "care_type": "Chiropractor"}, {"name": "Dr.Jerome A. Tartaro, Chiropractic Physician", "address": "118 Point Judith Rd, Narragansett, RI 02882", "city": "Narragansett", "phone": "+1 401-601-7861", "website": "", "rating": 5.0, "reviews": 68, "place_id": "ChIJ6SdpHlW55YkREUB7A2ViYO4", "latitude": 41.4273461, "longitude": -71.4802851, "care_type": "Chiropractor"}, {"name": "Pelton Family Chiropractic Center", "address": "730 Kingstown Rd #3, Wakefield, RI 02879", "city": "Wakefield", "phone": "+1 401-782-8380", "website": "", "rating": 5.0, "reviews": 5, "place_id": "ChIJuWKeMEO55YkRN_u2Gh6X1D0", "latitude": 41.443773, "longitude": -71.4902587, "care_type": "Chiropractor"}, {"name": "Brunelle Chiropractic", "address": "250 W Main St, North Kingstown, RI 02852", "city": "North Kingstown", "phone": "+1 401-295-2527", "website": "http://www.brunellefamilychiropractic.com/", "rating": 5.0, "reviews": 21, "place_id": "ChIJZdZ8W1mx5YkRhwts15Q4K2w", "latitude": 41.5729277, "longitude": -71.4607704, "care_type": "Chiropractor"}, {"name": "Synergy Chiropractic & Sports Rehab", "address": "1130 Ten Rod Rd Suite E 103, North Kingstown, RI 02852", "city": "North Kingstown", "phone": "+1 401-214-9848", "website": "http://www.synergychiropracticri.com/", "rating": 5.0, "reviews": 65, "place_id": "ChIJBzyYFBG35YkRWj0rDmY6xXo", "latitude": 41.5809212, "longitude": -71.49761, "care_type": "Chiropractor"}, {"name": "Dr. Jeffrey C. Smith Chiropractic Physician", "address": "7293 Post Rd, North Kingstown, RI 02852", "city": "North Kingstown", "phone": "+1 401-295-8606", "website": "https://oceanstatesportandspine.com/", "rating": 4.9, "reviews": 69, "place_id": "ChIJXwXkx5Wz5YkRrft5VtDZt08", "latitude": 41.5994682, "longitude": -71.45590969999999, "care_type": "Chiropractor"}, {"name": "Village Chiropractic Center", "address": "55 Boston Neck Rd, North Kingstown, RI 02852", "city": "North Kingstown", "phone": "+1 401-667-7700", "website": "", "rating": 5.0, "reviews": 1, "place_id": "ChIJqSReaGex5YkR12aoH28de6k", "latitude": 41.567169, "longitude": -71.450991, "care_type": "Chiropractor"}, {"name": "Narragansett Family Chiropractic DocBlack Family Chiropractic", "address": "140 Point Judith Rd #30, Narragansett, RI 02882", "city": "Narragansett", "phone": "+1 401-885-1545", "website": "http://www.docblack.com/", "rating": 5.0, "reviews": 13, "place_id": "ChIJD0rOy6q-5YkRS4IIYTXnhpg", "latitude": 41.4256348, "longitude": -71.47919139999999, "care_type": "Chiropractor"}, {"name": "Ciresi Chiropractic", "address": "3285 S County Trl E, East Greenwich, RI 02818", "city": "East Greenwich", "phone": "+1 401-398-2468", "website": "https://www.ciresichiro.com/", "rating": 4.9, "reviews": 173, "place_id": "ChIJU8HNlm605YkRDrCsYwFDixY", "latitude": 41.6076687, "longitude": -71.49372699999999, "care_type": "Chiropractor"}, {"name": "Vincent E. Brunelle, DC", "address": "250 W Main St, North Kingstown, RI 02852", "city": "North Kingstown", "phone": "+1 401-295-2527", "website": "http://brunellefamilychiropractic.com/", "rating": 5.0, "reviews": 3, "place_id": "ChIJZdZ8W1mx5YkRjWP3TczXCp8", "latitude": 41.572976, "longitude": -71.46072099999999, "care_type": "Chiropractor"}, {"name": "Rehab Lab", "address": "140 Point Judith Rd suite c33, Narragansett, RI 02882", "city": "Narragansett", "phone": "+1 401-871-7400", "website": "https://rehablabri.com/", "rating": 5.0, "reviews": 9, "place_id": "ChIJM2oUl9S55YkRj0KGy2fKePQ", "latitude": 41.4261617, "longitude": -71.4798795, "care_type": "Chiropractor"}, {"name": "Dr. Justin Belanger", "address": "24 Salt Pond Rd STE C5, Wakefield, RI 02879", "city": "Wakefield", "phone": "+1 401-789-5008", "website": "https://www.centerforhealthri.com/meet-the-doctor", "rating": 5.0, "reviews": 2, "place_id": "ChIJiS8y0E255YkRRKMADYD8OTs", "latitude": 41.4320674, "longitude": -71.491692, "care_type": "Chiropractor"}, {"name": "Michael A. Preneta, DC, MS at Wickford Chiropractic and Wellness Center", "address": "610 Ten Rod Rd, North Kingstown, RI 02852", "city": "North Kingstown", "phone": "+1 401-295-9767", "website": "http://www.wickfordchiro.com/", "rating": 5.0, "reviews": 1, "place_id": "ChIJjxGlFq625YkRVDJkg6ZMyn0", "latitude": 41.5724409, "longitude": -71.4844914, "care_type": "Chiropractor"}, {"name": "Center For Health", "address": "10 Arnold Farm Rd Unit 3, West Greenwich, RI 02817", "city": "West Greenwich", "phone": "+1 401-789-5008", "website": "https://www.centerforhealthri.com/", "rating": 5.0, "reviews": 13, "place_id": "ChIJKXfXoPrJ5YkROG-U5jETCKU", "latitude": 41.6070473, "longitude": -71.66239139999999, "care_type": "Chiropractor"}, {"name": "Back & Neck Care Clinic", "address": "7293 Post Rd, North Kingstown, RI 02852", "city": "North Kingstown", "phone": "+1 401-295-8606", "website": "http://www.oceanstatesportandspine.com/", "rating": 5.0, "reviews": 2, "place_id": "ChIJXwXkx5Wz5YkRnAK0ZH55vwA", "latitude": 41.599486, "longitude": -71.455884, "care_type": "Chiropractor"}, {"name": "Dr. Alan R. Post", "address": "1130 Ten Rod Rd D204, North Kingstown, RI 02852", "city": "North Kingstown", "phone": "+1 401-294-9550", "website": "http://www.dralanpost.com/", "rating": 4.2, "reviews": 5, "place_id": "ChIJ0z4gbqG25YkRHKfATth8QvI", "latitude": 41.5784454, "longitude": -71.4981384, "care_type": "Chiropractor"}, {"name": "Kevin J. Pelton, DC", "address": "730 Kingstown Rd #3, Wakefield, RI 02879", "city": "Wakefield", "phone": "+1 401-782-8380", "website": "", "rating": null, "reviews": 0, "place_id": "ChIJuWKeMEO55YkRNBDIwNkdATI", "latitude": 41.443773, "longitude": -71.4902587, "care_type": "Chiropractor"}, {"name": "Absolute Chiropractic", "address": "1130 Ten Rod Rd, North Kingstown, RI 02852", "city": "North Kingstown", "phone": "+1 401-294-9550", "website": "", "rating": null, "reviews": 0, "place_id": "ChIJ9amYm6C25YkRd_GvT1COILQ", "latitude": 41.5793818, "longitude": -71.4974168, "care_type": "Chiropractor"}, {"name": "Algiere Chiropractic", "address": "1133 Main St, Wyoming, RI 02898", "city": "Wyoming", "phone": "+1 401-539-1171", "website": "http://algierechiro.com/", "rating": 5.0, "reviews": 62, "place_id": "ChIJnWnhlrvF5YkRWlyPYtzy83o", "latitude": 41.5150032, "longitude": -71.7024993, "care_type": "Chiropractor"}, {"name": "Vibrant Life Chiropractic", "address": "54 Richmond Townhouse Rd, Wyoming, RI 02898", "city": "Wyoming", "phone": "+1 401-539-2617", "website": "http://www.vibrantlife401.com/", "rating": 5.0, "reviews": 13, "place_id": "ChIJ7eZr28XF5YkRkar2cZQPLPE", "latitude": 41.4929068, "longitude": -71.66034309999999, "care_type": "Chiropractor"}, {"name": "New Horizon Chiropractic and Wellness", "address": "775 Old Baptist Rd, North Kingstown, RI 02852", "city": "North Kingstown", "phone": "+1 401-683-6430", "website": "", "rating": 5.0, "reviews": 8, "place_id": "ChIJb_sQAcer5YkRepja1-WABVQ", "latitude": 41.5957914, "longitude": -71.48872159999999, "care_type": "Chiropractor"}, {"name": "Dr. David Davis", "address": "12 Bay Spring Ave, Barrington, RI 02806", "city": "Barrington", "phone": "+1 401-529-8970", "website": "https://www.drdaviddavis.com/", "rating": 5.0, "reviews": 19, "place_id": "ChIJbQEyzlJR5IkRB3Lei6R-DE0", "latitude": 41.7475634, "longitude": -71.34174639999999, "care_type": "Chiropractor"}, {"name": "Barrington Chiropractic", "address": "282 County Rd, Barrington, RI 02806", "city": "Barrington", "phone": "+1 401-245-7010", "website": "", "rating": 5.0, "reviews": 1, "place_id": "ChIJz7UphCFR5IkRTqsI20xfmoM", "latitude": 41.7409043, "longitude": -71.3096478, "care_type": "Chiropractor"}, {"name": "Dr. Aaron Hoffmann", "address": "207 Waseca Ave, Barrington, RI 02806", "city": "Barrington", "phone": "+1 401-289-2444", "website": "", "rating": null, "reviews": 0, "place_id": "ChIJ__97MyJR5IkRT3a-LNW4y78", "latitude": 41.7383213, "longitude": -71.3090637, "care_type": "Chiropractor"}, {"name": "Matthew P. Carrera, DC", "address": "20 Bosworth St, Barrington, RI 02806", "city": "Barrington", "phone": "+1 401-247-2991", "website": "", "rating": 5.0, "reviews": 2, "place_id": "ChIJBbx_nSRR5IkR7U4B-P7XOrs", "latitude": 41.7360516, "longitude": -71.3052615, "care_type": "Chiropractor"}, {"name": "Sullivan Brian E DC", "address": "20 Bosworth St, Barrington, RI 02806", "city": "Barrington", "phone": "+1 401-247-2991", "website": "", "rating": 5.0, "reviews": 2, "place_id": "ChIJBbx_nSRR5IkRSir55d5DGds", "latitude": 41.7360516, "longitude": -71.3052615, "care_type": "Chiropractor"}, {"name": "Pedro Dealmeida", "address": "282 County Rd, Barrington, RI 02806", "city": "Barrington", "phone": "+1 401-245-7010", "website": "", "rating": 1.0, "reviews": 1, "place_id": "ChIJQ72xiCFR5IkR5ZW396lGG30", "latitude": 41.7401322, "longitude": -71.3090012, "care_type": "Chiropractor"}, {"name": "Conley John DC", "address": "24 Linden Rd, Barrington, RI 02806", "city": "Barrington", "phone": "+1 401-247-0633", "website": "", "rating": null, "reviews": 0, "place_id": "ChIJe6bliddQ5IkRLt-PJ-Eldy0", "latitude": 41.744579, "longitude": -71.299261, "care_type": "Chiropractor"}, {"name": "Joseph M. Casalino IV, DC", "address": "20 Bosworth St, Barrington, RI 02806", "city": "Barrington", "phone": "", "website": "", "rating": null, "reviews": 0, "place_id": "ChIJBbx_nSRR5IkREOTEevWh-IU", "latitude": 41.7360516, "longitude": -71.3052615, "care_type": "Chiropractor"}, {"name": "Easton Pond Chiropractic", "address": "272 Valley Rd, Middletown, RI 02842", "city": "Middletown", "phone": "+1 401-848-7634", "website": "https://eastonpondchiropractic.com/", "rating": 5.0, "reviews": 122, "place_id": "ChIJa4nxe8uo5YkRJ8Anc0L5UPQ", "latitude": 41.5116761, "longitude": -71.2894213, "care_type": "Chiropractor"}, {"name": "Middletown Chiropractic Center", "address": "200 High Point Ave, Portsmouth, RI 02871", "city": "Portsmouth", "phone": "+1 401-847-3644", "website": "http://www.middletownchiro.com/", "rating": 4.6, "reviews": 10, "place_id": "ChIJfe04ia2u5YkRGnCeuSDp-tQ", "latitude": 41.5970855, "longitude": -71.26011059999999, "care_type": "Chiropractor"}, {"name": "Island Chiropractic", "address": "510 E Main Rd, Middletown, RI 02842", "city": "Middletown", "phone": "+1 401-864-6204", "website": "http://www.islandchiropracticri.com/", "rating": 5.0, "reviews": 5, "place_id": "ChIJ57688DKp5YkRrXAGG0_ISe0", "latitude": 41.5222604, "longitude": -71.2838483, "care_type": "Chiropractor"}, {"name": "Swell n' Good Performance Wellness", "address": "94 E Main Rd, Middletown, RI 02842", "city": "Middletown", "phone": "+1 401-847-8889", "website": "http://swellngood.com/", "rating": 5.0, "reviews": 35, "place_id": "ChIJ2z8wCFiv5YkRvb7Y0044tIM", "latitude": 41.5179069, "longitude": -71.29772969999999, "care_type": "Chiropractor"}, {"name": "Aquidneck Chiropractic", "address": "1272 W Main Rd, Middletown, RI 02842", "city": "Middletown", "phone": "+1 401-849-7011", "website": "http://aquidchiro.com/", "rating": 4.6, "reviews": 22, "place_id": "ChIJt9HnqLau5YkRmTVfacr4mdE", "latitude": 41.5347187, "longitude": -71.2937778, "care_type": "Chiropractor"}, {"name": "Michael Gottfried - Aquidneck Chiropractic", "address": "1272 W Main Rd, Middletown, RI 02842", "city": "Middletown", "phone": "+1 401-849-7011", "website": "http://www.drmgottfried.com/", "rating": 5.0, "reviews": 8, "place_id": "ChIJB5k-p7au5YkRlpSuRjjD8aM", "latitude": 41.5339625, "longitude": -71.2934298, "care_type": "Chiropractor"}, {"name": "Debra R. Sheehan, DC", "address": "510 E Main Rd UNIT 12, Middletown, RI 02842", "city": "Middletown", "phone": "+1 401-842-0500", "website": "", "rating": 4.7, "reviews": 7, "place_id": "ChIJ57688DKp5YkRUiJ0Jq2q0WQ", "latitude": 41.522271, "longitude": -71.2838269, "care_type": "Chiropractor"}, {"name": "Jeffrey Falcon, DC", "address": "747 Aquidneck Ave, Middletown, RI 02842", "city": "Middletown", "phone": "+1 401-263-8370", "website": "http://falconwellness.com/", "rating": 4.5, "reviews": 4, "place_id": "ChIJZ8DB5NWo5YkRqkyMeVlaRGY", "latitude": 41.5081302, "longitude": -71.28190769999999, "care_type": "Chiropractor"}, {"name": "Dr. Maria C. Alemany Chiropractic & Wellness", "address": "510 E Main Rd, Middletown, RI 02842", "city": "Middletown", "phone": "+1 401-855-8710", "website": "http://www.alemanychiropractic.com/", "rating": 5.0, "reviews": 22, "place_id": "ChIJ2168FLqp5YkR_TzkmNcQR1s", "latitude": 41.5222604, "longitude": -71.2838483, "care_type": "Chiropractor"}, {"name": "Chiropractic Society of Rhode Island", "address": "1272 W Main Rd #2, Middletown, RI 02842", "city": "Middletown", "phone": "+1 401-207-0700", "website": "http://richiro.org/", "rating": null, "reviews": 0, "place_id": "ChIJB5k-p7au5YkRpjP2WU_qc8U", "latitude": 41.5339625, "longitude": -71.2934298, "care_type": "Chiropractor"}, {"name": "Newport Chiropractic Center", "address": "4 Calvert St, Newport, RI 02840", "city": "Newport", "phone": "+1 401-847-4224", "website": "http://www.newportchiropracticcenter.com/", "rating": 5.0, "reviews": 65, "place_id": "ChIJrWrlhD-v5YkRiVoynmzqw74", "latitude": 41.4944122, "longitude": -71.3087602, "care_type": "Chiropractor"}, {"name": "Grace Chiropractic", "address": "88 Valley Rd, Middletown, RI 02842", "city": "Middletown", "phone": "+1 401-619-2709", "website": "", "rating": null, "reviews": 0, "place_id": "ChIJv7cfv9Ou5YkRCTIzqK3L0Dk", "latitude": 41.51667, "longitude": -71.291696, "care_type": "Chiropractor"}, {"name": "Chiropractic Health Services", "address": "372 Broadway, Newport, RI 02840", "city": "Newport", "phone": "+1 401-847-2248", "website": "http://www.chsri.com/", "rating": 5.0, "reviews": 6, "place_id": "ChIJkTVVbzyv5YkRiiPT24Szt04", "latitude": 41.500192, "longitude": -71.30635099999999, "care_type": "Chiropractor"}, {"name": "Danielle R. Coulter, DC", "address": "4 Calvert St, Newport, RI 02840", "city": "Newport", "phone": "+1 401-847-4224", "website": "https://newportchiropracticcenter.com/", "rating": 4.9, "reviews": 68, "place_id": "ChIJrWrlhD-v5YkRTjIdXPgUFwo", "latitude": 41.494435, "longitude": -71.30878779999999, "care_type": "Chiropractor"}, {"name": "Knapp Chiropractic", "address": "333 Valley Rd, Middletown, RI 02842", "city": "Middletown", "phone": "+1 401-849-6469", "website": "", "rating": null, "reviews": 0, "place_id": "ChIJa8s9htWu5YkR8vtRshwci5g", "latitude": 41.510526, "longitude": -71.291068, "care_type": "Chiropractor"}, {"name": "Christopher Black", "address": "140 Point Judith Rd #30, Narragansett, RI 028823451", "city": "Narragansett", "phone": "+1 401-782-4884", "website": "", "rating": 5.0, "reviews": 1, "place_id": "ChIJuzpM01S55YkRUi2OSeCeTOM", "latitude": 41.4259377, "longitude": -71.4805241, "care_type": "Chiropractor"}, {"name": "Sakonnet Chiropractic Center", "address": "1061 Fish Rd #1, Tiverton, RI 02878", "city": "Tiverton", "phone": "+1 401-847-4224", "website": "https://newportchiropracticcenter.com/", "rating": null, "reviews": 0, "place_id": "ChIJYezKsQD_5IkR1GI3MkCm8Mw", "latitude": 41.64075, "longitude": -71.18765619999999, "care_type": "Chiropractor"}, {"name": "Cranston Chiropractic Center", "address": "1255 Oaklawn Ave, Cranston, RI 02920", "city": "Cranston", "phone": "+1 401-942-6020", "website": "http://www.drlisasmith.com/", "rating": 4.9, "reviews": 16, "place_id": "ChIJiyS6w29J5IkRrVAO9tq6w40", "latitude": 41.7353054, "longitude": -71.4783173, "care_type": "Chiropractor"}, {"name": "Cityside Chiropractic", "address": "900 Reservoir Ave, Cranston, RI 02910", "city": "Cranston", "phone": "+1 401-272-5710", "website": "http://www.citysidechiropractic.com/", "rating": 5.0, "reviews": 135, "place_id": "ChIJt6YQHxpP5IkRRADQUasGVpU", "latitude": 41.7763812, "longitude": -71.4475163, "care_type": "Chiropractor"}, {"name": "Chiropractic Health Institute", "address": "30 Chapel View Blvd # 200, Cranston, RI 02920", "city": "Cranston", "phone": "+1 401-561-4515", "website": "https://www.chiropractichealthinstitute.com/", "rating": 5.0, "reviews": 50, "place_id": "ChIJA1KJ8qYo5YkRyp40M-O3RPA", "latitude": 41.7552431, "longitude": -71.4592687, "care_type": "Chiropractor"}, {"name": "Ascend Chiropractic Clinics", "address": "284 Phenix Ave, Cranston, RI 02920", "city": "Cranston", "phone": "+1 401-594-4123", "website": "http://ascendchiropracticclinics.com/", "rating": 5.0, "reviews": 67, "place_id": "ChIJwZApvWBF5IkR-T1cXs0eCxs", "latitude": 41.7790441, "longitude": -71.4761712, "care_type": "Chiropractor"}, {"name": "Estner Injury Centers Cranston Chiropractor", "address": "875 Pontiac Ave, Cranston, RI 02910", "city": "Cranston", "phone": "+1 401-275-2225", "website": "https://www.drestner.com/", "rating": 4.8, "reviews": 69, "place_id": "ChIJf_NzNB9P5IkRuyuiLUs2RKU", "latitude": 41.7614563, "longitude": -71.4430312, "care_type": "Chiropractor"}, {"name": "Chiron Chiropractic Care & CDL/School Bus Driver DOT Medical Exam", "address": "63A Sockanosset Cross Rd #4a, Cranston, RI 02920", "city": "Cranston", "phone": "+1 401-354-2826", "website": "http://chironchiropracticcarellc.com/", "rating": 5.0, "reviews": 67, "place_id": "ChIJoaYe0fRP5IkRS_a3tefXWnI", "latitude": 41.7538816, "longitude": -71.45364169999999, "care_type": "Chiropractor"}, {"name": "Edward T. Caputo, DC", "address": "1040 Oaklawn Ave, Cranston, RI 02920", "city": "Cranston", "phone": "+1 401-944-2221", "website": "https://www.caputochiropracticri.com/meet-the-doctors", "rating": 5.0, "reviews": 15, "place_id": "ChIJh-zw6VJJ5IkRvehkambzXf4", "latitude": 41.7426744, "longitude": -71.4789265, "care_type": "Chiropractor"}, {"name": "Chiropractic RI- Dr. Lauren Gallucci", "address": "1249 Oaklawn Ave, Cranston, RI 02920", "city": "Cranston", "phone": "+1 401-360-4900", "website": "", "rating": 5.0, "reviews": 17, "place_id": "ChIJcbD0hRRJ5IkRvmeYOMj5gWs", "latitude": 41.7355138, "longitude": -71.4782716, "care_type": "Chiropractor"}, {"name": "Stryve Spine & Sport", "address": "545 Atwood Ave, Cranston, RI 02920", "city": "Cranston", "phone": "+1 401-500-8888", "website": "http://stryvechiropractic.com/", "rating": 5.0, "reviews": 164, "place_id": "ChIJY4RDNplP5IkRelVIACc5G6s", "latitude": 41.790726, "longitude": -71.4718175, "care_type": "Chiropractor"}, {"name": "Knightsville Chiropractic", "address": "725 Reservoir Ave STE 102, Cranston, RI 02910", "city": "Cranston", "phone": "+1 401-490-7010", "website": "http://www.knightsvillechiro.com/", "rating": 5.0, "reviews": 14, "place_id": "ChIJ0ciGEjpP5IkRR6GNWcZ80Fo", "latitude": 41.7803824, "longitude": -71.4438761, "care_type": "Chiropractor"}, {"name": "Rhode Island Spine & Injury Institute", "address": "1528 Cranston St, Cranston, RI 02920", "city": "Cranston", "phone": "+1 401-537-7418", "website": "http://www.rhodeislandspineandinjuryinstitute.com/", "rating": 5.0, "reviews": 2, "place_id": "ChIJJdWqzu5P5IkR53u_Ih2136M", "latitude": 41.7894352, "longitude": -71.4622636, "care_type": "Chiropractor"}, {"name": "Caputo Chiropractic", "address": "1040 Oaklawn Ave, Cranston, RI 02920", "city": "Cranston", "phone": "+1 401-944-2221", "website": "https://www.caputochiropracticri.com/", "rating": 5.0, "reviews": 7, "place_id": "ChIJ___j6VJJ5IkRZPCX6jTcKBQ", "latitude": 41.7426545, "longitude": -71.4789164, "care_type": "Chiropractor"}, {"name": "Rising Tide Chiropractic", "address": "1150 New London Ave Suite 200, Cranston, RI 02920", "city": "Cranston", "phone": "+1 401-216-4735", "website": "https://www.risingtidechiro.com/", "rating": 5.0, "reviews": 11, "place_id": "ChIJmzNcxY5P5IkRlc0DRdf_n00", "latitude": 41.7381126, "longitude": -71.4770164, "care_type": "Chiropractor"}, {"name": "Spinetech", "address": "1528 Cranston St #5264, Cranston, RI 02920", "city": "Cranston", "phone": "+1 401-942-1633", "website": "https://spinetech-ri.com/", "rating": 4.8, "reviews": 26, "place_id": "ChIJffMkgjhP5IkRQPKg4JkNyFQ", "latitude": 41.789435, "longitude": -71.462181, "care_type": "Chiropractor"}, {"name": "Kervick Family Chiropractic", "address": "960 Reservoir Ave, Cranston, RI 02910", "city": "Cranston", "phone": "+1 401-941-7171", "website": "", "rating": 5.0, "reviews": 2, "place_id": "ChIJoUpkfw5P5IkR8yt7cQDNX-w", "latitude": 41.7751042, "longitude": -71.4492506, "care_type": "Chiropractor"}, {"name": "Dr. Richard Picard, DC, CNC", "address": "Upper Level, 342 Atwood Ave, Cranston, RI 02920", "city": "Cranston", "phone": "+1 401-942-6967", "website": "http://www.drrichardpicard.com/", "rating": 5.0, "reviews": 31, "place_id": "ChIJ6YoAvDNP5IkRKmDqQ1AUq7Y", "latitude": 41.7851262, "longitude": -71.4734014, "care_type": "Chiropractor"}, {"name": "Dr Michele's Chiropractic Care", "address": "571 Pontiac Ave, Cranston, RI 02910", "city": "Cranston", "phone": "+1 401-785-2200", "website": "", "rating": 5.0, "reviews": 4, "place_id": "ChIJLevYLg9P5IkRw1RSrakOjJI", "latitude": 41.7712964, "longitude": -71.4373748, "care_type": "Chiropractor"}, {"name": "Michael A Pezza DC", "address": "960 Reservoir Ave #12, Cranston, RI 02910", "city": "Cranston", "phone": "+1 401-228-3091", "website": "", "rating": 5.0, "reviews": 12, "place_id": "ChIJPYNZuPxF5IkR9qI4GWI9Fek", "latitude": 41.7750583, "longitude": -71.4492957, "care_type": "Chiropractor"}, {"name": "Mulak Mark DC", "address": "900 Reservoir Ave, Cranston, RI 02910", "city": "Cranston", "phone": "+1 401-272-5710", "website": "http://www.citysidechiropractic.com/", "rating": 5.0, "reviews": 1, "place_id": "ChIJpywRHxpP5IkRpT9RV2Ce65U", "latitude": 41.77638839999999, "longitude": -71.4474686, "care_type": "Chiropractor"}, {"name": "Rhode Island Chiropractic Pain Control Clinic", "address": "1524 Atwood Ave Ste 210A, Johnston, RI 02919", "city": "Johnston", "phone": "+1 401-274-9355", "website": "https://rhodeislandchiropractic.net/", "rating": 5.0, "reviews": 27, "place_id": "ChIJxR0jiD1G5IkRaGan6eXnOhc", "latitude": 41.8273987, "longitude": -71.5016612, "care_type": "Chiropractor"}, {"name": "Enos Chiropractic Center", "address": "12 Calef St, Warwick, RI 02886", "city": "Warwick", "phone": "+1 401-921-6550", "website": "http://enoschiro.com/", "rating": 4.9, "reviews": 264, "place_id": "ChIJTWMwW4BL5IkRzOnfVFpR4ww", "latitude": 41.6984587, "longitude": -71.4657529, "care_type": "Chiropractor"}, {"name": "Dr. Lisa Vizzacco", "address": "1255 Oaklawn Ave Ste 2D, Cranston, RI 02920", "city": "Cranston", "phone": "+1 401-942-6020", "website": "https://www.drlisasmith.com/contact/cranston/", "rating": 5.0, "reviews": 2, "place_id": "ChIJp0etRVVJ5IkRJAwQnu6Gw3I", "latitude": 41.735299, "longitude": -71.47837659999999, "care_type": "Chiropractor"}, {"name": "Kervick Lindsay A DC", "address": "960 Reservoir Ave, Cranston, RI 02910", "city": "Cranston", "phone": "+1 401-941-7171", "website": "", "rating": 5.0, "reviews": 6, "place_id": "ChIJoUpkfw5P5IkRGog9GRIphX8", "latitude": 41.7749319, "longitude": -71.4491323, "care_type": "Chiropractor"}, {"name": "Judith M. Gallagher, DC", "address": "1040 Oaklawn Ave, Cranston, RI 02920", "city": "Cranston", "phone": "+1 401-944-2221", "website": "http://www.caputochiropracticri.com/", "rating": null, "reviews": 0, "place_id": "ChIJh-zw6VJJ5IkR7_NLBE55fgc", "latitude": 41.742691, "longitude": -71.4789461, "care_type": "Chiropractor"}, {"name": "Chiropractic center", "address": "297 Station St, Cranston, RI 02910", "city": "Cranston", "phone": "", "website": "", "rating": null, "reviews": 0, "place_id": "ChIJuU27UKFP5IkROdTZWyp-Zgg", "latitude": 41.7790926, "longitude": -71.4242855, "care_type": "Chiropractor"}, {"name": "Pelosi Michele DC", "address": "571 Pontiac Ave, Cranston, RI 02910", "city": "Cranston", "phone": "+1 401-785-2200", "website": "", "rating": 4.8, "reviews": 5, "place_id": "ChIJLevYLg9P5IkRs75l8rtfHHI", "latitude": 41.7712964, "longitude": -71.4373748, "care_type": "Chiropractor"}, {"name": "Physicians Chiropractic Inc", "address": "1040 Cranston St, Cranston, RI 02920", "city": "Cranston", "phone": "+1 401-942-0600", "website": "", "rating": null, "reviews": 0, "place_id": "ChIJdd-c2GVP5IkRnIw2Q8zrQl8", "latitude": 41.798386, "longitude": -71.44786359999999, "care_type": "Chiropractor"}, {"name": "Summit Chiropractic", "address": "168 Morgan Ave, Johnston, RI 02919", "city": "Johnston", "phone": "+1 401-659-4703", "website": "http://www.summitchiropracticri.com/", "rating": 5.0, "reviews": 13, "place_id": "ChIJs_tfqw1J5IkRt3iR5pmJQO4", "latitude": 41.8050079, "longitude": -71.4782022, "care_type": "Chiropractor"}, {"name": "Pilloni Family Chiropractic", "address": "2797 Post Rd, Warwick, RI 02886", "city": "Warwick", "phone": "+1 401-738-6477", "website": "http://www.pillonichiropractic.com/", "rating": 5.0, "reviews": 322, "place_id": "ChIJjW1WUkBM5IkRU0RKXu1fB64", "latitude": 41.7084762, "longitude": -71.4513253, "care_type": "Chiropractor"}, {"name": "L'europa Robert A DC", "address": "1528 Cranston St #5264, Cranston, RI 02920", "city": "Cranston", "phone": "+1 401-942-1633", "website": "https://spinetech-ri.com/", "rating": null, "reviews": 0, "place_id": "ChIJffMkgjhP5IkRm3XbCLPo11I", "latitude": 41.7894197, "longitude": -71.4621709, "care_type": "Chiropractor"}, {"name": "Chiropractic Treatment Elwood St", "address": "301 Station St, Cranston, RI 02910", "city": "Cranston", "phone": "", "website": "", "rating": null, "reviews": 0, "place_id": "ChIJif-d4qNP5IkRJUHXH_xn-J4", "latitude": 41.7786696, "longitude": -71.4243927, "care_type": "Chiropractor"}, {"name": "Farley David B DC", "address": "1443 Park Ave, Cranston, RI 02920", "city": "Cranston", "phone": "+1 401-942-5625", "website": "", "rating": 5.0, "reviews": 1, "place_id": "ChIJYW1tSzpP5IkRMR3oYnPj2mc", "latitude": 41.7834276, "longitude": -71.4627248, "care_type": "Chiropractor"}, {"name": "LaCharite David J DC", "address": "725 Reservoir Ave STE 102, Cranston, RI 02910", "city": "Cranston", "phone": "+1 401-490-7010", "website": "", "rating": 5.0, "reviews": 9, "place_id": "ChIJ0ciGEjpP5IkRsH8wcCUTRuk", "latitude": 41.7803824, "longitude": -71.4438761, "care_type": "Chiropractor"}, {"name": "Joyce M. Martin, DC", "address": "1040 Cranston St, Cranston, RI 02920", "city": "Cranston", "phone": "+1 401-942-0600", "website": "", "rating": 1.0, "reviews": 2, "place_id": "ChIJdd-c2GVP5IkRddn0strJ9d0", "latitude": 41.7983603, "longitude": -71.44771109999999, "care_type": "Chiropractor"}, {"name": "Rhode Island Chiropractic Pain Control Clinic", "address": "197 Taunton Ave, East Providence, RI 02914", "city": "East Providence", "phone": "+1 401-435-4999", "website": "https://www.rhodeislandchiropractic.net/", "rating": 5.0, "reviews": 8, "place_id": "ChIJKz6UGs9a5IkRo1crUha14Fc", "latitude": 41.81940549999999, "longitude": -71.37302389999999, "care_type": "Chiropractor"}, {"name": "Dr. Ron Tyszkowski, Chiropractor", "address": "155 Jefferson Blvd, Warwick, RI 02888", "city": "Warwick", "phone": "+1 401-751-6568", "website": "http://www.warwickrichiropractor.com/", "rating": 5.0, "reviews": 201, "place_id": "ChIJtyPl2fZP5IkRsP8KkEzmbE0", "latitude": 41.7441962, "longitude": -71.4378768, "care_type": "Chiropractor"}, {"name": "Estner Injury Centers Providence Chiropractor", "address": "49 Pavilion Ave Suite 101, Providence, RI 02905", "city": "Providence", "phone": "+1 401-751-2225", "website": "https://www.drestner.com/", "rating": 4.9, "reviews": 73, "place_id": "ChIJ4VuainpF5IkRjg6ikzdpiw0", "latitude": 41.7991658, "longitude": -71.4032495, "care_type": "Chiropractor"}, {"name": "DeCubellis Family Chiropractic", "address": "51 Hopkins Hill Rd, Coventry, RI 02816", "city": "Coventry", "phone": "+1 401-828-3030", "website": "https://decubellisfamilychiropractic.com/", "rating": 5.0, "reviews": 101, "place_id": "ChIJqWAqU1Y15IkR7ce8AVmgsH0", "latitude": 41.6800772, "longitude": -71.5679294, "care_type": "Chiropractor"}, {"name": "Mc Ardle Chiropractic", "address": "2013 Plainfield Pike, Johnston, RI 02919", "city": "Johnston", "phone": "+1 401-383-3400", "website": "http://www.mcardlechiropractic.com/", "rating": 5.0, "reviews": 38, "place_id": "ChIJnQ6zFfpI5IkRNAW7lFgdMdQ", "latitude": 41.7892991, "longitude": -71.519606, "care_type": "Chiropractor"}, {"name": "Iannuccilli Arianna DC", "address": "560 Elmwood Ave, Providence, RI 02907", "city": "Providence", "phone": "+1 401-421-1125", "website": "https://www.iannuccillichiro.com/family-chiropractic", "rating": 4.6, "reviews": 20, "place_id": "ChIJb38y74NP5IkRpeQJwc1QXfU", "latitude": 41.79706849999999, "longitude": -71.4251148, "care_type": "Chiropractor"}, {"name": "Greenwich Bay Chiropractic", "address": "16 Main St, East Greenwich, RI 02818", "city": "East Greenwich", "phone": "+1 401-408-4430", "website": "https://greenwichbaychiro.com/", "rating": 5.0, "reviews": 441, "place_id": "ChIJ0cFvZLJN5IkRQ_hj9tFoQGo", "latitude": 41.6636886, "longitude": -71.44951619999999, "care_type": "Chiropractor"}, {"name": "Rhode Island Chiropractic Pain Control Clinic", "address": "586 Dexter St, Central Falls, RI 02863", "city": "Central Falls", "phone": "+1 401-729-4500", "website": "https://www.rhodeislandchiropractic.net/", "rating": 5.0, "reviews": 1, "place_id": "ChIJxTAna0VD5IkRYFRQ7pV4YPw", "latitude": 41.8854048, "longitude": -71.3957243, "care_type": "Chiropractor"}, {"name": "Testa Chiropractic and Wellness Center", "address": "300 Toll Gate Rd Suite LL3, Warwick, RI 02886", "city": "Warwick", "phone": "+1 401-808-8189", "website": "http://www.testachiropractic.com/", "rating": 4.9, "reviews": 40, "place_id": "ChIJKRGIF-ZH5IkReFAC9Jxm7Xc", "latitude": 41.7013013, "longitude": -71.4726089, "care_type": "Chiropractor"}, {"name": "Apponaug Chiropractic Center", "address": "2525 Post Rd, Warwick, RI 02886", "city": "Warwick", "phone": "+1 401-738-9611", "website": "https://apponaugchiro.com/", "rating": 4.9, "reviews": 52, "place_id": "ChIJWZnZXDlM5IkRDkXDzoJozFk", "latitude": 41.7141799, "longitude": -71.44647789999999, "care_type": "Chiropractor"}, {"name": "University Chiropractic", "address": "45 Eagle St Ste J100, Providence, RI 02909", "city": "Providence", "phone": "+1 401-272-1120", "website": "http://universitychiropractic.net/", "rating": 5.0, "reviews": 6, "place_id": "ChIJly7ffqFF5IkRJjQLXrzX2kE", "latitude": 41.8256574, "longitude": -71.43675979999999, "care_type": "Chiropractor"}, {"name": "Toll Gate Chiropractic", "address": "189 Toll Gate Rd, Warwick, RI 02886", "city": "Warwick", "phone": "+1 401-738-8154", "website": "http://www.tollgatechiropractic.com/", "rating": 4.9, "reviews": 36, "place_id": "ChIJ2xOvuntM5IkRQmcKR2ZMLg8", "latitude": 41.7010997, "longitude": -71.4694145, "care_type": "Chiropractor"}, {"name": "Marino Leonardo J DC", "address": "1196 Elmwood Ave, Providence, RI 02907", "city": "Providence", "phone": "+1 401-545-3334", "website": "", "rating": 5.0, "reviews": 8, "place_id": "ChIJs47KcqNP5IkRg19VLbUK-ZE", "latitude": 41.7790279, "longitude": -71.42032379999999, "care_type": "Chiropractor"}, {"name": "Manzolillo Family Chiropractic", "address": "1481 Atwood Ave # 6, Johnston, RI 02919", "city": "Johnston", "phone": "+1 401-272-0888", "website": "", "rating": 4.8, "reviews": 17, "place_id": "ChIJkZKUuRlG5IkRe0pRn-nhr_I", "latitude": 41.8227971, "longitude": -71.4973708, "care_type": "Chiropractor"}, {"name": "Shakoori Shadi DC", "address": "160 Taunton Ave, East Providence, RI 02914", "city": "East Providence", "phone": "+1 401-435-2002", "website": "http://www.decrescenzochiropractic.com/about-us/", "rating": 5.0, "reviews": 2, "place_id": "ChIJa40Ukc5a5IkRkgksIxflb_A", "latitude": 41.8198941, "longitude": -71.3764104, "care_type": "Chiropractor"}, {"name": "Dr. Douglas Decubellis", "address": "51 Hopkins Hill Rd, Coventry, RI 02816", "city": "Coventry", "phone": "+1 401-828-3030", "website": "https://www.decubellisfamilychiropractic.com/", "rating": 4.9, "reviews": 13, "place_id": "ChIJAQDp6KhK5IkRUtvAPCdpp48", "latitude": 41.680296, "longitude": -71.5682408, "care_type": "Chiropractor"}, {"name": "The Holistic Approach", "address": "222 Jefferson Blvd #4, Warwick, RI 02888", "city": "Warwick", "phone": "+1 401-423-4433", "website": "https://mysite.vagaro.com/theholisticapproach/home/preview", "rating": 4.5, "reviews": 131, "place_id": "ChIJhdLI-29P5IkRdqbnNx-A6RU", "latitude": 41.741354, "longitude": -71.4380264, "care_type": "Chiropractor"}, {"name": "Keenan Stephen J Dr", "address": "1255 Oaklawn Ave, Cranston, RI 02920", "city": "Cranston", "phone": "+1 401-942-6020", "website": "", "rating": null, "reviews": 0, "place_id": "ChIJp0etRVVJ5IkR0jrnKDMcWd8", "latitude": 41.735299, "longitude": -71.47837659999999, "care_type": "Chiropractor"}, {"name": "Natural Alternatives Inc", "address": "100 Lafayette St, Pawtucket, RI 02860", "city": "Pawtucket", "phone": "+1 401-351-8960", "website": "http://www.naturalalternativesinc.com/", "rating": 5.0, "reviews": 30, "place_id": "ChIJrfc6TudE5IkRv0pRNmgwBn8", "latitude": 41.8576308, "longitude": -71.3913903, "care_type": "Chiropractor"}, {"name": "Family Chiropractic Services", "address": "919 Main St Ste 9, West Warwick, RI 02893", "city": "West Warwick", "phone": "+1 401-828-8822", "website": "http://www.drlisasmith.com/", "rating": 5.0, "reviews": 3, "place_id": "ChIJyw_G5qxL5IkR5rqVOavuEOo", "latitude": 41.7180064, "longitude": -71.5242506, "care_type": "Chiropractor"}, {"name": "DocBlack Family Chiropractic", "address": "308 Cowesett Ave, West Warwick, RI 02893", "city": "West Warwick", "phone": "+1 401-885-1545", "website": "https://www.docblack.com/", "rating": 5.0, "reviews": 5, "place_id": "ChIJT0RFkBRL5IkRX7yUFKKVsw8", "latitude": 41.685151, "longitude": -71.503705, "care_type": "Chiropractor"}, {"name": "Rhode Island Chiro Pain: Lancellotti Jr William DC", "address": "197 Taunton Ave E, East Providence, RI 02914", "city": "East Providence", "phone": "+1 401-435-4999", "website": "", "rating": null, "reviews": 0, "place_id": "ChIJ57jCD89a5IkRzfFSnmCxh_4", "latitude": 41.8195216, "longitude": -71.3727308, "care_type": "Chiropractor"}, {"name": "Dr. Lisa Vizzacco", "address": "919 Main St Ste 9, West Warwick, RI 02893", "city": "West Warwick", "phone": "+1 401-942-6020", "website": "https://www.drlisavizzacco.com/", "rating": 5.0, "reviews": 1, "place_id": "ChIJjXe247tE5IkRWu1-YPahktE", "latitude": 41.7180703, "longitude": -71.5241948, "care_type": "Chiropractor"}, {"name": "Mc Govern Ericka E DC", "address": "245 Waterman St # 503, Providence, RI 02906", "city": "Providence", "phone": "+1 401-667-3773", "website": "http://erickamcgoverndc.com/", "rating": 5.0, "reviews": 12, "place_id": "ChIJAQAAALlE5IkRJdWNyynsqJ4", "latitude": 41.8279322, "longitude": -71.3873206, "care_type": "Chiropractor"}, {"name": "Dr. Dennis Lanni", "address": "667 Academy Ave 2nd floor, Providence, RI 02908", "city": "Providence", "phone": "+1 401-354-4460", "website": "", "rating": 5.0, "reviews": 1, "place_id": "ChIJZaj7ILNF5IkRs4Yfo7D_518", "latitude": 41.8433076, "longitude": -71.4449249, "care_type": "Chiropractor"}, {"name": "Dr. Stephen Estner", "address": "875 Pontiac Ave, Cranston, RI 02910", "city": "Cranston", "phone": "+1 401-275-2225", "website": "https://www.drestner.com/", "rating": null, "reviews": 0, "place_id": "ChIJq6o-vORO5IkRU9GVnY7adx0", "latitude": 41.7614563, "longitude": -71.4430512, "care_type": "Chiropractor"}, {"name": "Rhode Island Chiropractic: Lancellotti Joseph DC", "address": "371 Broadway, Providence, RI 02909", "city": "Providence", "phone": "+1 401-274-5100", "website": "https://www.rhodeislandchiropractic.net/", "rating": null, "reviews": 0, "place_id": "ChIJ_ajVKJ5F5IkRoLnM9WzlbBs", "latitude": 41.819809, "longitude": -71.430295, "care_type": "Chiropractor"}, {"name": "Dr. Gregory Decrescenzo", "address": "231 Douglas Ave, Providence, RI 02908", "city": "Providence", "phone": "+1 401-270-8865", "website": "https://decrescenzochiropractic.com/biography-gregory-decrescenzo-dc/", "rating": 5.0, "reviews": 1, "place_id": "ChIJq6qazwNF5IkRVFm_esLf_1U", "latitude": 41.8377229, "longitude": -71.423118, "care_type": "Chiropractor"}, {"name": "oasis foot spa", "address": "40 Rolfe Square, Cranston, RI 02910", "city": "Cranston", "phone": "+1 401-228-2148", "website": "", "rating": 4.4, "reviews": 51, "place_id": "ChIJh-jpLA9P5IkRU-rPxV17BeI", "latitude": 41.77755579999999, "longitude": -71.43596579999999, "care_type": "Chiropractor"}, {"name": "Marzilli Jr Robert B DC", "address": "1395 Atwood Ave Ste 209A, Johnston, RI 02919", "city": "Johnston", "phone": "+1 401-270-9595", "website": "", "rating": 5.0, "reviews": 3, "place_id": "ChIJVyjHeR5G5IkRE7MNm-I3cJs", "latitude": 41.8161904, "longitude": -71.4955166, "care_type": "Chiropractor"}, {"name": "Miller Chiropractic", "address": "861 863 Broadway, East Providence, RI 02914", "city": "East Providence", "phone": "+1 401-434-3000", "website": "https://www.millerchirori.com/", "rating": 5.0, "reviews": 40, "place_id": "ChIJaQcKwcVa5IkR9dCijRrcBqg", "latitude": 41.8180776, "longitude": -71.369231, "care_type": "Chiropractor"}, {"name": "Lancellotti Jos L DC", "address": "1126 Hartford Ave Ste 102, Johnston, RI 02919", "city": "Johnston", "phone": "+1 401-274-5100", "website": "", "rating": 5.0, "reviews": 2, "place_id": "ChIJoU-wgQVG5IkRh4reQJwr6Ig", "latitude": 41.8220752, "longitude": -71.486127, "care_type": "Chiropractor"}, {"name": "Injury Center", "address": "176 Webster Ave #2, Providence, RI 02909", "city": "Providence", "phone": "+1 401-275-0812", "website": "", "rating": 5.0, "reviews": 3, "place_id": "ChIJpRmW8otF5IkRP2WX8Z06nrE", "latitude": 41.810834, "longitude": -71.4491257, "care_type": "Chiropractor"}, {"name": "Wong Phillip T DC", "address": "1109 Atwells Ave, Providence, RI 02909", "city": "Providence", "phone": "+1 401-569-9488", "website": "", "rating": 4.4, "reviews": 7, "place_id": "ChIJtc8FuwZF5IkRyiW2c7TSh6c", "latitude": 41.8254579, "longitude": -71.4543668, "care_type": "Chiropractor"}, {"name": "Rhode Island Chiro Pain: Miele Paul DC", "address": "197 Taunton Ave E, East Providence, RI 02914", "city": "East Providence", "phone": "+1 401-435-4999", "website": "http://rhodeislandchiropractic.net/", "rating": null, "reviews": 0, "place_id": "ChIJ57jCD89a5IkR9S7sarMO7-c", "latitude": 41.8195216, "longitude": -71.3727308, "care_type": "Chiropractor"}, {"name": "Manzolillo Chiropractic Center", "address": "280 Broadway # 306, Providence, RI 02903", "city": "Providence", "phone": "+1 401-273-0046", "website": "", "rating": 5.0, "reviews": 2, "place_id": "ChIJD72RAnVF5IkRPZxi3hKmzGg", "latitude": 41.8201727, "longitude": -71.4270323, "care_type": "Chiropractor"}, {"name": "Toll Gate Chiropractic: Dwyer David Dr", "address": "189 Toll Gate Rd, Warwick, RI 02886", "city": "Warwick", "phone": "+1 401-738-8154", "website": "https://www.tollgatechiropractic.com/dr-david-dwyer", "rating": 4.0, "reviews": 4, "place_id": "ChIJ2xOvuntM5IkRSj8MMvCTrlU", "latitude": 41.701055, "longitude": -71.469313, "care_type": "Chiropractor"}, {"name": "Decubellis Douglas DC", "address": "143 Westminster St, Providence, RI 02903", "city": "Providence", "phone": "+1 401-521-1900", "website": "", "rating": 5.0, "reviews": 4, "place_id": "ChIJyf4XCxNF5IkR5A-coFFGUsE", "latitude": 41.8241132, "longitude": -71.4112901, "care_type": "Chiropractor"}, {"name": "Michael Pensa", "address": "45 Eagle St Ste J100, Providence, RI 02909", "city": "Providence", "phone": "+1 401-272-1120", "website": "", "rating": 5.0, "reviews": 1, "place_id": "ChIJAQBQMKJF5IkRWSKN0lhxYj0", "latitude": 41.8256622, "longitude": -71.4367546, "care_type": "Chiropractor"}, {"name": "Farley & Associates Inc", "address": "1443 Park Ave, Cranston, RI 02920", "city": "Cranston", "phone": "+1 401-942-5625", "website": "", "rating": null, "reviews": 0, "place_id": "ChIJYW1tSzpP5IkRsOI51Bh6Iz4", "latitude": 41.7834069, "longitude": -71.4627471, "care_type": "Chiropractor"}, {"name": "Estner Injury Centers Pawtucket Chiropractor", "address": "7 George St, Pawtucket, RI 02860", "city": "Pawtucket", "phone": "+1 401-724-7246", "website": "https://www.drestner.com/", "rating": 5.0, "reviews": 27, "place_id": "ChIJQ_Ie5lVD5IkRbxkjAPkTkdA", "latitude": 41.8747357, "longitude": -71.3876521, "care_type": "Chiropractor"}, {"name": "Youna Foot Reflexology Spa", "address": "1732 Broad St, Cranston, RI 02905", "city": "Cranston", "phone": "+1 401-241-4241", "website": "", "rating": 4.0, "reviews": 3, "place_id": "ChIJ0Rxn_8FP5IkRLSc1BBz3mMg", "latitude": 41.7789889, "longitude": -71.4002782, "care_type": "Chiropractor"}, {"name": "Haber-Di Boni Chiropractic", "address": "14 Cedar Swamp Rd Ste 2, Smithfield, RI 02917", "city": "Smithfield", "phone": "+1 401-233-0200", "website": "https://www.haberdiboni.com/", "rating": 5.0, "reviews": 10, "place_id": "ChIJh4aubhlH5IkRYY-8p87rh7o", "latitude": 41.8726252, "longitude": -71.5318683, "care_type": "Chiropractor"}, {"name": "Kevin Miller", "address": "863 Broadway, East Providence, RI 029143723", "city": "East Providence", "phone": "+1 401-434-3000", "website": "https://www.millerchirori.com/meet-dr-kevin-g-miller", "rating": 5.0, "reviews": 8, "place_id": "ChIJcQSh6cVa5IkR0lYgJKERT-4", "latitude": 41.8180817, "longitude": -71.36923879999999, "care_type": "Chiropractor"}, {"name": "Smithfield Chiropractic", "address": "466 Putnam Pike, Greenville, RI 02828", "city": "Greenville", "phone": "+1 401-949-5858", "website": "http://www.smithfieldchiropracticri.com/", "rating": 5.0, "reviews": 7, "place_id": "ChIJCypZoxpH5IkRyNgN9r5xQQw", "latitude": 41.8699201, "longitude": -71.53616, "care_type": "Chiropractor"}, {"name": "Salinger Aaron L DC", "address": "145 Waterman St, Providence, RI 02906", "city": "Providence", "phone": "+1 401-831-2000", "website": "https://www.providencechiropractor.com/about-dr-aaron-salinger/", "rating": 5.0, "reviews": 6, "place_id": "ChIJDQcrsiRF5IkR2O4y_XNilbg", "latitude": 41.82743139999999, "longitude": -71.3966325, "care_type": "Chiropractor"}, {"name": "Ri Chiropractic Health & Rehab Clinic Inc.", "address": "439 Manton Ave, Providence, RI 02909", "city": "Providence", "phone": "", "website": "", "rating": null, "reviews": 0, "place_id": "ChIJtz4fyOpF5IkRlQREw_mIJ4Y", "latitude": 41.8254645, "longitude": -71.4543398, "care_type": "Chiropractor"}, {"name": "Manzolillo Luigi DC", "address": "280 Broadway # 306, Providence, RI 02903", "city": "Providence", "phone": "+1 401-273-0046", "website": "", "rating": 5.0, "reviews": 1, "place_id": "ChIJD72RAnVF5IkRHPRijE15oqo", "latitude": 41.8201439, "longitude": -71.4270265, "care_type": "Chiropractor"}, {"name": "Morison Thomas C DC", "address": "187 Waterman St, Providence, RI 02906", "city": "Providence", "phone": "+1 401-861-1300", "website": "https://wickedgoodposture.com/", "rating": 5.0, "reviews": 3, "place_id": "ChIJWZM8pS9F5IkR4I_A9DOX3_Y", "latitude": 41.8277183, "longitude": -71.3921323, "care_type": "Chiropractor"}, {"name": "Julie Lancellotti", "address": "371 Broadway, Providence, RI 029091448", "city": "Providence", "phone": "+1 401-274-5100", "website": "", "rating": 5.0, "reviews": 1, "place_id": "ChIJmSfVKJ5F5IkRUX0ksY7Zets", "latitude": 41.8198089, "longitude": -71.4303039, "care_type": "Chiropractor"}, {"name": "RI Chiropractic Health & Rehab Clinic, Inc.", "address": "544 Chalkstone Ave, Providence, RI 02908", "city": "Providence", "phone": "+1 401-808-6388", "website": "", "rating": null, "reviews": 0, "place_id": "ChIJtc8FuwZF5IkRFAiUKl7_nuI", "latitude": 41.8351978, "longitude": -71.4250678, "care_type": "Chiropractor"}, {"name": "Hope Chiropractic Center Inc", "address": "635 Hope St, Providence, RI 02906", "city": "Providence", "phone": "+1 401-351-6390", "website": "", "rating": 4.0, "reviews": 3, "place_id": "ChIJvaDr_dpE5IkRwv10b8YrGBs", "latitude": 41.8439156, "longitude": -71.3972157, "care_type": "Chiropractor"}, {"name": "New Hope Family Chiropractic", "address": "192 Newport Ave, Pawtucket, RI 02861", "city": "Pawtucket", "phone": "+1 401-725-2264", "website": "http://www.newhopefamilychiropractic.com/", "rating": 5.0, "reviews": 14, "place_id": "ChIJwUGIFWFb5IkRTU2-WbXdLU0", "latitude": 41.8637324, "longitude": -71.3547368, "care_type": "Chiropractor"}, {"name": "Blackstone Valley Chiropractic", "address": "1156 Newport Ave, Pawtucket, RI 02861", "city": "Pawtucket", "phone": "+1 401-724-3521", "website": "", "rating": 5.0, "reviews": 20, "place_id": "ChIJP7wAx5Rc5IkRhiTZ03HmZKM", "latitude": 41.8860483, "longitude": -71.35439989999999, "care_type": "Chiropractor"}, {"name": "DeCrescenzo Chiropractic - Central Falls", "address": "1084 Broad St #1512, Central Falls, RI 02863", "city": "Central Falls", "phone": "+1 401-365-1212", "website": "https://www.decrescenzochiropractic.com/central-falls-office/", "rating": 4.9, "reviews": 63, "place_id": "ChIJXWeS1TVD5IkRy6Ux8ogCBiQ", "latitude": 41.89470439999999, "longitude": -71.3882835, "care_type": "Chiropractor"}, {"name": "ChiroPlus Spine and Injury Center", "address": "1571 Newport Ave, Pawtucket, RI 02861", "city": "Pawtucket", "phone": "+1 401-231-2300", "website": "http://chiroplusri.com/", "rating": 5.0, "reviews": 17, "place_id": "ChIJBywn3OxH5IkRsn5re_rKX6A", "latitude": 41.8954548, "longitude": -71.3540136, "care_type": "Chiropractor"}, {"name": "Dr. Gregory Decrescenzo", "address": "1155 Newport Ave, Pawtucket, RI 02861", "city": "Pawtucket", "phone": "+1 401-365-1212", "website": "", "rating": 5.0, "reviews": 1, "place_id": "ChIJq6qOuZRc5IkRwKKNdg5t96Q", "latitude": 41.8860187, "longitude": -71.3538789, "care_type": "Chiropractor"}, {"name": "Dr. Rodger Lincoln", "address": "192 Newport Ave, Pawtucket, RI 02861", "city": "Pawtucket", "phone": "+1 401-725-2264", "website": "https://newhopefamilychiropractic.com/dr-rodger-b-lincoln/", "rating": 5.0, "reviews": 1, "place_id": "ChIJAQCMO2Fb5IkRFDisp0TgWHg", "latitude": 41.8637215, "longitude": -71.3547069, "care_type": "Chiropractor"}, {"name": "Disc Centers Of Providence", "address": "192 Newport Ave, Pawtucket, RI 02861", "city": "Pawtucket", "phone": "+1 401-325-7125", "website": "https://www.providencedisccenters.com/", "rating": null, "reviews": 0, "place_id": "ChIJJTJpR1392YARwA8eZHkd-qo", "latitude": 41.8637311, "longitude": -71.3547524, "care_type": "Chiropractor"}, {"name": "Advanced Integrative Medicine", "address": "139 Benefit St, Pawtucket, RI 02861", "city": "Pawtucket", "phone": "+1 401-423-4433", "website": "", "rating": 4.7, "reviews": 23, "place_id": "ChIJ--xlw9Rd5IkRgQp022Zay1s", "latitude": 41.8924519, "longitude": -71.3655828, "care_type": "Chiropractor"}, {"name": "New Hope Family Chiropractic", "address": "2728 Pawtucket Ave, East Providence, RI 02914", "city": "East Providence", "phone": "+1 401-433-3600", "website": "https://newhopefamilychiropractic.com/", "rating": 5.0, "reviews": 21, "place_id": "ChIJp7QHu2tQ5IkRh1VtDYgvNyo", "latitude": 41.8005948, "longitude": -71.362231, "care_type": "Chiropractor"}, {"name": "Gregory DeCrescenzo, DC", "address": "1084 Broad St #1512, Central Falls, RI 02863", "city": "Central Falls", "phone": "+1 401-365-1212", "website": "http://www.decrescenzochiropractic.com/biography-gregory-decrescenzo-dc/", "rating": 5.0, "reviews": 1, "place_id": "ChIJa40Ukc5a5IkR6DWN72bNx48", "latitude": 41.8947041, "longitude": -71.3882836, "care_type": "Chiropractor"}, {"name": "Lincoln Chiropractic", "address": "132 Old River Rd Suite #105, Lincoln, RI 02865", "city": "Lincoln", "phone": "+1 401-334-3900", "website": "http://lincolnchiro.net/", "rating": 5.0, "reviews": 113, "place_id": "ChIJvfePFUdC5IkRaDojszCisrk", "latitude": 41.934925, "longitude": -71.4517745, "care_type": "Chiropractor"}, {"name": "East Street Chiropractic Center", "address": "225 East Ave, Pawtucket, RI 02860", "city": "Pawtucket", "phone": "", "website": "", "rating": null, "reviews": 0, "place_id": "ChIJWwxAFKpE5IkROyBXhj_0jy0", "latitude": 41.8721222, "longitude": -71.3871073, "care_type": "Chiropractor"}, {"name": "Caetano Family Chiropractic", "address": "100 Smithfield Ave, Pawtucket, RI 02860", "city": "Pawtucket", "phone": "+1 401-475-5956", "website": "", "rating": null, "reviews": 0, "place_id": "ChIJId8MdJRE5IkRHVtkB55TSYk", "latitude": 41.8613899, "longitude": -71.4117961, "care_type": "Chiropractor"}, {"name": "Dr. Christopher Dirobbio", "address": "7 George St, Pawtucket, RI 02860", "city": "Pawtucket", "phone": "+1 401-275-2225", "website": "", "rating": null, "reviews": 0, "place_id": "ChIJHY2txFVD5IkR_8RJYBb0xIg", "latitude": 41.8746987, "longitude": -71.387616, "care_type": "Chiropractor"}, {"name": "Dr. Todd Sefla", "address": "1156 Newport Ave, Pawtucket, RI 02861", "city": "Pawtucket", "phone": "+1 401-724-3521", "website": "", "rating": 3.0, "reviews": 2, "place_id": "ChIJP7wAx5Rc5IkRaPQ_EGm3NEM", "latitude": 41.8860483, "longitude": -71.35439989999999, "care_type": "Chiropractor"}, {"name": "Estner Stephen M DC", "address": "7 George St, Pawtucket, RI 02860", "city": "Pawtucket", "phone": "+1 401-724-7246", "website": "http://www.drestner.com/", "rating": null, "reviews": 0, "place_id": "ChIJFzxYw1VD5IkRFzwyO3gsUk0", "latitude": 41.8747068, "longitude": -71.3876339, "care_type": "Chiropractor"}, {"name": "Laura B. Murphy, DC", "address": "600 Pawtucket Ave, Pawtucket, RI 02860", "city": "Pawtucket", "phone": "+1 401-728-2200", "website": "", "rating": null, "reviews": 0, "place_id": "ChIJvyhUx7hE5IkRV1SeG3dHT0Q", "latitude": 41.8571134, "longitude": -71.39917419999999, "care_type": "Chiropractor"}, {"name": "Ms. Mary Basler", "address": "1261 N Main St, Providence, RI 02904", "city": "Providence", "phone": "+1 401-312-0164", "website": "", "rating": 5.0, "reviews": 2, "place_id": "ChIJn9DgNMdE5IkRg-La_911DFU", "latitude": 41.8546907, "longitude": -71.4001486, "care_type": "Chiropractor"}, {"name": "Iannuccilli Chiropractic", "address": "895 N Main St, Providence, RI 02904", "city": "Providence", "phone": "+1 401-475-6201", "website": "https://www.chiroprov.com/", "rating": 5.0, "reviews": 1, "place_id": "ChIJxTlzJm5F5IkRjeZf9nVApzk", "latitude": 41.8448011, "longitude": -71.4060188, "care_type": "Chiropractor"}, {"name": "Sowa Chiropractic Associates", "address": "48 Front St, Lincoln, RI 02865", "city": "Lincoln", "phone": "+1 401-728-8060", "website": "http://www.sowachiro.com/", "rating": 4.7, "reviews": 13, "place_id": "ChIJv7Z-miJD5IkROcLl4RsZb9g", "latitude": 41.9064744, "longitude": -71.4055614, "care_type": "Chiropractor"}, {"name": "Aragao Family Chiropractic: Drs. David & Frances Aragao", "address": "191 Social St Lobby #80, Woonsocket, RI 02895", "city": "Woonsocket", "phone": "+1 401-766-9207", "website": "http://www.aragaochiropractic.com/", "rating": 4.8, "reviews": 17, "place_id": "ChIJY5CF70xq5IkRUbVeWC4m9-c", "latitude": 42.0068105, "longitude": -71.50924189999999, "care_type": "Chiropractor"}, {"name": "Royal Health & Wellness Chiropractic", "address": "154 Waterman St #1B, Providence, RI 02906", "city": "Providence", "phone": "+1 401-415-9585", "website": "http://www.drbois.com/", "rating": 4.9, "reviews": 42, "place_id": "ChIJL9vEtyRF5IkR4FqYHEpwXLw", "latitude": 41.8279359, "longitude": -71.3951013, "care_type": "Chiropractor"}, {"name": "New England Spine & Disc Center", "address": "1495 Newport Ave, Pawtucket, RI 02861", "city": "Pawtucket", "phone": "+1 401-729-1120", "website": "", "rating": null, "reviews": 0, "place_id": "ChIJ_2sGJ-lc5IkRYCbKKLwB4Ro", "latitude": 41.8937622, "longitude": -71.3537032, "care_type": "Chiropractor"}, {"name": "Sullivan Chiropractic", "address": "637 Armistice Blvd, Pawtucket, RI 02861", "city": "Pawtucket", "phone": "+1 401-723-7326", "website": "", "rating": null, "reviews": 0, "place_id": "ChIJ9z8AZJBc5IkR6nj-YdMf2j8", "latitude": 41.8772636, "longitude": -71.34940139999999, "care_type": "Chiropractor"}, {"name": "Dr. Joseph Lancellotti", "address": "586 Dexter St, Central Falls, RI 02863", "city": "Central Falls", "phone": "+1 401-729-4500", "website": "https://www.rhodeislandchiropractic.net/", "rating": null, "reviews": 0, "place_id": "ChIJ2Y-VakVD5IkR7ndrb-zn0Mg", "latitude": 41.8854048, "longitude": -71.3957243, "care_type": "Chiropractor"}, {"name": "Dr. Shadi Shakoori", "address": "1084 Broad St #1512, Central Falls, RI 02863", "city": "Central Falls", "phone": "+1 401-365-1212", "website": "", "rating": null, "reviews": 0, "place_id": "ChIJ__-T1TVD5IkRAuSW40mItLk", "latitude": 41.8946743, "longitude": -71.38833, "care_type": "Chiropractor"}, {"name": "Dr. Michele Lancellotti", "address": "586 Dexter St, Central Falls, RI 02863", "city": "Central Falls", "phone": "+1 401-729-4500", "website": "https://www.rhodeislandchiropractic.net/", "rating": null, "reviews": 0, "place_id": "ChIJ2Y-VakVD5IkRRCOj8XNNCzw", "latitude": 41.8854048, "longitude": -71.3957243, "care_type": "Chiropractor"}, {"name": "OSC Chiropractic and Sports Rehabilitation", "address": "3030 E Main Rd, Portsmouth, RI 02871", "city": "Portsmouth", "phone": "+1 401-324-0600", "website": "https://www.oceanstatechiropractic.com/", "rating": 5.0, "reviews": 14, "place_id": "ChIJhX6ry86r5YkReFgg19yv3W8", "latitude": 41.610752, "longitude": -71.24698719999999, "care_type": "Chiropractor"}, {"name": "KING'S GRANT CHIROPRACTIC - Dr. Mariya Thunman", "address": "11 King Charles Dr, Portsmouth, RI 02871", "city": "Portsmouth", "phone": "+1 401-683-1941", "website": "https://kingsgrantchiropractic.com/", "rating": 5.0, "reviews": 7, "place_id": "ChIJ-31fg3ir5YkRa28RhBgQF7s", "latitude": 41.5916665, "longitude": -71.2671098, "care_type": "Chiropractor"}, {"name": "Dr. Michael LeRoux, DC", "address": "3030 E Main Rd, Portsmouth, RI 02871", "city": "Portsmouth", "phone": "+1 401-324-0600", "website": "https://www.oceanstatechiropractic.com/", "rating": null, "reviews": 0, "place_id": "ChIJ-VK2J5Cr5YkRVtfi-tOK748", "latitude": 41.610752, "longitude": -71.24698719999999, "care_type": "Chiropractor"}, {"name": "King's Grant Chiropractic", "address": "11 King Charles Dr, Portsmouth, RI 02871", "city": "Portsmouth", "phone": "+1 401-683-1941", "website": "https://kingsgrantchiropractic.com/about-us", "rating": null, "reviews": 0, "place_id": "ChIJAWxuXHKr5YkRD89NWpfHNE8", "latitude": 41.5916665, "longitude": -71.2671098, "care_type": "Chiropractor"}, {"name": "Scituate Chiropractic Center Inc.", "address": "9 Village Plaza Way, North Scituate, RI 02857", "city": "North Scituate", "phone": "+1 401-934-0077", "website": "https://www.myrichiropractor.com/", "rating": 4.5, "reviews": 2, "place_id": "ChIJY6ixyAc45IkRDpPjc8_VWcw", "latitude": 41.8355297, "longitude": -71.57292079999999, "care_type": "Chiropractor"}, {"name": "Evergreen Family Chiropractic", "address": "712 Putnam Pike # 4, Chepachet, RI 02814", "city": "Chepachet", "phone": "+1 401-285-2320", "website": "https://www.evergreenfamilychirori.com/", "rating": 5.0, "reviews": 3, "place_id": "ChIJWwt9VAE55IkRiRjigIBkjVU", "latitude": 41.902558, "longitude": -71.63535499999999, "care_type": "Chiropractor"}, {"name": "Twin River Chiropractic", "address": "305 Farnum Pike, Smithfield, RI 02917", "city": "Smithfield", "phone": "+1 401-233-2211", "website": "http://twinriverchiro.com/", "rating": 5.0, "reviews": 198, "place_id": "ChIJ37MzgcVA5IkRGJjs5ITM2YU", "latitude": 41.9083809, "longitude": -71.54007779999999, "care_type": "Chiropractor"}, {"name": "DOT DRIVER PHYSICALS", "address": "1991 Victory Hwy, Glendale, RI 02826", "city": "Glendale", "phone": "+1 401-567-0077", "website": "https://www.dot-driver-physicals.com/", "rating": 5.0, "reviews": 2, "place_id": "ChIJKe6XdDc-5IkRcwS3AO84Vcg", "latitude": 41.9737131, "longitude": -71.6302846, "care_type": "Chiropractor"}, {"name": "Estner Injury Centers Smithfield Chiropractor", "address": "594 Great Rd Suite 105, North Smithfield, RI 02896", "city": "North Smithfield", "phone": "+1 401-895-2225", "website": "https://www.drestner.com/", "rating": 5.0, "reviews": 19, "place_id": "ChIJO2gH_C9r5IkRTkugwVPD3A4", "latitude": 41.9979563, "longitude": -71.5496763, "care_type": "Chiropractor"}, {"name": "Susan M. Donahue, DC", "address": "63 Eddie Dowling Hwy, North Smithfield, RI 02896", "city": "North Smithfield", "phone": "+1 401-356-4606", "website": "http://www.donahuechiro.com/", "rating": 4.8, "reviews": 15, "place_id": "ChIJ3Q5_OWVq5IkRlW0uCMNjCOY", "latitude": 41.9816359, "longitude": -71.51505279999999, "care_type": "Chiropractor"}, {"name": "Jennifer D'Antonio, D.C.", "address": "305 Farnum Pike, Smithfield, RI 02917", "city": "Smithfield", "phone": "+1 401-233-2211", "website": "", "rating": 4.7, "reviews": 13, "place_id": "ChIJ37MzgcVA5IkRVBbgOlz3n7g", "latitude": 41.9083721, "longitude": -71.5401667, "care_type": "Chiropractor"}, {"name": "Elizabeth A. Whooley, DC", "address": "116 Eddie Dowling Hwy, North Smithfield, RI 02896", "city": "North Smithfield", "phone": "+1 401-766-0800", "website": "", "rating": 5.0, "reviews": 1, "place_id": "ChIJYeTd9G9q5IkRQmDiVkGndtw", "latitude": 41.9815058, "longitude": -71.51283269999999, "care_type": "Chiropractor"}, {"name": "Dunn's Corners Chiropractic Center", "address": "259 Post Rd, Westerly, RI 02891", "city": "Westerly", "phone": "+1 401-322-8822", "website": "https://www.dunnscornerschiro.com/", "rating": 4.9, "reviews": 54, "place_id": "ChIJ_3XKeynm5YkRCrz6nVmVInw", "latitude": 41.351357, "longitude": -71.7656336, "care_type": "Chiropractor"}, {"name": "Oceanside Chiropractic", "address": "105 Franklin St Unit #27-28, Westerly, RI 02891", "city": "Westerly", "phone": "+1 401-757-0408", "website": "http://www.oceansidechiropractic.net/", "rating": 5.0, "reviews": 40, "place_id": "ChIJo7KRF__m5YkROwTkqAARwbo", "latitude": 41.3603296, "longitude": -71.81233499999999, "care_type": "Chiropractor"}, {"name": "Live Proper Chiropractic", "address": "11 Wells St # 3, Westerly, RI 02891", "city": "Westerly", "phone": "+1 401-315-2300", "website": "http://liveproperchiro.com/", "rating": 4.8, "reviews": 147, "place_id": "ChIJ3Sxpb_7m5YkRxP2tVBhYZ40", "latitude": 41.361543, "longitude": -71.82768999999999, "care_type": "Chiropractor"}, {"name": "Westerly RI Chiropractor", "address": "77 Franklin St, Westerly, RI 02891", "city": "Westerly", "phone": "+1 401-315-2300", "website": "", "rating": 5.0, "reviews": 1, "place_id": "ChIJ3Sxpb_7m5YkREqPve6obUIc", "latitude": 41.3628524, "longitude": -71.8146746, "care_type": "Chiropractor"}, {"name": "South County Chiropractic, Dr. Stan Dezjot", "address": "Mastuxet Professional Park, 101 Airport Rd, Westerly, RI 02891", "city": "Westerly", "phone": "+1 401-742-0337", "website": "http://www.socountychiro.com/", "rating": 5.0, "reviews": 10, "place_id": "ChIJ3Sxpb_7m5YkR2JeVopRhFrQ", "latitude": 41.344492, "longitude": -71.816859, "care_type": "Chiropractor"}, {"name": "Robert C. Campbell, DC", "address": "259 Post Rd, Westerly, RI 02891", "city": "Westerly", "phone": "+1 401-322-8822", "website": "http://www.dunnscornerschiro.com/", "rating": 4.0, "reviews": 4, "place_id": "ChIJ_3XKeynm5YkRoeMg1_qJQ68", "latitude": 41.3512342, "longitude": -71.76565939999999, "care_type": "Chiropractor"}, {"name": "Dr. Luke Pinatello", "address": "77 Franklin St, Westerly, RI 02891", "city": "Westerly", "phone": "+1 401-315-2300", "website": "https://www.liveproperchiro.com/", "rating": 5.0, "reviews": 1, "place_id": "ChIJ3Sxpb_7m5YkRcJ3W2suzciY", "latitude": 41.3628524, "longitude": -71.8146746, "care_type": "Chiropractor"}, {"name": "David J. Siciliano, DC", "address": "110 High St, Westerly, RI 02891", "city": "Westerly", "phone": "+1 401-596-4394", "website": "", "rating": null, "reviews": 0, "place_id": "ChIJM_34XxHn5YkRZwQGaK3NzD8", "latitude": 41.3809826, "longitude": -71.8260499, "care_type": "Chiropractor"}, {"name": "Fixed Health Care", "address": "62 Franklin St unit 10, Westerly, RI 02891", "city": "Westerly", "phone": "+1 401-596-3493", "website": "", "rating": null, "reviews": 0, "place_id": "ChIJLZZpI_7m5YkRIhlaTF52m-c", "latitude": 41.3639523, "longitude": -71.81374799999999, "care_type": "Chiropractor"}, {"name": "Nicole Wheeler-Glover, D.C.", "address": "54 Richmond Townhouse Rd, Richmond, RI 02812", "city": "Richmond", "phone": "+1 401-539-2617", "website": "https://www.vibrantlife401.com/", "rating": 5.0, "reviews": 3, "place_id": "ChIJ7eZr28XF5YkRR5ayMYD8F7M", "latitude": 41.4928221, "longitude": -71.66031459999999, "care_type": "Chiropractor"}, {"name": "DeAlmeida Chiropractic & Rehab", "address": "1990 Pawtucket Ave #1a, East Providence, RI 02914", "city": "East Providence", "phone": "+1 401-434-0800", "website": "", "rating": null, "reviews": 0, "place_id": "ChIJ1V02KuZa5IkR1YfAKtD5bvg", "latitude": 41.8211134, "longitude": -71.3560818, "care_type": "Chiropractor"}, {"name": "Dr. Michele Lancellotti", "address": "197 Taunton Ave E, East Providence, RI 02914", "city": "East Providence", "phone": "+1 401-435-4999", "website": "https://www.rhodeislandchiropractic.net/", "rating": 5.0, "reviews": 2, "place_id": "ChIJX5hjEM9a5IkRnxqh6RDRU58", "latitude": 41.8195216, "longitude": -71.3727308, "care_type": "Chiropractor"}, {"name": "Dr. Rodger Lincoln", "address": "2728 Pawtucket Ave E, East Providence, RI 02914", "city": "East Providence", "phone": "+1 401-433-3600", "website": "https://newhopefamilychiropractic.com/dr-rodger-b-lincoln/", "rating": null, "reviews": 0, "place_id": "ChIJrX7pIqNa5IkRckVRXIWq3l0", "latitude": 41.8005803, "longitude": -71.3622852, "care_type": "Chiropractor"}, {"name": "Manzolillo Family Chiro Center: Franzese Denise A DC", "address": "280 Broadway # 306, Providence, RI 02903", "city": "Providence", "phone": "+1 401-273-0046", "website": "", "rating": null, "reviews": 0, "place_id": "ChIJQ7uRAnVF5IkRNNHUVkprR5o", "latitude": 41.8201727, "longitude": -71.4270323, "care_type": "Chiropractor"}, {"name": "Dealmeida Pedro M DC", "address": "1990 Pawtucket Ave #1a, East Providence, RI 02914", "city": "East Providence", "phone": "+1 401-434-0800", "website": "", "rating": null, "reviews": 0, "place_id": "ChIJpYL9teda5IkRxiVs8i2EM48", "latitude": 41.8211134, "longitude": -71.3560818, "care_type": "Chiropractor"}, {"name": "Murphy Donald R DC", "address": "900 Warren Ave Suite 301, East Providence, RI 02914", "city": "East Providence", "phone": "+1 401-330-2488", "website": "https://www.lifespan.org/providers/donald-r-murphy-dc", "rating": null, "reviews": 0, "place_id": "ChIJvyhUx7hE5IkRd3m5xOGao4I", "latitude": 41.8085876, "longitude": -71.34684, "care_type": "Chiropractor"}, {"name": "Hess Barbara Dr Chiropractic Physician", "address": "2464 Pawtucket Ave, East Providence, RI 02914", "city": "East Providence", "phone": "+1 401-743-1192", "website": "", "rating": null, "reviews": 0, "place_id": "ChIJKeSbMb5a5IkRvnvAxwXil38", "latitude": 41.8080527, "longitude": -71.3595962, "care_type": "Chiropractor"}, {"name": "William E. Lancellotti Jr, DC", "address": "371 Broadway, Providence, RI 02909", "city": "Providence", "phone": "+1 401-274-5100", "website": "", "rating": null, "reviews": 0, "place_id": "ChIJ_ajVKJ5F5IkRkt0iLHXinVs", "latitude": 41.819778, "longitude": -71.43030809999999, "care_type": "Chiropractor"}, {"name": "Lombardi Andrew J DC", "address": "895 N Main St, Providence, RI 02904", "city": "Providence", "phone": "", "website": "", "rating": 3.0, "reviews": 2, "place_id": "ChIJYTmQgN1E5IkRW3eOUgCckVI", "latitude": 41.84478259999999, "longitude": -71.4059893, "care_type": "Chiropractor"}, {"name": "Dr. David J. Lenkewicz, Smith Hill Chiropractic", "address": "580 Smith St, Providence, RI 02908", "city": "Providence", "phone": "+1 401-274-0404", "website": "", "rating": 2.3, "reviews": 3, "place_id": "ChIJVRku56lF5IkRKMbBw_ZosBA", "latitude": 41.8360062, "longitude": -71.4303308, "care_type": "Chiropractor"}, {"name": "Joshua Lancellotti", "address": "197 Taunton Ave E, East Providence, RI 02914", "city": "East Providence", "phone": "+1 401-435-4999", "website": "https://www.rhodeislandchiropractic.net/about-us/meet-the-doctors.html", "rating": null, "reviews": 0, "place_id": "ChIJX5hjEM9a5IkRHs-BoO974ks", "latitude": 41.8195216, "longitude": -71.3727308, "care_type": "Chiropractor"}, {"name": "espanola chiropractic", "address": "125 S Main St, Woonsocket, RI 02895", "city": "Woonsocket", "phone": "+1 401-766-7000", "website": "", "rating": 4.7, "reviews": 24, "place_id": "ChIJ__87I1pq5IkRTT1UZjq3CSs", "latitude": 41.9990548, "longitude": -71.5183076, "care_type": "Chiropractor"}, {"name": "Physician's Chiropractic", "address": "583 Cumberland Hill Rd, Woonsocket, RI 02895", "city": "Woonsocket", "phone": "+1 401-766-6500", "website": "", "rating": 5.0, "reviews": 1, "place_id": "ChIJcxzAPjBq5IkRQZK9rSTsZQQ", "latitude": 41.997258, "longitude": -71.490511, "care_type": "Chiropractor"}, {"name": "Aragao Family Chiropractic Inc: Drs. David & Frances Aragao", "address": "175 Nate Whipple Hwy Ste. 107, Cumberland, RI 02864", "city": "Cumberland", "phone": "+1 401-333-0680", "website": "https://www.aragaochiropractic.com/", "rating": 5.0, "reviews": 12, "place_id": "ChIJtUxM5OVC5IkRY5baLdpEKnc", "latitude": 41.9782702, "longitude": -71.44784709999999, "care_type": "Chiropractor"}, {"name": "Aragao David J DC", "address": "191 Social St # 810, Woonsocket, RI 02895", "city": "Woonsocket", "phone": "+1 401-766-9207", "website": "http://www.aragaochiropractic.com/", "rating": null, "reviews": 0, "place_id": "ChIJY5CF70xq5IkR1hWxDLv_4lE", "latitude": 42.006774, "longitude": -71.5092809, "care_type": "Chiropractor"}, {"name": "Dr. David Aragao", "address": "175 Nate Whipple Hwy Ste. 107, Cumberland, RI 02864", "city": "Cumberland", "phone": "+1 401-333-0680", "website": "https://www.aragaochiropractic.com/", "rating": 5.0, "reviews": 2, "place_id": "ChIJvZBns8Bp5IkRqaZUV3rwgoQ", "latitude": 41.9782702, "longitude": -71.44784709999999, "care_type": "Chiropractor"}, {"name": "Tougas Steven M DC", "address": "2345 Mendon Rd #3, Woonsocket, RI 02895", "city": "Woonsocket", "phone": "+1 401-762-1477", "website": "", "rating": null, "reviews": 0, "place_id": "ChIJIe6nSyFq5IkR6RisS8cqAuY", "latitude": 41.9894199, "longitude": -71.4821292, "care_type": "Chiropractor"}, {"name": "New England Chiropractic & Sports Health", "address": "28 Cedar Swamp Rd #2, Smithfield, RI 02917", "city": "Smithfield", "phone": "+1 401-335-3445", "website": "http://www.necsh.com/", "rating": 5.0, "reviews": 10, "place_id": "ChIJvfePFUdC5IkRpLqGaK4jTLo", "latitude": 41.8744184, "longitude": -71.5335492, "care_type": "Chiropractor"}, {"name": "Lorri Haber-Diboni", "address": "14 Cedar Swamp Rd Ste 2, Smithfield, RI 02917", "city": "Smithfield", "phone": "+1 401-233-0200", "website": "https://haberdiboni.com/", "rating": 5.0, "reviews": 1, "place_id": "ChIJVVWF5RtH5IkRl5t6IW5SbwE", "latitude": 41.8726487, "longitude": -71.5318518, "care_type": "Chiropractor"}, {"name": "Capaldi Chiropractic, LLC", "address": "651 Putnam Pike, Greenville, RI 02828", "city": "Greenville", "phone": "+1 401-484-8780", "website": "http://www.capaldichiropractic.com/", "rating": 5.0, "reviews": 15, "place_id": "ChIJeRCRUpFE5IkRaf3b5hSytCE", "latitude": 41.8739101, "longitude": -71.5570829, "care_type": "Chiropractor"}, {"name": "Robitaille Family Chiropractic", "address": "151 Douglas Pike #10, Smithfield, RI 02917", "city": "Smithfield", "phone": "+1 401-349-0677", "website": "", "rating": 5.0, "reviews": 1, "place_id": "ChIJwaigYwJE5IkRVQxM_vJDpMA", "latitude": 41.88123849999999, "longitude": -71.4760891, "care_type": "Chiropractor"}, {"name": "Sliney Chiropractic", "address": "640 George Washington Hwy Bldg C #102, Lincoln, RI 02865", "city": "Lincoln", "phone": "+1 401-305-7960", "website": "http://www.slineychiro.com/", "rating": 5.0, "reviews": 28, "place_id": "ChIJnft1zjtC5IkRIZNtreTXlSk", "latitude": 41.9352347, "longitude": -71.4605789, "care_type": "Chiropractor"}, {"name": "Sowa C Alan DC", "address": "48 Front St, Lincoln, RI 02865", "city": "Lincoln", "phone": "+1 401-728-8060", "website": "https://topusafacts.top/details/sowa-c-alan-dc-ChIJv7Z", "rating": 5.0, "reviews": 3, "place_id": "ChIJv7Z-miJD5IkRmStuJj-XInM", "latitude": 41.9065673, "longitude": -71.4054816, "care_type": "Chiropractor"}, {"name": "Tyler Sliney", "address": "640 George Washington Hwy Ste 102, Lincoln, RI 02865", "city": "Lincoln", "phone": "+1 401-305-7960", "website": "https://slineychiro.com/", "rating": 5.0, "reviews": 1, "place_id": "ChIJV58DMTpC5IkRalQGlMl9bxs", "latitude": 41.9352919, "longitude": -71.4605811, "care_type": "Chiropractor"}, {"name": "Dr. Alexander Sowa", "address": "48 Front St, Lincoln, RI 02865", "city": "Lincoln", "phone": "+1 401-728-8060", "website": "", "rating": null, "reviews": 0, "place_id": "ChIJe-chmiJD5IkR6V8G0INb6KM", "latitude": 41.9064663, "longitude": -71.4055403, "care_type": "Chiropractor"}, {"name": "Sowa Family Chiropractic Clinic", "address": "175 Nate Whipple Hwy #205, Cumberland, RI 02864", "city": "Cumberland", "phone": "", "website": "", "rating": 4.6, "reviews": 9, "place_id": "ChIJRz4FsMBp5IkR7WrcoZU3CZI", "latitude": 41.9782844, "longitude": -71.447852, "care_type": "Chiropractor"}, {"name": "Four Winds Chiropractic", "address": "2006 Nooseneck Hill Rd, Coventry, RI 02816", "city": "Coventry", "phone": "+1 401-822-3676", "website": "http://www.fourwindschiro.com/", "rating": 5.0, "reviews": 358, "place_id": "ChIJzwfWyKRK5IkR8p2RwsLCiYI", "latitude": 41.6695895, "longitude": -71.59964049999999, "care_type": "Chiropractor"}, {"name": "New England Spine Care and Pain Laser Center", "address": "418 Arnold Rd, Coventry, RI 02816", "city": "Coventry", "phone": "+1 401-392-3351", "website": "", "rating": 5.0, "reviews": 6, "place_id": "ChIJv7kZ6Eq15YkRBSsHSCcJuHA", "latitude": 41.6682718, "longitude": -71.5508497, "care_type": "Chiropractor"}, {"name": "Dennis P Derocher Family Chiro", "address": "903 Tiogue Ave, Coventry, RI 02816", "city": "Coventry", "phone": "+1 401-828-5670", "website": "", "rating": 5.0, "reviews": 1, "place_id": "ChIJEap4RqhK5IkRLg-1Qx-hnwE", "latitude": 41.6807014, "longitude": -71.5705697, "care_type": "Chiropractor"}, {"name": "The Chiropractic Neurology Center of West Greenwich", "address": "16 Nooseneck Hill Rd Suite A, West Greenwich, RI 02817", "city": "West Greenwich", "phone": "+1 401-397-9948", "website": "http://www.chirowg.com/", "rating": 4.9, "reviews": 143, "place_id": "ChIJ7cyB4unK5YkRW4SinCkduNg", "latitude": 41.6588172, "longitude": -71.602684, "care_type": "Chiropractor"}, {"name": "Petteruto Michael S DC", "address": "234 Chaplin Dr, Coventry, RI 02816", "city": "Coventry", "phone": "+1 401-392-3351", "website": "", "rating": 5.0, "reviews": 1, "place_id": "ChIJJ2Rjk4Y05IkRksql0Eabkpo", "latitude": 41.722244, "longitude": -71.659527, "care_type": "Chiropractor"}, {"name": "Tosch Sharon L DC", "address": "137 Sandy Bottom Rd, Coventry, RI 02816", "city": "Coventry", "phone": "+1 401-822-3676", "website": "http://www.fourwindschiro.com/", "rating": null, "reviews": 0, "place_id": "ChIJzwfWyKRK5IkRXQXV9K2ywCc", "latitude": 41.68405449999999, "longitude": -71.56116899999999, "care_type": "Chiropractor"}, {"name": "Crellin Chiropractic Pain and Injury Center", "address": "328 Cowesett Ave Suite 7, West Warwick, RI 02893", "city": "West Warwick", "phone": "+1 401-615-5200", "website": "http://www.andrewcrellin.com/", "rating": 4.9, "reviews": 45, "place_id": "ChIJV4THmxRL5IkRlO46xg-bz4M", "latitude": 41.6852226, "longitude": -71.5031051, "care_type": "Chiropractor"}, {"name": "DeCubellis Family Chiropractic", "address": "51 Hopkins Hill Rd suite 2, Coventry, RI 02816", "city": "Coventry", "phone": "+1 401-828-3030", "website": "https://www.orthospinori.com/%3Futm_source%3Dgoogle%26utm_medium%3Dwix_google_business_profile%26utm_campaign%3D2961624326020739976", "rating": null, "reviews": 0, "place_id": "ChIJ_yzohTlL5IkRGJCPHXJrG-Q", "latitude": 41.6800788, "longitude": -71.567922, "care_type": "Chiropractor"}, {"name": "Malchar Chiropractic Wellness Center", "address": "33 College Hill Rd #30C, Warwick, RI 02886", "city": "Warwick", "phone": "+1 401-826-7600", "website": "http://malcharwellness.com/", "rating": 5.0, "reviews": 125, "place_id": "ChIJMYgxwXtL5IkR5Rh3l27BSHw", "latitude": 41.7149329, "longitude": -71.4860285, "care_type": "Chiropractor"}, {"name": "Grace Family Chiropractic", "address": "1250 Warwick Ave, Warwick, RI 02888", "city": "Warwick", "phone": "+1 401-463-9520", "website": "http://www.bfchiro.com/", "rating": 5.0, "reviews": 181, "place_id": "ChIJm2Qcn2pO5IkRN9DL9i2nA4Q", "latitude": 41.7421092, "longitude": -71.40720379999999, "care_type": "Chiropractor"}, {"name": "Gentle Chiropractic Center Inc: Kerry Kasegian DC", "address": "739 Post Rd, Warwick, RI 02888", "city": "Warwick", "phone": "+1 401-941-6767", "website": "https://www.gentlechirocenter.com/", "rating": 4.8, "reviews": 23, "place_id": "ChIJjZd8105O5IkRSc0JcFhzrS4", "latitude": 41.754978, "longitude": -71.4128654, "care_type": "Chiropractor"}, {"name": "Victoria E. Malchar, DC", "address": "33 College Hill Rd, Warwick, RI 02886", "city": "Warwick", "phone": "+1 401-826-7600", "website": "https://www.malcharwellness.com/", "rating": 3.9, "reviews": 11, "place_id": "ChIJn-4hqo1L5IkRs3KMOQnbPR0", "latitude": 41.7137439, "longitude": -71.48621729999999, "care_type": "Chiropractor"}, {"name": "Roth Chiropractic (Dr. Cameron Roth, DC)", "address": "328 Cowesett Ave Suite 7, West Warwick, RI 02893", "city": "West Warwick", "phone": "+1 401-615-5200", "website": "https://www.rothchiro.com/", "rating": 5.0, "reviews": 21, "place_id": "ChIJMbI1qpVL5IkRzA_Qc2X0das", "latitude": 41.6852226, "longitude": -71.5031051, "care_type": "Chiropractor"}, {"name": "Cowesett Chiropractic: Dr Rick Jardon", "address": "328 Cowesett Ave STE 8, West Warwick, RI 02893", "city": "West Warwick", "phone": "+1 401-821-6092", "website": "", "rating": 4.9, "reviews": 122, "place_id": "ChIJyXRimRRL5IkR1_fgVG8VGL4", "latitude": 41.6851857, "longitude": -71.5029083, "care_type": "Chiropractor"}, {"name": "Dr. Michael Petteruto", "address": "418 Arnold Rd, Coventry, RI 02816", "city": "Coventry", "phone": "+1 401-392-3351", "website": "", "rating": null, "reviews": 0, "place_id": "ChIJ__8T6Eq15YkR1b_pIbVgDCc", "latitude": 41.6682586, "longitude": -71.5508696, "care_type": "Chiropractor"}, {"name": "Dr. Frances Aragao", "address": "175 Nate Whipple Hwy Ste. 107, Cumberland, RI 02864", "city": "Cumberland", "phone": "+1 401-333-0680", "website": "https://www.aragaochiropractic.com/", "rating": 5.0, "reviews": 1, "place_id": "ChIJvZBns8Bp5IkRcSu9vcnJaw0", "latitude": 41.9782702, "longitude": -71.44784709999999, "care_type": "Chiropractor"}, {"name": "Caetano Chiropractor", "address": "515 Broad St, Cumberland, RI 02864", "city": "Cumberland", "phone": "+1 401-475-5956", "website": "", "rating": null, "reviews": 0, "place_id": "ChIJo2aq8NBD5IkRIMT_DVeGldM", "latitude": 41.914113, "longitude": -71.39770779999999, "care_type": "Chiropractor"}, {"name": "University Chiropractic", "address": "2352 Mendon Rd, Cumberland, RI 02864", "city": "Cumberland", "phone": "+1 401-272-1120", "website": "http://universitychiropractic.net/", "rating": null, "reviews": 0, "place_id": "ChIJt8OgondC5IkREFMBkO7G-iw", "latitude": 41.9573563, "longitude": -71.443302, "care_type": "Chiropractor"}, {"name": "Basler Chiropractic", "address": "694 Main St #2, East Greenwich, RI 02818", "city": "East Greenwich", "phone": "+1 401-885-0260", "website": "", "rating": 5.0, "reviews": 29, "place_id": "ChIJJY0fncpM5IkRUS0kJ62mxmI", "latitude": 41.6550094, "longitude": -71.4535435, "care_type": "Chiropractor"}, {"name": "Breiding Chiropractic Clinic", "address": "5544 Post Rd, East Greenwich, RI 02818", "city": "East Greenwich", "phone": "+1 401-884-8687", "website": "http://breidingchiropractic.com/", "rating": 4.9, "reviews": 16, "place_id": "ChIJc7brL0Wz5YkRphyz7-vLAOc", "latitude": 41.6435422, "longitude": -71.4646253, "care_type": "Chiropractor"}, {"name": "Frye Family Chiropractic", "address": "4619 Post Rd, East Greenwich, RI 02818", "city": "East Greenwich", "phone": "+1 401-886-4255", "website": "", "rating": 5.0, "reviews": 7, "place_id": "ChIJ4WZbHcdM5IkRlF_3RKQhSc8", "latitude": 41.6654717, "longitude": -71.45048179999999, "care_type": "Chiropractor"}, {"name": "Steven M. Basler, DC", "address": "694 Main St #2, East Greenwich, RI 02818", "city": "East Greenwich", "phone": "+1 401-885-0260", "website": "", "rating": 5.0, "reviews": 3, "place_id": "ChIJJY0fncpM5IkRkA5qZrZxRXM", "latitude": 41.6550126, "longitude": -71.4535676, "care_type": "Chiropractor"}, {"name": "Chiropractic And Wellness", "address": "5457 Post Rd, East Greenwich, RI 02818", "city": "East Greenwich", "phone": "+1 401-884-7600", "website": "", "rating": null, "reviews": 0, "place_id": "ChIJa2jbkU-z5YkRYsz9NUsCVp4", "latitude": 41.6460058, "longitude": -71.4635464, "care_type": "Chiropractor"}, {"name": "Kathy L. Basler, DC", "address": "694 Main St #2, East Greenwich, RI 02818", "city": "East Greenwich", "phone": "+1 401-885-0260", "website": "", "rating": null, "reviews": 0, "place_id": "ChIJJY0fncpM5IkR1BVQ7lhMCX8", "latitude": 41.6550206, "longitude": -71.453504, "care_type": "Chiropractor"}, {"name": "Keegan Kevin DC", "address": "990 Main St STE 3, East Greenwich, RI 02818", "city": "East Greenwich", "phone": "+1 401-885-7992", "website": "", "rating": 5.0, "reviews": 5, "place_id": "ChIJuZaav2ez5YkRda4hbenNKds", "latitude": 41.6512667, "longitude": -71.4566534, "care_type": "Chiropractor"}, {"name": "Angela Ciresi", "address": "3285 S County Trl E, East Greenwich, RI 02818", "city": "East Greenwich", "phone": "+1 401-398-2468", "website": "https://www.ciresichiro.com/meet-the-doctor/", "rating": null, "reviews": 0, "place_id": "ChIJq6r6l2605YkRifX1tCxVgDY", "latitude": 41.6075805, "longitude": -71.4937094, "care_type": "Chiropractor"}, {"name": "Dr. Mark Breiding", "address": "5544 Post Rd, East Greenwich, RI 02818", "city": "East Greenwich", "phone": "+1 401-884-8687", "website": "https://www.breidingchiropractic.com/", "rating": null, "reviews": 0, "place_id": "ChIJ__-rJUWz5YkRmFrt63BIM7c", "latitude": 41.6435153, "longitude": -71.4646305, "care_type": "Chiropractor"}, {"name": "Capaldi Chiropractic", "address": "620 Main St, East Greenwich, RI 02818", "city": "East Greenwich", "phone": "+1 401-484-8780", "website": "https://capaldichiropractic.com/", "rating": null, "reviews": 0, "place_id": "ChIJh8QCr13b9KsRtUf40pcOKpI", "latitude": 41.65579839999999, "longitude": -71.45301169999999, "care_type": "Chiropractor"}, {"name": "Stump Chiropractic", "address": "2639 S County Trl, East Greenwich, RI 02818", "city": "East Greenwich", "phone": "+1 410-251-8519", "website": "", "rating": null, "reviews": 0, "place_id": "ChIJl8K3j-X6uIkRM_B35y498J4", "latitude": 41.6245177, "longitude": -71.4928352, "care_type": "Chiropractor"}, {"name": "Sherry Morrissette", "address": "16 Nooseneck Hill Rd Suite A, West Greenwich, RI 02817", "city": "West Greenwich", "phone": "+1 401-397-9948", "website": "https://www.chirowg.com/us/", "rating": 3.0, "reviews": 2, "place_id": "ChIJq6p6B8LK5YkRVKi-x1fNPZI", "latitude": 41.6587709, "longitude": -71.6025769, "care_type": "Chiropractor"}, {"name": "Hope Valley Chiropractic", "address": "1097 Main St, Hope Valley, RI 02832", "city": "Hope Valley", "phone": "+1 401-491-9287", "website": "", "rating": null, "reviews": 0, "place_id": "ChIJjfVSHabF5YkRMxqqhzurxIA", "latitude": 41.5121755, "longitude": -71.7096128, "care_type": "Chiropractor"}, {"name": "Broccoli Russell D DC", "address": "635 Hope St, Providence, RI 02906", "city": "Providence", "phone": "+1 401-351-6390", "website": "", "rating": 5.0, "reviews": 1, "place_id": "ChIJvaDr_dpE5IkRgx1aEcH-Yck", "latitude": 41.8439156, "longitude": -71.3972157, "care_type": "Chiropractor"}, {"name": "David A. Pelosi, DC", "address": "511 Broadway, Providence, RI 02909", "city": "Providence", "phone": "+1 401-654-8222", "website": "", "rating": null, "reviews": 0, "place_id": "ChIJ6XIoApxF5IkRJAS9S5wCjxM", "latitude": 41.818591, "longitude": -71.4354439, "care_type": "Chiropractor"}, {"name": "Plover Jeanne DC", "address": "177 George St, Providence, RI 02906", "city": "Providence", "phone": "+1 401-351-6262", "website": "", "rating": null, "reviews": 0, "place_id": "ChIJ9-uhFjtF5IkREoK2mLtFgdc", "latitude": 41.8255083, "longitude": -71.39838259999999, "care_type": "Chiropractor"}, {"name": "D C Sawcutting", "address": "901 Branch Ave, Providence, RI 02904", "city": "Providence", "phone": "+1 401-521-3443", "website": "", "rating": null, "reviews": 0, "place_id": "ChIJV66vf1lE5IkRU5CtU5inDzw", "latitude": 41.8550242, "longitude": -71.4357627, "care_type": "Chiropractor"}, {"name": "Back In Motion", "address": "756 Eddy St, Providence, RI 02903", "city": "Providence", "phone": "+1 617-302-7095", "website": "", "rating": 5.0, "reviews": 1, "place_id": "ChIJCw0wmgtF5IkRjuBBe7LGnHY", "latitude": 41.807709, "longitude": -71.4067614, "care_type": "Chiropractor"}, {"name": "Center For Chiro & Muscular Cr", "address": "2 Richmond Square, Providence, RI 02906", "city": "Providence", "phone": "+1 401-751-6568", "website": "", "rating": null, "reviews": 0, "place_id": "ChIJyVeCNtNa5IkRudJiXlylRSA", "latitude": 41.827639, "longitude": -71.382057, "care_type": "Chiropractor"}, {"name": "Elmwood Orthopedic Rehab Center", "address": "193 Elmwood Ave, Providence, RI 02907", "city": "Providence", "phone": "+1 401-459-4000", "website": "", "rating": 4.4, "reviews": 30, "place_id": "ChIJ_52WTHlF5IkRsZ56-6gJ6zA", "latitude": 41.8075092, "longitude": -71.42498429999999, "care_type": "Chiropractor"}, {"name": "Physicians Chiropractic Inc", "address": "756 Eddy St Suite 300, Providence, RI 02903", "city": "Providence", "phone": "+1 401-331-9500", "website": "", "rating": null, "reviews": 0, "place_id": "ChIJFexpjmdF5IkRcrwEiAPLCds", "latitude": 41.8075626, "longitude": -71.40680979999999, "care_type": "Chiropractor"}, {"name": "ACTA Chiropractic & Wellness", "address": "207 Wickenden St, Providence, RI 02903", "city": "Providence", "phone": "+1 401-270-3773", "website": "", "rating": null, "reviews": 0, "place_id": "ChIJBbKx3DhF5IkRFkpLy7Zq_XM", "latitude": 41.8192598, "longitude": -71.3990828, "care_type": "Chiropractor"}, {"name": "Gentle Chiropractic Center", "address": "739 Post Rd, Warwick, RI 02888", "city": "Warwick", "phone": "+1 401-941-6767", "website": "http://www.gentlechirocenter.com/", "rating": null, "reviews": 0, "place_id": "ChIJjZd8105O5IkRemDBeWKWu70", "latitude": 41.7550415, "longitude": -71.4128554, "care_type": "Chiropractor"}, {"name": "Dr. David Pilloni", "address": "2797 Post Rd, Warwick, RI 02886", "city": "Warwick", "phone": "+1 401-255-7840", "website": "http://pillonichiropractic.com/drdave.html", "rating": 5.0, "reviews": 1, "place_id": "ChIJq6paUkBM5IkRudKv_HGoQPM", "latitude": 41.7085116, "longitude": -71.4513455, "care_type": "Chiropractor"}, {"name": "308 Cowesett Ave", "address": "Cowesett Ave, West Warwick, RI 02893", "city": "West Warwick", "phone": "+1 401-885-1545", "website": "https://www.docblack.com/%3Futm_source%3Dgoogle%26utm_medium%3Dwix_google_business_profile%26utm_campaign%3D7570609440225453423", "rating": null, "reviews": 0, "place_id": "ChIJ7b36j5JL5IkR6jmwb2gWOBY", "latitude": 41.685145, "longitude": -71.503712, "care_type": "Chiropractor"}, {"name": "Gary P. Brodeur, DC", "address": "1250 Warwick Ave, Warwick, RI 02888", "city": "Warwick", "phone": "+1 401-463-9520", "website": "", "rating": null, "reviews": 0, "place_id": "ChIJm2Qcn2pO5IkRnMlN3jK3J84", "latitude": 41.7421092, "longitude": -71.40720379999999, "care_type": "Chiropractor"}, {"name": "Jamie Enos", "address": "12 Calef St, Warwick, RI 02886", "city": "Warwick", "phone": "+1 401-921-6550", "website": "", "rating": null, "reviews": 0, "place_id": "ChIJVVVxq3xM5IkR11Sr97ADGLQ", "latitude": 41.6984418, "longitude": -71.46571469999999, "care_type": "Chiropractor"}, {"name": "Timothy W. Warren, DC", "address": "2797 Post Rd, Warwick, RI 02886", "city": "Warwick", "phone": "+1 401-738-6477", "website": "", "rating": null, "reviews": 0, "place_id": "ChIJjW1WUkBM5IkRGig7S1vnshI", "latitude": 41.7084762, "longitude": -71.4513253, "care_type": "Chiropractor"}, {"name": "Marshall Marc DC", "address": "39 Fair St, Warwick, RI 02888", "city": "Warwick", "phone": "+1 401-354-2927", "website": "", "rating": null, "reviews": 0, "place_id": "ChIJSVVlS9JP5IkREzDaa2Ctr2U", "latitude": 41.7618484, "longitude": -71.3914964, "care_type": "Chiropractor"}, {"name": "Hudyncia Chiropractic", "address": "3055 W Shore Rd, Warwick, RI 02886", "city": "Warwick", "phone": "+1 401-732-4400", "website": "", "rating": null, "reviews": 0, "place_id": "ChIJm_PhhExM5IkRoaQMkiC6j50", "latitude": 41.7022683, "longitude": -71.4322354, "care_type": "Chiropractor"}, {"name": "Joseph L. Lancellotti, DC", "address": "1524 Atwood Ave Ste 210A, Johnston, RI 02919", "city": "Johnston", "phone": "+1 401-274-9355", "website": "http://rhodeislandchiropractic.net/", "rating": 4.5, "reviews": 8, "place_id": "ChIJbb-SgT1G5IkRsBqgp8yWkq0", "latitude": 41.827573, "longitude": -71.500946, "care_type": "Chiropractor"}, {"name": "Franzese Denise A DC", "address": "1481 Atwood Ave # 6, Johnston, RI 02919", "city": "Johnston", "phone": "+1 401-272-0888", "website": "", "rating": 5.0, "reviews": 6, "place_id": "ChIJkZKUuRlG5IkRU56AFVtQjZc", "latitude": 41.8228428, "longitude": -71.4973329, "care_type": "Chiropractor"}, {"name": "Lancellotti Michele DC", "address": "1524 Atwood Ave, Johnston, RI 02919", "city": "Johnston", "phone": "+1 401-274-9355", "website": "", "rating": null, "reviews": 0, "place_id": "ChIJbb-SgT1G5IkRzBmb_FVHJcY", "latitude": 41.8275729, "longitude": -71.5009457, "care_type": "Chiropractor"}, {"name": "Miele Paul DC", "address": "1524 Atwood Ave, Johnston, RI 02919", "city": "Johnston", "phone": "+1 401-274-9355", "website": "", "rating": null, "reviews": 0, "place_id": "ChIJbb-SgT1G5IkRLihQ3-a-gSM", "latitude": 41.8276075, "longitude": -71.5011956, "care_type": "Chiropractor"}, {"name": "Elizabeth A. Molin, DC", "address": "28 Cedar Swamp Rd #2, Smithfield, RI 02917", "city": "Smithfield", "phone": "+1 401-335-3445", "website": "http://www.necsh.com/", "rating": 5.0, "reviews": 1, "place_id": "ChIJvfePFUdC5IkR09Aon7iWUO0", "latitude": 41.8744184, "longitude": -71.5335492, "care_type": "Chiropractor"},