[{"name": "Waterbury Family Chiropractic", "address": "104 S Main St, Waterbury, VT 05676", "city": "Waterbury", "phone": "+1 802-244-7336", "website": "https://www.waterburychiro.com/", "rating": 5.0, "reviews": 52, "place_id": "ChIJe91AxROftUwRKTB6sMGgIOg", "latitude": 44.332821, "longitude": -72.75115199999999, "care_type": "Chiropractor"}, {"name": "Williston Chiropractic & Sportsmedicine", "address": "802 Industrial Ave, Williston, VT 05495", "city": "Williston", "phone": "+1 802-863-2272", "website": "https://willistonchiropractic.com/", "rating": 5.0, "reviews": 53, "place_id": "ChIJaW0Sz-p5ykwRRODCFogvi20", "latitude": 44.4641391, "longitude": -73.1169457, "care_type": "Chiropractor"}, {"name": "Middlebury Sport & Spine", "address": "227 Pond Ln Suite 1, Middlebury, VT 05753", "city": "Middlebury", "phone": "+1 802-388-0970", "website": "http://middleburysportandspine.com/", "rating": 4.9, "reviews": 55, "place_id": "ChIJ5UQ2Mp1dtUwRxaKUrFqE_h8", "latitude": 44.03406589999999, "longitude": -73.1751702, "care_type": "Chiropractor"}, {"name": "Chittenden County Chiropractic", "address": "20 Lincoln St, Essex Junction, VT 05452", "city": "Essex Junction", "phone": "+1 802-879-3900", "website": "http://www.chittendenchiro.com/", "rating": 4.8, "reviews": 42, "place_id": "ChIJTT1vjXx3ykwRnoYqavEaYv0", "latitude": 44.4922688, "longitude": -73.1115368, "care_type": "Chiropractor"}, {"name": "Cory A. Pike, DC", "address": "20 Lincoln St, Essex Junction, VT 05452", "city": "Essex Junction", "phone": "+1 802-879-3900", "website": "", "rating": 5.0, "reviews": 4, "place_id": "ChIJ9Wq-CGN3ykwRwEQGP7hyu4o", "latitude": 44.4922676, "longitude": -73.1115289, "care_type": "Chiropractor"}, {"name": "Northwest Chiropractic", "address": "172 S Main St, St Albans City, VT 05478", "city": "St Albans City", "phone": "+1 802-432-9095", "website": "http://www.northwestchiropracticvt.com/", "rating": 5.0, "reviews": 37, "place_id": "ChIJq6q-gwSJtUwRgYEQ63-dBfA", "latitude": 44.8023153, "longitude": -73.08861139999999, "care_type": "Chiropractor"}, {"name": "Stowe Chiropractic", "address": "39 Palmer Rd, Stowe, VT 05672", "city": "Stowe", "phone": "+1 802-760-6396", "website": "https://www.stowechiropractic.com/", "rating": 5.0, "reviews": 52, "place_id": "ChIJNYsj64uXtUwRo-d31Ra-OxM", "latitude": 44.4499444, "longitude": -72.6996424, "care_type": "Chiropractor"}, {"name": "Chiropractic First Family Wellness: Michael Townsend DC", "address": "1480 Williston Rd, South Burlington, VT 05403", "city": "South Burlington", "phone": "+1 802-474-4258", "website": "https://backpainvt.com/", "rating": 5.0, "reviews": 37, "place_id": "ChIJ-Sc3xCl6ykwRjX7eFbqdV_4", "latitude": 44.4658231, "longitude": -73.1651383, "care_type": "Chiropractor"}, {"name": "Little River Chiropractic", "address": "996 S Main St #4, Stowe, VT 05672", "city": "Stowe", "phone": "+1 802-253-7411", "website": "https://www.littleriverwellness.com/", "rating": 5.0, "reviews": 22, "place_id": "ChIJuSdxHQiXtUwRcAQFb4JI-FE", "latitude": 44.4532791, "longitude": -72.69701719999999, "care_type": "Chiropractor"}, {"name": "Chiropractic Works", "address": "48 Colchester Ave, Burlington, VT 05401", "city": "Burlington", "phone": "+1 802-864-5000", "website": "http://chiropracticworksvt.com/", "rating": 4.9, "reviews": 101, "place_id": "ChIJtQeDVFx6ykwRGe_nKoj-yVU", "latitude": 44.4809108, "longitude": -73.1978752, "care_type": "Chiropractor"}, {"name": "Family First Chiropractic", "address": "525 Hercules Dr #1b, Colchester, VT 05446", "city": "Colchester", "phone": "+1 802-860-0382", "website": "https://www.familyfirstchiro.com/", "rating": 5.0, "reviews": 17, "place_id": "ChIJ44lgJTJuykwRkUTU0p5kAPc", "latitude": 44.5066885, "longitude": -73.17432389999999, "care_type": "Chiropractor"}, {"name": "Woodstock Chiropractic Center", "address": "32 Pleasant St, Woodstock, VT 05091", "city": "Woodstock", "phone": "+1 802-457-3355", "website": "https://woodstockvtchiro.com/", "rating": 5.0, "reviews": 1, "place_id": "ChIJmzlwuBjY4YkR_Qnk3BFijhw", "latitude": 43.6271236, "longitude": -72.5137601, "care_type": "Chiropractor"}, {"name": "The Chiropractic & Wellness Studio, PLLC", "address": "217 Maxham Meadow Way #103A, Woodstock, VT 05091", "city": "Woodstock", "phone": "+1 802-332-6125", "website": "http://www.chirowellnessstudio.com/", "rating": 5.0, "reviews": 53, "place_id": "ChIJ_4HNlRHY4YkRsiYuHqV--oc", "latitude": 43.6297249, "longitude": -72.5064848, "care_type": "Chiropractor"}, {"name": "Woodstock Chiropractic & Functional Medicine", "address": "47 Pleasant St, Woodstock, VT 05091", "city": "Woodstock", "phone": "+1 802-457-7012", "website": "http://www.woodstockvtchiro.com/", "rating": 5.0, "reviews": 8, "place_id": "ChIJh7xTEhjY4YkRsGQzaBxyFS8", "latitude": 43.6265965, "longitude": -72.5100332, "care_type": "Chiropractor"}, {"name": "Peter Gale, DC", "address": "39 Central St #206, Woodstock, VT 05091", "city": "Woodstock", "phone": "+1 508-208-9855", "website": "https://www.petergaledc.com/", "rating": 5.0, "reviews": 1, "place_id": "ChIJsw_2s6bZ4YkRIoMunt3zie4", "latitude": 43.6252203, "longitude": -72.5176151, "care_type": "Chiropractor"}, {"name": "Keyes Mountain Holistics", "address": "39 Central St #201a, Woodstock, VT 05091", "city": "Woodstock", "phone": "+1 802-291-2288", "website": "http://www.keyesmountain.com/", "rating": 5.0, "reviews": 4, "place_id": "ChIJb4TwUiDY4YkR_hfD_B4JmlU", "latitude": 43.625225, "longitude": -72.51767699999999, "care_type": "Chiropractor"}, {"name": "Wholistic Health Services of Vermont, Dr. Randy Schaetzke DC", "address": "6985 Woodstock Rd, Quechee, VT 05059", "city": "Quechee", "phone": "+1 802-296-6030", "website": "http://doctorrandy.com/", "rating": 5.0, "reviews": 49, "place_id": "ChIJmQULQafMtEwRtpHBjBL-eGo", "latitude": 43.644255, "longitude": -72.42196779999999, "care_type": "Chiropractor"}, {"name": "The Chiropractic & Wellness Studio", "address": "SUNSET FARM, 21710 Maxham Meadow Way, Woodstock, VT 05091", "city": "Woodstock", "phone": "+1 802-332-6125", "website": "https://www.chirowellnessstudio.com/%3Futm_source%3Dgoogle%26utm_medium%3Dwix_google_business_profile%26utm_campaign%3D8358502333834132477", "rating": null, "reviews": 0, "place_id": "ChIJF-r420TZ4YkRdTCT4cinFMI", "latitude": 43.6287615, "longitude": -72.5063864, "care_type": "Chiropractor"}, {"name": "Ashcroft Chiropractic", "address": "279 Business Route 4 #1, Center Rutland, VT 05736", "city": "Center Rutland", "phone": "+1 802-775-4372", "website": "http://www.ashcroftchiro.com/", "rating": 4.8, "reviews": 43, "place_id": "ChIJE8aFP3Ej4IkRAn7VMJaKS2Y", "latitude": 43.604287, "longitude": -73.009506, "care_type": "Chiropractor"}, {"name": "Fostering Wellness", "address": "11 Cottage St, Rutland, VT 05701", "city": "Rutland", "phone": "+1 802-773-8306", "website": "http://www.fosteringwellness.net/", "rating": 4.9, "reviews": 95, "place_id": "ChIJDZLgFWMk4IkRsdMhVaDmwbM", "latitude": 43.60870999999999, "longitude": -72.9799239, "care_type": "Chiropractor"}, {"name": "Dr. Maurice Cyr", "address": "245 Stratton Rd, Rutland, VT 05701", "city": "Rutland", "phone": "+1 802-775-6961", "website": "http://www.rutlandchiropractor.com/meet-dr-maurice-cyr", "rating": 4.8, "reviews": 31, "place_id": "ChIJvcUOT_gk4IkR3aZRZN37Fuk", "latitude": 43.5998939, "longitude": -72.95589939999999, "care_type": "Chiropractor"}, {"name": "Cooley Chiropractic and Rehabilitation Center", "address": "71 Allen St #203, Rutland, VT 05701", "city": "Rutland", "phone": "+1 802-773-7700", "website": "http://www.cooleyrehab.com/", "rating": 4.7, "reviews": 15, "place_id": "ChIJM7b4NPgk4IkR5Cafcck8XNY", "latitude": 43.5984532, "longitude": -72.9629389, "care_type": "Chiropractor"}, {"name": "Life Source Chiropractic Inc.- Jared Galster, DC", "address": "90 Mahoney Ave, Rutland, VT 05701", "city": "Rutland", "phone": "+1 802-773-0010", "website": "http://www.facebook.com/lifesourcechiropractic/", "rating": 5.0, "reviews": 7, "place_id": "ChIJ-cph3_Ak4IkRLYSSxqailLs", "latitude": 43.596939, "longitude": -72.960815, "care_type": "Chiropractor"}, {"name": "Physical Rehabilitation & Health Center", "address": "245 Stratton Rd, Rutland, VT 05701", "city": "Rutland", "phone": "+1 802-775-6961", "website": "https://www.rutlandchiropractor.com/", "rating": 4.9, "reviews": 85, "place_id": "ChIJvcUOT_gk4IkR1p08MxD8rT8", "latitude": 43.5998926, "longitude": -72.95589919999999, "care_type": "Chiropractor"}, {"name": "Fostering Wellness", "address": "30 Marble St, Brandon, VT 05733", "city": "Brandon", "phone": "+1 802-247-6464", "website": "http://www.fosteringwellness.net/", "rating": 5.0, "reviews": 37, "place_id": "ChIJASiPh9hLtUwRWGR1P6tSGmY", "latitude": 43.8018375, "longitude": -73.0808296, "care_type": "Chiropractor"}, {"name": "Arnold Kirbach Jr, DC", "address": "1978 US-4, Rutland, VT 05701", "city": "Rutland", "phone": "+1 802-773-4155", "website": "", "rating": null, "reviews": 0, "place_id": "ChIJc2IVpuwk4IkRJBpTuodO_MY", "latitude": 43.64254529999999, "longitude": -72.930623, "care_type": "Chiropractor"}, {"name": "Curtis M. Healey, DC", "address": "108 Washington St, Barre, VT 05641", "city": "Barre", "phone": "+1 802-479-3206", "website": "", "rating": 4.9, "reviews": 19, "place_id": "ChIJtQvUCs4GtUwRiCU-9EF4Vx8", "latitude": 44.1943259, "longitude": -72.4958638, "care_type": "Chiropractor"}, {"name": "Barre Chiropractic Center", "address": "108 Washington St, Barre, VT 05641", "city": "Barre", "phone": "+1 802-479-3206", "website": "", "rating": 5.0, "reviews": 1, "place_id": "ChIJtQvUCs4GtUwR4j_vMC5gpqc", "latitude": 44.1942995, "longitude": -72.4959169, "care_type": "Chiropractor"}, {"name": "Woodcock Family Chiropractic", "address": "14 Park St, Barre, VT 05641", "city": "Barre", "phone": "+1 802-479-2023", "website": "", "rating": 5.0, "reviews": 6, "place_id": "ChIJySlTW9AGtUwR3P-KsAIw2wE", "latitude": 44.1976672, "longitude": -72.4983493, "care_type": "Chiropractor"}, {"name": "Daniel C. Woodcock, DC", "address": "14 Park St, Barre, VT 05641", "city": "Barre", "phone": "+1 802-479-2023", "website": "", "rating": 5.0, "reviews": 7, "place_id": "ChIJySlTW9AGtUwRMfi_0fD5j_Y", "latitude": 44.1976672, "longitude": -72.4983493, "care_type": "Chiropractor"}, {"name": "Central Vermont Chiropractic", "address": "81 River St #104, Montpelier, VT 05602", "city": "Montpelier", "phone": "+1 802-552-0284", "website": "https://www.centralvermontchiropractic.com/", "rating": 4.9, "reviews": 52, "place_id": "ChIJq6p61QYItUwR3D_P6bexA3w", "latitude": 44.248527, "longitude": -72.563925, "care_type": "Chiropractor"}, {"name": "John J. Pizzo, DC", "address": "108 Washington St, Barre, VT 05641", "city": "Barre", "phone": "+1 802-479-3206", "website": "", "rating": null, "reviews": 0, "place_id": "ChIJtQvUCs4GtUwRBWROCdKLnlI", "latitude": 44.1943259, "longitude": -72.4958638, "care_type": "Chiropractor"}, {"name": "Chiro-Med & Rehabilitation", "address": "345 Elm St, Bennington, VT 05201", "city": "Bennington", "phone": "+1 802-753-7930", "website": "https://www.cmrehab.net/", "rating": 5.0, "reviews": 139, "place_id": "ChIJKUC9yHuW4IkRiy3oK4q9zvA", "latitude": 42.878516, "longitude": -73.207672, "care_type": "Chiropractor"}, {"name": "Bennington Center For The Healing Arts", "address": "160 Benmont Ave, Bennington, VT 05201", "city": "Bennington", "phone": "+1 802-447-2110", "website": "https://www.benningtoncenter.com/", "rating": 5.0, "reviews": 5, "place_id": "ChIJMxmgAGGW4IkRLPCV3_bZZJg", "latitude": 42.8842269, "longitude": -73.2022128, "care_type": "Chiropractor"}, {"name": "Nancy L. Burns, DC", "address": "160 Benmont Ave #30, Bennington, VT 05201", "city": "Bennington", "phone": "+1 802-447-2110", "website": "", "rating": 5.0, "reviews": 4, "place_id": "ChIJMxmgAGGW4IkR5O3zJIVTX-0", "latitude": 42.88424089999999, "longitude": -73.2023731, "care_type": "Chiropractor"}, {"name": "Dr. Kenneth Sullivan-Bol", "address": "345 Elm St, Bennington, VT 05201", "city": "Bennington", "phone": "+1 802-753-7930", "website": "https://www.cmrehab.net/about-dr-sullivan-bol/", "rating": 5.0, "reviews": 1, "place_id": "ChIJAQCkMF2W4IkRvEjceXuBIIE", "latitude": 42.8785161, "longitude": -73.207672, "care_type": "Chiropractor"}, {"name": "Chiropractic Plus of Vermont", "address": "160 Benmont Ave, Bennington, VT 05201", "city": "Bennington", "phone": "+1 802-447-3455", "website": "", "rating": null, "reviews": 0, "place_id": "ChIJMxmgAGGW4IkRCdTaK-Wpp0A", "latitude": 42.8842269, "longitude": -73.2022128, "care_type": "Chiropractor"}, {"name": "Mahoney Family Chiropractic", "address": "5031 Main St, Waitsfield, VT 05673", "city": "Waitsfield", "phone": "+1 802-496-9206", "website": "http://mahoneychiropracticwaitsfield.com/", "rating": 4.9, "reviews": 30, "place_id": "ChIJoTQsJTpztUwRA7mr0AHA-cc", "latitude": 44.1852267, "longitude": -72.834515, "care_type": "Chiropractor"}, {"name": "Winfield Kelley DC", "address": "54 Maple St, Bristol, VT 05443", "city": "Bristol", "phone": "+1 802-453-6010", "website": "https://www.kelleychiropracticvt.com/", "rating": 5.0, "reviews": 1, "place_id": "ChIJDXH0uAVdtUwRMUHRoh6__zI", "latitude": 44.1365851, "longitude": -73.08313009999999, "care_type": "Chiropractor"}, {"name": "Mahoney Chiropractic Group", "address": "356 Mountain View Dr #200, Colchester, VT 05446", "city": "Colchester", "phone": "+1 802-655-2664", "website": "https://mahoneychiropracticgroup.com/", "rating": 5.0, "reviews": 247, "place_id": "ChIJCS92J49wykwRBZ89EUyosW4", "latitude": 44.5098871, "longitude": -73.1843076, "care_type": "Chiropractor"}, {"name": "Back To Health Family Chiropractic", "address": "387 Lake Rd UNIT 3, St Albans City, VT 05478", "city": "St Albans City", "phone": "+1 802-527-2225", "website": "http://www.drmolly.com/", "rating": 4.6, "reviews": 78, "place_id": "ChIJ8yMssPQaykwRhw3iBagTy-Y", "latitude": 44.8126289, "longitude": -73.10621549999999, "care_type": "Chiropractor"}, {"name": "MoveWell", "address": "372 Hurricane Ln # 102, Williston, VT 05495", "city": "Williston", "phone": "+1 802-497-1002", "website": "https://www.movewellvt.com/", "rating": 4.9, "reviews": 122, "place_id": "ChIJX8pAbheftUwRpS-K2m74TsM", "latitude": 44.436314, "longitude": -73.10807659999999, "care_type": "Chiropractor"}, {"name": "Precision Chiropractic", "address": "300 Cornerstone Dr #215, Williston, VT 05495", "city": "Williston", "phone": "+1 802-557-0527", "website": "https://www.precisionchirovt.com/", "rating": 5.0, "reviews": 107, "place_id": "ChIJwaBOJPR4ykwRMeoEj_MwWG0", "latitude": 44.4468563, "longitude": -73.1026356, "care_type": "Chiropractor"}, {"name": "Rushford Family Chiropractic", "address": "1 Kennedy Dr Suite L6, South Burlington, VT 05403", "city": "South Burlington", "phone": "+1 802-448-2056", "website": "https://www.rushfordchiropractic.com/", "rating": 4.8, "reviews": 38, "place_id": "ChIJGY7CajF6ykwRKJwGvHd7-eQ", "latitude": 44.452457, "longitude": -73.17775999999999, "care_type": "Chiropractor"}, {"name": "Mountainside Chiropractic", "address": "321 VT-113, East Thetford, VT 05043", "city": "East Thetford", "phone": "+1 802-565-0424", "website": "http://www.mountainsidechiro.com/", "rating": 4.9, "reviews": 33, "place_id": "ChIJVVljfJHrtEwREF9JfFsdWZA", "latitude": 43.8120689, "longitude": -72.1893846, "care_type": "Chiropractor"}, {"name": "Woodhaven Health", "address": "North Entry, 600 Blair Park Rd #260, Williston, VT 05495", "city": "Williston", "phone": "+1 802-857-5099", "website": "http://www.woodhavenhealth.com/", "rating": 5.0, "reviews": 86, "place_id": "ChIJybv9JL97ykwRA3sfff_H8Qg", "latitude": 44.4536481, "longitude": -73.11436859999999, "care_type": "Chiropractor"}, {"name": "Northern Lights Family Chiropractic", "address": "65 S Main St, Waterbury, VT 05676", "city": "Waterbury", "phone": "+1 802-882-8777", "website": "http://www.northernlightsfamilychiropractic.com/", "rating": 5.0, "reviews": 35, "place_id": "ChIJ7XLHpIqftUwRJfLFf5AfbUg", "latitude": 44.3353766, "longitude": -72.7543613, "care_type": "Chiropractor"}, {"name": "Essential Care Chiropractic - Dr. Michelle Sabourin", "address": "28 Howard St Suite #210, Burlington, VT 05401", "city": "Burlington", "phone": "+1 802-540-1143", "website": "https://www.essentialcarechiropractic.com/", "rating": 5.0, "reviews": 14, "place_id": "ChIJ73WZgFh6ykwR_qf9eRJ2VP4", "latitude": 44.4672727, "longitude": -73.2139997, "care_type": "Chiropractor"}, {"name": "Hemmett Health", "address": "185 Tilley Dr, South Burlington, VT 05403", "city": "South Burlington", "phone": "+1 802-879-1703", "website": "http://www.hemmetthealth.com/", "rating": 5.0, "reviews": 17, "place_id": "ChIJ3VhAPnJ5ykwRJIqVYikC9Rc", "latitude": 44.4493029, "longitude": -73.15287769999999, "care_type": "Chiropractor"}, {"name": "Drs. Marko Family Chiropractors", "address": "2041 Williston Rd, South Burlington, VT 05403", "city": "South Burlington", "phone": "+1 802-863-0334", "website": "https://www.drsmarko.com/", "rating": 5.0, "reviews": 78, "place_id": "ChIJU85wX555ykwRB82mtGYMStQ", "latitude": 44.4589906, "longitude": -73.14649539999999, "care_type": "Chiropractor"}, {"name": "Francis J. Smith, DC", "address": "48 Colchester Ave, Burlington, VT 05401", "city": "Burlington", "phone": "+1 802-864-5000", "website": "http://www.chiropracticworksvt.com/", "rating": 5.0, "reviews": 2, "place_id": "ChIJtQeDVFx6ykwRM1sMrNGTAD0", "latitude": 44.4809117, "longitude": -73.1978596, "care_type": "Chiropractor"}, {"name": "Alyssa Strassel", "address": "600 Blair Park Rd #260, Williston, VT 05495", "city": "Williston", "phone": "+1 716-628-1013", "website": "https://www.woodhavenhealth.com/meet-your-team", "rating": null, "reviews": 0, "place_id": "ChIJAQDAsFV4ykwRi7o4hxkqI5M", "latitude": 44.4536481, "longitude": -73.11436859999999, "care_type": "Chiropractor"}, {"name": "Sean Mahoney", "address": "261 Mountain View Dr Ste 401, Colchester, VT 05446", "city": "Colchester", "phone": "+1 802-655-2664", "website": "", "rating": null, "reviews": 0, "place_id": "ChIJb_lGRoZwykwRvpeIWo3J6fA", "latitude": 44.5086939, "longitude": -73.1863399, "care_type": "Chiropractor"}, {"name": "Lynch Family Chiropractic LLC", "address": "214 Elm St, Montpelier, VT 05602", "city": "Montpelier", "phone": "+1 802-223-3811", "website": "", "rating": 4.1, "reviews": 7, "place_id": "ChIJMy_X6O2ntUwRtmM_TL4c8_Y", "latitude": 44.26486329999999, "longitude": -72.5712005, "care_type": "Chiropractor"}, {"name": "Vital Life Center", "address": "150 Main St, Montpelier, VT 05602", "city": "Montpelier", "phone": "+1 802-213-9464", "website": "http://www.vitalife.center/", "rating": 5.0, "reviews": 16, "place_id": "ChIJSWIaGeGntUwR7UOwkDA8dYk", "latitude": 44.2625614, "longitude": -72.572805, "care_type": "Chiropractor"}, {"name": "Shane J. Lynch, DC", "address": "214 Elm St, Montpelier, VT 05602", "city": "Montpelier", "phone": "+1 802-223-3811", "website": "", "rating": 4.3, "reviews": 6, "place_id": "ChIJMy_X6O2ntUwRkuoXMhVyeR0", "latitude": 44.2648117, "longitude": -72.5711243, "care_type": "Chiropractor"}, {"name": "RiverSide Chiropractic", "address": "Terrace St, Montpelier, VT 05602", "city": "Montpelier", "phone": "+1 802-223-0916", "website": "http://www.riversidechiropracticvt.com/", "rating": 5.0, "reviews": 3, "place_id": "ChIJcSossvOntUwRfXP7gJRKrJs", "latitude": 44.2727278, "longitude": -72.59139309999999, "care_type": "Chiropractor"}, {"name": "Dr Patricia Joy Schricker DC PC", "address": "48 Colonial Dr, Montpelier, VT 05602", "city": "Montpelier", "phone": "+1 802-279-3705", "website": "https://schrickerchiropractic.com/", "rating": 5.0, "reviews": 4, "place_id": "ChIJa7ByJUuVtUwRez4aQImJgdA", "latitude": 44.2485808, "longitude": -72.5820361, "care_type": "Chiropractor"}, {"name": "Vermont Back and Body Care, LLC", "address": "338 River St, Montpelier, VT 05602", "city": "Montpelier", "phone": "+1 802-225-8958", "website": "", "rating": 5.0, "reviews": 1, "place_id": "ChIJfbS5qfoHtUwRm41qS8_ySlA", "latitude": 44.2423019, "longitude": -72.5514152, "care_type": "Chiropractor"}, {"name": "Advanced Chiropractic", "address": "155 Elm St #1, Montpelier, VT 05602", "city": "Montpelier", "phone": "+1 802-229-4922", "website": "", "rating": null, "reviews": 0, "place_id": "ChIJxai6bfKntUwRsSHwviddV9A", "latitude": 44.2634814, "longitude": -72.572943, "care_type": "Chiropractor"}, {"name": "Charles Evans, Chiropractic Physician", "address": "679 Elm St, Montpelier, VT 05602", "city": "Montpelier", "phone": "+1 802-229-2299", "website": "", "rating": 5.0, "reviews": 3, "place_id": "ChIJM9SUNvKntUwRqfKtzOiEUpE", "latitude": 44.283079, "longitude": -72.5735792, "care_type": "Chiropractor"}, {"name": "Richard C. Warmann, DC", "address": "East Montpelier, VT 05651", "city": "East Montpelier", "phone": "+1 802-223-2249", "website": "", "rating": 5.0, "reviews": 1, "place_id": "ChIJNatqHLKptUwRjX85Yk2l4Zo", "latitude": 44.2690657, "longitude": -72.4886487, "care_type": "Chiropractor"}, {"name": "Ronald K. Wisdom, DC", "address": "155 Elm St #2, Montpelier, VT 05602", "city": "Montpelier", "phone": "+1 802-229-4922", "website": "", "rating": null, "reviews": 0, "place_id": "ChIJxai6bfKntUwRNGMxqzdvJ3g", "latitude": 44.26346119999999, "longitude": -72.57292819999999, "care_type": "Chiropractor"}, {"name": "The Healing Centre", "address": "5 Allen Row, Montpelier, VT 05602", "city": "Montpelier", "phone": "+1 802-229-0784", "website": "https://www.healingcenterofvermont.com/", "rating": 4.7, "reviews": 3, "place_id": "ChIJWVfW9gMItUwRMzLMywDdqnY", "latitude": 44.249458, "longitude": -72.56768, "care_type": "Chiropractor"}, {"name": "Align To Health", "address": "1 Blanchard Ct, Montpelier, VT 05602", "city": "Montpelier", "phone": "+1 802-229-6800", "website": "", "rating": null, "reviews": 0, "place_id": "ChIJaaL7wI-ntUwRgYXRyk34woo", "latitude": 44.2586986, "longitude": -72.5749131, "care_type": "Chiropractor"}, {"name": "Heather L. Connolly, DC", "address": "338 River St, Montpelier, VT 05602", "city": "Montpelier", "phone": "+1 802-522-4766", "website": "http://vermontcdlexams.com/", "rating": 5.0, "reviews": 1, "place_id": "ChIJfbS5qfoHtUwROSBLWJQbpLo", "latitude": 44.242302, "longitude": -72.5514151, "care_type": "Chiropractor"}, {"name": "Dr. Brooke Calhoun", "address": "453 Stone Cutters Way Suite 2, Montpelier, VT 05602", "city": "Montpelier", "phone": "+1 802-552-0284", "website": "", "rating": null, "reviews": 0, "place_id": "ChIJAQD8E_antUwRC6YSnXTuK-A", "latitude": 44.2558979, "longitude": -72.57458299999999, "care_type": "Chiropractor"}, {"name": "Brooke Haslam Calhoun", "address": "453 Stone Cutters Way, Montpelier, VT 05602", "city": "Montpelier", "phone": "+1 802-225-6273", "website": "", "rating": null, "reviews": 0, "place_id": "ChIJAQD8E_antUwR0Oh-eWVLoPc", "latitude": 44.2558979, "longitude": -72.57458299999999, "care_type": "Chiropractor"}, {"name": "Pamela C. Milosevich, DC", "address": "5 Allen Row, Montpelier, VT 05602", "city": "Montpelier", "phone": "+1 802-229-0784", "website": "http://www.healingcenterofvermont.com/", "rating": null, "reviews": 0, "place_id": "ChIJWVfW9gMItUwRpIdK5HdqJMg", "latitude": 44.2494533, "longitude": -72.567723, "care_type": "Chiropractor"}, {"name": "Nicole Woodcock", "address": "453 Stone Cutters Way Suite 2, Montpelier, VT 056024431", "city": "Montpelier", "phone": "+1 802-552-0284", "website": "https://www.centralvermontchiropractic.com/staff", "rating": null, "reviews": 0, "place_id": "ChIJAQD8E_antUwRXga55jSvxLU", "latitude": 44.2558979, "longitude": -72.57458299999999, "care_type": "Chiropractor"}, {"name": "Benjamin Z. Brisjar, DC", "address": "141 Main St, Montpelier, VT 05602", "city": "Montpelier", "phone": "+1 802-498-5000", "website": "", "rating": null, "reviews": 0, "place_id": "ChIJFeJyzfOntUwRYU698kmTbvs", "latitude": 44.261558, "longitude": -72.5729111, "care_type": "Chiropractor"}, {"name": "Jeannette Ehrich, DC", "address": "136 Main St, Montpelier, VT 05602", "city": "Montpelier", "phone": "+1 802-262-6097", "website": "", "rating": null, "reviews": 0, "place_id": "ChIJcSossvOntUwRgA0dZTL69Fw", "latitude": 44.2618741, "longitude": -72.57433759999999, "care_type": "Chiropractor"}, {"name": "Onion River Chiropractic", "address": "440 Main St, Winooski, VT 05404", "city": "Winooski", "phone": "+1 802-655-0354", "website": "https://onionriverchiropractic.com/", "rating": 4.9, "reviews": 43, "place_id": "ChIJdS0Bw4JwykwRT0e1cV0eF90", "latitude": 44.5017436, "longitude": -73.1831267, "care_type": "Chiropractor"}, {"name": "Vermont Chiropractic & Sports Therapy", "address": "22 Commerce St #8a, Hinesburg, VT 05461", "city": "Hinesburg", "phone": "+1 802-482-4476", "website": "http://www.vtchirosports.net/", "rating": 5.0, "reviews": 31, "place_id": "ChIJz0ghQYt_tUwRb3LoIrwFukU", "latitude": 44.334122, "longitude": -73.11134299999999, "care_type": "Chiropractor"}, {"name": "Village Healthworks", "address": "87 Meadow Ln, Dorset, VT 05251", "city": "Dorset", "phone": "+1 802-645-9244", "website": "http://www.villagehealthworksvt.com/", "rating": 5.0, "reviews": 4, "place_id": "ChIJQdTM3Yps4IkRCgRjPr7UO60", "latitude": 43.2518614, "longitude": -73.0975471, "care_type": "Chiropractor"}, {"name": "Johnstone Grace K DC", "address": "54 School Cir, East Hardwick, VT 05836", "city": "East Hardwick", "phone": "+1 802-472-3033", "website": "", "rating": null, "reviews": 0, "place_id": "ChIJs_9CaOHJtUwRatTt6_b0LFQ", "latitude": 44.5189309, "longitude": -72.3039167, "care_type": "Chiropractor"}, {"name": "Hardwick Chiropractic", "address": "54 School Cir, East Hardwick, VT 05836", "city": "East Hardwick", "phone": "+1 802-472-3033", "website": "http://hardwickchiropractic.com/", "rating": 4.5, "reviews": 13, "place_id": "ChIJs_9CaOHJtUwRwv6M4cgzw7A", "latitude": 44.5189309, "longitude": -72.3039167, "care_type": "Chiropractor"}, {"name": "Farrell Chiropractic Center", "address": "213 VT-15 e, Jericho, VT 05465", "city": "Jericho", "phone": "+1 802-899-9991", "website": "http://www.farrellchiro.com/", "rating": 5.0, "reviews": 175, "place_id": "ChIJTcMugwSJtUwRaYyVzFnKY0U", "latitude": 44.5103203, "longitude": -72.9684731, "care_type": "Chiropractor"}, {"name": "Addison County Chiro Center", "address": "56 Green St, Vergennes, VT 05491", "city": "Vergennes", "phone": "+1 802-877-3567", "website": "", "rating": 5.0, "reviews": 3, "place_id": "ChIJOf-2b4OdykwRYH8Vmm9p2cY", "latitude": 44.1664746, "longitude": -73.2508643, "care_type": "Chiropractor"}, {"name": "Chiropractic health & wellness", "address": "14 School St, Bristol, VT 05443", "city": "Bristol", "phone": "+1 802-453-5588", "website": "", "rating": 5.0, "reviews": 6, "place_id": "ChIJNZ_cJb1ltUwRGQf_e1XC4TE", "latitude": 44.1344746, "longitude": -73.08007359999999, "care_type": "Chiropractor"}, {"name": "Anderson Chiropractic", "address": "2577 Hartford Ave., White River Junction, VT 05001", "city": "White River Junction", "phone": "+1 802-295-9360", "website": "https://www.andchiro.com/", "rating": 4.8, "reviews": 19, "place_id": "ChIJ--gde5HKtEwRL2Xp4QoXIYM", "latitude": 43.6828624, "longitude": -72.31589009999999, "care_type": "Chiropractor"}, {"name": "Back To Wellness Chiropractic", "address": "366 Dorset St Suite 10, South Burlington, VT 05403", "city": "South Burlington", "phone": "+1 802-864-4959", "website": "https://www.facebook.com/backtowellnessvermont", "rating": 5.0, "reviews": 3, "place_id": "ChIJ-dLCVPh6ykwR5_bu4ZOMSUQ", "latitude": 44.4584909, "longitude": -73.17891139999999, "care_type": "Chiropractor"}, {"name": "Timothy J. Farrell, DC", "address": "213 VT-15 e, Jericho, VT 05465", "city": "Jericho", "phone": "+1 802-899-9991", "website": "http://www.farrellchiro.com/", "rating": 5.0, "reviews": 1, "place_id": "ChIJTcMugwSJtUwRyy2nlq_WEYE", "latitude": 44.5102698, "longitude": -72.9682669, "care_type": "Chiropractor"}, {"name": "Leahy Chiropractic Clinic", "address": "188 N Main St, St Albans City, VT 05478", "city": "St Albans City", "phone": "+1 802-524-3725", "website": "", "rating": 5.0, "reviews": 12, "place_id": "ChIJCx-l_-caykwR8DF-el9deng", "latitude": 44.817939, "longitude": -73.082436, "care_type": "Chiropractor"}, {"name": "Swanton Chiropractic", "address": "19 Canada St, Swanton, VT 05488", "city": "Swanton", "phone": "+1 802-868-9999", "website": "http://swantonchiropractic.com/", "rating": 3.4, "reviews": 5, "place_id": "ChIJKXPIcGgeykwRUzZ6EU0lPjQ", "latitude": 44.920088, "longitude": -73.124157, "care_type": "Chiropractor"}, {"name": "Lyndonville Family Chiropractic", "address": "11 Hill St, Lyndonville, VT 05851", "city": "Lyndonville", "phone": "+1 802-626-5866", "website": "https://lfchealthyfamily.net/", "rating": 5.0, "reviews": 11, "place_id": "ChIJsZB07jA3tEwRTSJjUPXQGAQ", "latitude": 44.532753, "longitude": -71.98819, "care_type": "Chiropractor"}, {"name": "Vizuri Health Center", "address": "205 Cornerstone Dr, Williston, VT 05495", "city": "Williston", "phone": "+1 802-878-8330", "website": "https://vizurihealth.com/", "rating": 4.9, "reviews": 116, "place_id": "ChIJ3YWzI_p4ykwRJmNOAH0ai5c", "latitude": 44.4465014, "longitude": -73.1030426, "care_type": "Chiropractor"}, {"name": "Vermont Chiropractic & Sports Therapy", "address": "135 Allen Brook Ln Unit 103, Williston, VT 05495", "city": "Williston", "phone": "+1 802-482-4476", "website": "http://vtchirosports.net/", "rating": 5.0, "reviews": 3, "place_id": "ChIJ19EFUrd5ykwRsq5jW2WljS4", "latitude": 44.4514495, "longitude": -73.10379689999999, "care_type": "Chiropractor"}, {"name": "Healing Point Chiropractic", "address": "277 Blair Park Rd STE 115, Williston, VT 05495", "city": "Williston", "phone": "+1 802-540-7111", "website": "https://www.healingpointchiropractic.com/", "rating": 5.0, "reviews": 22, "place_id": "ChIJrxIWxb_hBIgRiEt9aylVpDw", "latitude": 44.4560563, "longitude": -73.1149179, "care_type": "Chiropractor"}, {"name": "802 Chiro - Dr. Jeremy Hester", "address": "1191 S Brownell Rd #10, Williston, VT 05495", "city": "Williston", "phone": "+1 802-776-1889", "website": "http://802chiro.com/", "rating": 5.0, "reviews": 11, "place_id": "ChIJ1zzTD9V5ykwRyAEzKvXZue0", "latitude": 44.4473509, "longitude": -73.1268249, "care_type": "Chiropractor"}, {"name": "Williams Family Chiropractic", "address": "66 Knight Ln # 40, Williston, VT 05495", "city": "Williston", "phone": "+1 802-764-4040", "website": "http://burlingtonchiropractics.com/", "rating": 5.0, "reviews": 9, "place_id": "ChIJ-0QMuVZ4ykwRUfvpCoqTQ4Q", "latitude": 44.4551922, "longitude": -73.1100542, "care_type": "Chiropractor"}, {"name": "Invictus Chiropractic", "address": "4 Pearl St #103, Essex Junction, VT 05452", "city": "Essex Junction", "phone": "+1 802-662-4525", "website": "https://invictuschiropracticvt.com/%3Futm_source%3DGMB%26utm_medium%3Dreferral%26utm_campaign%3DGMB-listing", "rating": 5.0, "reviews": 81, "place_id": "ChIJEXFNlWt3ykwRTpx18cg5TxY", "latitude": 44.4905268, "longitude": -73.1120315, "care_type": "Chiropractor"}, {"name": "Summit Chiropractic Center", "address": "69 Center Rd, Essex Junction, VT 05452", "city": "Essex Junction", "phone": "+1 802-662-1047", "website": "http://summitchiropracticvt.com/", "rating": 5.0, "reviews": 209, "place_id": "ChIJjzEMt7p3ykwR1ZDTtdJX_eI", "latitude": 44.51042, "longitude": -73.0704679, "care_type": "Chiropractor"}, {"name": "Living Well Center For Integrative Health", "address": "1 Market Pl #27, Essex Junction, VT 05452", "city": "Essex Junction", "phone": "+1 802-658-6092", "website": "http://livingwellvt.com/", "rating": 4.9, "reviews": 65, "place_id": "ChIJqUGQc595ykwR0itgN-C6cVo", "latitude": 44.5063667, "longitude": -73.13282769999999, "care_type": "Chiropractor"}, {"name": "Community Chiropractic Spine and Sport", "address": "8 Essex Way #204, Essex Junction, VT 05452", "city": "Essex Junction", "phone": "+1 802-872-9788", "website": "http://communitychiropracticvt.com/", "rating": 5.0, "reviews": 25, "place_id": "ChIJs9E_gqZ3ykwRj9lewM1CRF4", "latitude": 44.5088272, "longitude": -73.07802579999999, "care_type": "Chiropractor"}, {"name": "Performance Chiropractic", "address": "131 Pearl St, Essex Junction, VT 05452", "city": "Essex Junction", "phone": "+1 802-878-4946", "website": "http://www.returntoplay.com/", "rating": 5.0, "reviews": 9, "place_id": "ChIJ0fBVEFx3ykwRxkDUbXPfK1Q", "latitude": 44.4967267, "longitude": -73.124426, "care_type": "Chiropractor"}, {"name": "Essex Chiropractic Center", "address": "131 Pearl St, Essex Junction, VT 05452", "city": "Essex Junction", "phone": "+1 802-878-5311", "website": "", "rating": null, "reviews": 0, "place_id": "ChIJ0fBVEFx3ykwRu8HhOIiEjqw", "latitude": 44.4967267, "longitude": -73.124426, "care_type": "Chiropractor"}, {"name": "Alternative Roots Wellness Center", "address": "8 Essex Way #204, Essex Junction, VT 05452", "city": "Essex Junction", "phone": "+1 802-878-1229", "website": "http://www.alternativerootswellness.com/", "rating": 5.0, "reviews": 1, "place_id": "ChIJt3zAuaZ3ykwRqxmNtqS_3po", "latitude": 44.508811, "longitude": -73.07803299999999, "care_type": "Chiropractor"}, {"name": "Vermont Chiropractic Association", "address": "30 Lang Dr, Essex Junction, VT 05452", "city": "Essex Junction", "phone": "+1 802-233-3912", "website": "http://www.vtchiro.org/contact", "rating": 3.0, "reviews": 2, "place_id": "ChIJfRDv2JZ3ykwR88z0D-T7uwA", "latitude": 44.4986891, "longitude": -73.074849, "care_type": "Chiropractor"}, {"name": "Vanessa Cole", "address": "20 Lincoln St, Essex Junction, VT 054523154", "city": "Essex Junction", "phone": "+1 802-879-3900", "website": "", "rating": 5.0, "reviews": 1, "place_id": "ChIJa_qOCGN3ykwRNq5TYBnO94Y", "latitude": 44.4922587, "longitude": -73.1114819, "care_type": "Chiropractor"}, {"name": "Katherine L. Wiebe, DC", "address": "131 Pearl St, Essex Junction, VT 05452", "city": "Essex Junction", "phone": "+1 802-878-4946", "website": "", "rating": null, "reviews": 0, "place_id": "ChIJ0fBVEFx3ykwRGlxquGQN8eI", "latitude": 44.4967267, "longitude": -73.124426, "care_type": "Chiropractor"}, {"name": "Dr. Tilyr Dunklow", "address": "69 Center Rd, Essex Junction, VT 05452", "city": "Essex Junction", "phone": "+1 802-662-1047", "website": "https://www.summitchiropracticvt.com/meet-our-team", "rating": null, "reviews": 0, "place_id": "ChIJq6oOt7p3ykwRfTgK-Flt9Jo", "latitude": 44.5104336, "longitude": -73.0704069, "care_type": "Chiropractor"}, {"name": "Jason Davila", "address": "4 Pearl St #103, Essex Junction, VT 05452", "city": "Essex Junction", "phone": "+1 802-404-6000", "website": "", "rating": null, "reviews": 0, "place_id": "ChIJ7aKt8mJ3ykwRnZWbzNAnHT4", "latitude": 44.4905268, "longitude": -73.1120315, "care_type": "Chiropractor"}, {"name": "Diekel Paul E DC", "address": "49 Castleton Meadows Ln, Castleton, VT 05735", "city": "Castleton", "phone": "+1 802-468-2240", "website": "", "rating": 5.0, "reviews": 8, "place_id": "ChIJG2n4WHIa4IkRgVIOpVQXkhE", "latitude": 43.6105343, "longitude": -73.2087822, "care_type": "Chiropractor"}, {"name": "New Horizons Chiropractors", "address": "145 S Main St, Chester, VT 05143", "city": "Chester", "phone": "+1 802-875-7570", "website": "", "rating": null, "reviews": 0, "place_id": "ChIJx7U2oz6DNYgR0eGz-PM-Awk", "latitude": 43.2618109, "longitude": -72.59268209999999, "care_type": "Chiropractor"}, {"name": "Health In Focus", "address": "2882 Shelburne Rd, Shelburne, VT 05482", "city": "Shelburne", "phone": "+1 802-985-9500", "website": "https://www.vtchiropractors.com/%3Futm_source%3DGBL", "rating": 5.0, "reviews": 305, "place_id": "ChIJNThoohZ8ykwRJDt3ybJhT70", "latitude": 44.4136909, "longitude": -73.214591, "care_type": "Chiropractor"}, {"name": "River Bend Chiropractic", "address": "316 Western Ave, Brattleboro, VT 05301", "city": "Brattleboro", "phone": "+1 802-254-4641", "website": "http://riverbendchiropractic.com/", "rating": 4.9, "reviews": 89, "place_id": "ChIJv1V9Dbcb4YkRv_PRCfYuO3A", "latitude": 42.850578, "longitude": -72.5780149, "care_type": "Chiropractor"}, {"name": "Gruber Chiropractic and Integrative Medicine", "address": "20 Technology Dr # 4, Brattleboro, VT 05301", "city": "Brattleboro", "phone": "+1 802-254-3300", "website": "http://www.gruberchiro.com/", "rating": 5.0, "reviews": 100, "place_id": "ChIJyUyRCU4a4YkRTP2RExM0LSE", "latitude": 42.8755739, "longitude": -72.5610789, "care_type": "Chiropractor"}, {"name": "CARING CHIROPRACTIC, PLLC, Dr. Cortney Manix, DC", "address": "54 Chickering Dr, Brattleboro, VT 05301", "city": "Brattleboro", "phone": "+1 802-490-2056", "website": "http://caringchiropractic.net/", "rating": 5.0, "reviews": 7, "place_id": "ChIJW-R2ssQa4YkRR_3NgxB1yGY", "latitude": 42.8773549, "longitude": -72.56230529999999, "care_type": "Chiropractor"}, {"name": "The New England Wellness Group", "address": "387 Canal St, Brattleboro, VT 05301", "city": "Brattleboro", "phone": "+1 802-267-4838", "website": "http://www.newenglandwellnessgroup.com/", "rating": 4.9, "reviews": 20, "place_id": "ChIJvVFNfOQa4YkRzlgQw-1S3eU", "latitude": 42.8415971, "longitude": -72.564454, "care_type": "Chiropractor"}, {"name": "Brittany Schmidt", "address": "316 Western Ave Ste 1, Brattleboro, VT 05301", "city": "Brattleboro", "phone": "+1 802-254-4641", "website": "https://www.brattleborochiropractor.com/", "rating": null, "reviews": 0, "place_id": "ChIJVVVlDbcb4YkR9OS8AVLe6kc", "latitude": 42.8505415, "longitude": -72.5780159, "care_type": "Chiropractor"}, {"name": "Dr. Steven Gruber", "address": "20 Technology Dr # 4, Brattleboro, VT 05301", "city": "Brattleboro", "phone": "+1 802-254-3300", "website": "https://www.gruberchiro.com/", "rating": null, "reviews": 0, "place_id": "ChIJYQeKiOQa4YkRCa4COGhta_c", "latitude": 42.8755739, "longitude": -72.5610789, "care_type": "Chiropractor"}, {"name": "Dr. Anna Moore", "address": "387 Canal St, Brattleboro, VT 05301", "city": "Brattleboro", "phone": "+1 802-267-4838", "website": "http://www.newenglandwellnessgroup.com/", "rating": null, "reviews": 0, "place_id": "ChIJ4QceVh7AW0ARJJrQlHtOo3s", "latitude": 42.8415971, "longitude": -72.564454, "care_type": "Chiropractor"}, {"name": "FOSTERing WELLNESS Springfield", "address": "366 River St, Springfield, VT 05156", "city": "Springfield", "phone": "+1 802-886-2555", "website": "http://www.fosteringwellness.net/", "rating": 5.0, "reviews": 26, "place_id": "ChIJUQNNrTu44YkRP1LFTAwPk0c", "latitude": 43.3213844, "longitude": -72.5073623, "care_type": "Chiropractor"}, {"name": "FOSTERing WELLNESS / Randolph Chiropractic Associates", "address": "45 S Main St, Randolph, VT 05060", "city": "Randolph", "phone": "+1 802-728-5159", "website": "http://www.fosteringwellness.net/", "rating": 4.6, "reviews": 22, "place_id": "ChIJSyz1x60jtUwR6SUJvT2N7RM", "latitude": 43.9176973, "longitude": -72.6671534, "care_type": "Chiropractor"}, {"name": "St Albans Family Chiropractic", "address": "261 N Main St, St Albans City, VT 05478", "city": "St Albans City", "phone": "+1 802-527-2492", "website": "https://www.stalbanschiro.com/", "rating": 4.7, "reviews": 31, "place_id": "ChIJr0XKueAaykwRRIaOsH1kkxA", "latitude": 44.8229963, "longitude": -73.0806643, "care_type": "Chiropractor"}, {"name": "Clear Family Chiropractic & Acupuncture", "address": "278 N Main St, St Albans City, VT 05478", "city": "St Albans City", "phone": "+1 802-527-7064", "website": "", "rating": 5.0, "reviews": 10, "place_id": "ChIJs7M35OAaykwRrHWpiezYib0", "latitude": 44.8239919, "longitude": -73.0813469, "care_type": "Chiropractor"}, {"name": "William P. Leahy, DC", "address": "188 N Main St, St Albans City, VT 05478", "city": "St Albans City", "phone": "+1 802-524-3725", "website": "", "rating": 5.0, "reviews": 5, "place_id": "ChIJCx-l_-caykwR2sHGlGXzw4Q", "latitude": 44.8179154, "longitude": -73.0824365, "care_type": "Chiropractor"}, {"name": "Dr. Chad Volk", "address": "261 N Main St, St Albans City, VT 05478", "city": "St Albans City", "phone": "+1 802-527-2492", "website": "http://stalbanschiro.com/", "rating": 4.9, "reviews": 8, "place_id": "ChIJr0XKueAaykwRS9eV9MmizO4", "latitude": 44.8229596, "longitude": -73.0806427, "care_type": "Chiropractor"}, {"name": "Matthew J. Clear, DC", "address": "278 N Main St, St Albans City, VT 05478", "city": "St Albans City", "phone": "+1 802-527-7064", "website": "", "rating": 5.0, "reviews": 4, "place_id": "ChIJs7M35OAaykwRM0pg7dlQQeM", "latitude": 44.8239653, "longitude": -73.081375, "care_type": "Chiropractor"}, {"name": "VT Country Chiropractic", "address": "181 N Main St, St Albans City, VT 05478", "city": "St Albans City", "phone": "+1 802-782-8286", "website": "", "rating": null, "reviews": 0, "place_id": "ChIJUaYgw3IcykwR4g2bV81haLM", "latitude": 44.817359, "longitude": -73.0818279, "care_type": "Chiropractor"}, {"name": "Paul Berard DC - Kingdom Chiropractic and Natural Healthcare - Newport - DrPaul, PLC", "address": "189 E Main St Unit D, Newport, VT 05855", "city": "Newport", "phone": "+1 802-334-0202", "website": "https://www.kinchi.net/", "rating": 4.2, "reviews": 5, "place_id": "ChIJb7wc25VxtkwRC2jEx_8ry1Y", "latitude": 44.9431763, "longitude": -72.2001842, "care_type": "Chiropractor"}, {"name": "Living Well NEK", "address": "155 Duchess Ave, Newport, VT 05855", "city": "Newport", "phone": "+1 802-334-5941", "website": "https://www.livingwellnek.com/", "rating": 4.9, "reviews": 11, "place_id": "ChIJ92SMtypwtkwRlUdzwug6Qsg", "latitude": 44.945159, "longitude": -72.20626519999999, "care_type": "Chiropractor"}, {"name": "Francine L. Lajoie, DC", "address": "155 Duchess Ave, Newport, VT 05855", "city": "Newport", "phone": "+1 802-334-5941", "website": "https://www.facebook.com/LivingWell05855/%3Ffref%3Dts", "rating": null, "reviews": 0, "place_id": "ChIJq0oka8NxtkwRs8q5wliSlZk", "latitude": 44.945159, "longitude": -72.20626519999999, "care_type": "Chiropractor"}, {"name": "Malletts Bay Chiropractic", "address": "500 Heineberg Dr #6772, Colchester, VT 05446", "city": "Colchester", "phone": "+1 802-865-2255", "website": "", "rating": 5.0, "reviews": 2, "place_id": "ChIJSUdxMcBvykwRP7-a7i24PHQ", "latitude": 44.5304332, "longitude": -73.2534247, "care_type": "Chiropractor"}, {"name": "Helpful Healing Chiropractic", "address": "1098 W Lakeshore Dr, Colchester, VT 05446", "city": "Colchester", "phone": "+1 802-734-4270", "website": "", "rating": null, "reviews": 0, "place_id": "ChIJX4xCvZx5ykwR0BNv8EfmXdM", "latitude": 44.552246, "longitude": -73.23518399999999, "care_type": "Chiropractor"}, {"name": "Ivy R. Liebman, DC", "address": "500 Heineberg Dr, Colchester, VT 05446", "city": "Colchester", "phone": "+1 802-865-2255", "website": "http://www.mallettsbaychiropractic2.fullslate.com/", "rating": null, "reviews": 0, "place_id": "ChIJSUdxMcBvykwRENzF0ICMXbE", "latitude": 44.530422, "longitude": -73.253451, "care_type": "Chiropractor"}, {"name": "North Country Chiropractic Center", "address": "222 Summer St #1, St Johnsbury, VT 05819", "city": "St Johnsbury", "phone": "+1 802-748-3166", "website": "http://northcountrychiropractic.com/", "rating": 4.8, "reviews": 33, "place_id": "ChIJGVdi2CZGtEwRIPH25Jmb9Jc", "latitude": 44.4187898, "longitude": -72.0229396, "care_type": "Chiropractor"}, {"name": "MountainView Chiropractic & Kinesiology", "address": "32 Hill St, Danville, VT 05828", "city": "Danville", "phone": "+1 802-684-9707", "website": "https://www.802chiropractichealing.com/", "rating": 4.4, "reviews": 7, "place_id": "ChIJZ-yJQgBMtEwRFNBhSY7gj0A", "latitude": 44.411947, "longitude": -72.140055, "care_type": "Chiropractor"}, {"name": "MountainView Chiropractic", "address": "32 Hill St, Danville, VT 05828", "city": "Danville", "phone": "+1 802-684-9707", "website": "http://www.mountainviewchiropracticvt.com/", "rating": 5.0, "reviews": 5, "place_id": "ChIJZ-yJQgBMtEwRjBl_4-NE9zo", "latitude": 44.4119586, "longitude": -72.14001, "care_type": "Chiropractor"}, {"name": "Jeremy Ste Marie, DC", "address": "32 Hill St, Danville, VT 05828", "city": "Danville", "phone": "+1 802-684-9707", "website": "", "rating": 5.0, "reviews": 1, "place_id": "ChIJZ-yJQgBMtEwRiZCH_EwIpSQ", "latitude": 44.411973, "longitude": -72.14000659999999, "care_type": "Chiropractor"}, {"name": "Stacey A. Clark, DC", "address": "11 Hill St, Lyndonville, VT 05851", "city": "Lyndonville", "phone": "+1 802-626-5866", "website": "", "rating": 5.0, "reviews": 2, "place_id": "ChIJsZB07jA3tEwR6a_0Hzl8Ygc", "latitude": 44.532753, "longitude": -71.98819, "care_type": "Chiropractor"}, {"name": "Michael Billig", "address": "56 Church St, St Johnsbury, VT 05819", "city": "St Johnsbury", "phone": "+1 802-748-4064", "website": "http://www.michaelbilliginc.com/", "rating": null, "reviews": 0, "place_id": "ChIJKx4hoTpGtEwRi8X6-JySkGQ", "latitude": 44.4206727, "longitude": -72.02125269999999, "care_type": "Chiropractor"}, {"name": "Milton Chiropractic Center", "address": "28 Cornelia Ct Unit 102, Milton, VT 05468", "city": "Milton", "phone": "+1 802-893-1070", "website": "https://www.drtvt.com/", "rating": 4.8, "reviews": 57, "place_id": "ChIJr4FisyBzykwRVNoeY2_ee_0", "latitude": 44.6263656, "longitude": -73.1397705, "care_type": "Chiropractor"}, {"name": "Lighthouse Chiropractic", "address": "11 Haydenberry Dr Suite 102, Milton, VT 05468", "city": "Milton", "phone": "+1 802-893-0001", "website": "http://www.lighthouse-chiro.com/", "rating": 4.3, "reviews": 12, "place_id": "ChIJ_U9xrJgNykwR3gczLz0JeDQ", "latitude": 44.6232643, "longitude": -73.1233232, "care_type": "Chiropractor"}, {"name": "Wellspring Chiropractic Lifestyle Center", "address": "4076 Shelburne Rd #5, Shelburne, VT 05482", "city": "Shelburne", "phone": "+1 802-985-9850", "website": "https://www.wellspringcls.com/", "rating": 4.8, "reviews": 125, "place_id": "ChIJO4U3JDJ8ykwRn9bS_ZoeZgA", "latitude": 44.39662209999999, "longitude": -73.22087669999999, "care_type": "Chiropractor"}, {"name": "Shelburne Chiropractic", "address": "3240 Shelburne Rd #3, Shelburne, VT 05482", "city": "Shelburne", "phone": "+1 802-985-8130", "website": "", "rating": 5.0, "reviews": 7, "place_id": "ChIJPym4tz18ykwR-JZ2j2d5PxA", "latitude": 44.4085926, "longitude": -73.21649289999999, "care_type": "Chiropractor"}, {"name": "John F. Guerriere, DC", "address": "3240 Shelburne Rd #3, Shelburne, VT 05482", "city": "Shelburne", "phone": "+1 802-985-8130", "website": "", "rating": 5.0, "reviews": 7, "place_id": "ChIJPym4tz18ykwR8NEyp9T6CbE", "latitude": 44.4085657, "longitude": -73.2165182, "care_type": "Chiropractor"}, {"name": "Stephen Brandon", "address": "2882 Shelburne Rd, Shelburne, VT 05482", "city": "Shelburne", "phone": "+1 802-985-4059", "website": "https://www.vtchiropractors.com/dr-stephen-brandon/", "rating": 5.0, "reviews": 1, "place_id": "ChIJVVWZmBZ8ykwRwr2NbdbyxQ0", "latitude": 44.41368629999999, "longitude": -73.21457989999999, "care_type": "Chiropractor"}, {"name": "Dr. Heather Rice", "address": "4076 Shelburne Rd #5, Shelburne, VT 05482", "city": "Shelburne", "phone": "+1 802-985-9850", "website": "https://www.wellspringcls.com/us/", "rating": 5.0, "reviews": 1, "place_id": "ChIJq6oaJDJ8ykwRrTWUqWGgv74", "latitude": 44.3966036, "longitude": -73.22097219999999, "care_type": "Chiropractor"}, {"name": "Sommers Chiropractic", "address": "4 Market St, South Burlington, VT 05403", "city": "South Burlington", "phone": "+1 802-497-2938", "website": "https://www.sommerschiropractic.com/", "rating": 4.9, "reviews": 494, "place_id": "ChIJcTnIbTF6ykwR8SMTEXtC10E", "latitude": 44.4661212, "longitude": -73.17911579999999, "care_type": "Chiropractor"}, {"name": "Crombach Shelly DC", "address": "2882 Shelburne Rd, Shelburne, VT 05482", "city": "Shelburne", "phone": "+1 802-985-9500", "website": "", "rating": 5.0, "reviews": 3, "place_id": "ChIJkXw4mBZ8ykwR8_OQMvthmsY", "latitude": 44.413727, "longitude": -73.2145618, "care_type": "Chiropractor"}, {"name": "Elevate Health Chiropractic", "address": "595 Dorset St #8, South Burlington, VT 05403", "city": "South Burlington", "phone": "+1 802-557-8568", "website": "http://www.elevatehealthchiropractic.com/", "rating": 5.0, "reviews": 126, "place_id": "ChIJoZ8wvNB7ykwRpBwpuamGPzI", "latitude": 44.453129, "longitude": -73.1795399, "care_type": "Chiropractor"}, {"name": "Office of Dr. Laura A. Ramirez, D.C.", "address": "444 S Union St STE 230, Burlington, VT 05401", "city": "Burlington", "phone": "+1 802-862-6488", "website": "", "rating": 5.0, "reviews": 13, "place_id": "ChIJnzTueVN6ykwRCZjtYTDgN24", "latitude": 44.4680317, "longitude": -73.2075562, "care_type": "Chiropractor"}, {"name": "Cedar Wood Natural Health Center", "address": "The Talbots Building, 41 Idx Dr, South Burlington, VT 05403", "city": "South Burlington", "phone": "+1 802-863-5828", "website": "http://www.cedarwoodnaturalhealthcenter.com/", "rating": 4.8, "reviews": 32, "place_id": "ChIJybv9JL97ykwRDvijE23MAzI", "latitude": 44.4337196, "longitude": -73.2098693, "care_type": "Chiropractor"}, {"name": "Dr. Jason Marko", "address": "2041 Williston Rd, South Burlington, VT 05403", "city": "South Burlington", "phone": "+1 802-863-0334", "website": "http://www.markochiropractic.com/", "rating": 5.0, "reviews": 22, "place_id": "ChIJAbu0XJ55ykwRvooZ42Uyp5k", "latitude": 44.4589772, "longitude": -73.1464708, "care_type": "Chiropractor"}, {"name": "Dr. Mark Bradley, Bradley Chiropractic", "address": "366 Dorset St Suite 10, South Burlington, VT 05403", "city": "South Burlington", "phone": "+1 802-864-5150", "website": "https://www.bradleychiropracticgroup.com/", "rating": 4.8, "reviews": 19, "place_id": "ChIJk0t6j7x7ykwRDDdyFx3q4Ws", "latitude": 44.45852, "longitude": -73.1792667, "care_type": "Chiropractor"}, {"name": "Heather L. Diederich, DC", "address": "368 Dorset St #3, South Burlington, VT 05403", "city": "South Burlington", "phone": "+1 802-864-4959", "website": "", "rating": 4.7, "reviews": 3, "place_id": "ChIJ-dLCVPh6ykwROEnwn33Ugbo", "latitude": 44.4582016, "longitude": -73.1793505, "care_type": "Chiropractor"}, {"name": "Solstice Chiropractic and Wellness Center", "address": "20 Kimball Ave Suite 105, South Burlington, VT 05403", "city": "South Burlington", "phone": "+1 802-497-0109", "website": "https://www.solsticechirovt.com/", "rating": 5.0, "reviews": 1, "place_id": "ChIJ-ff7-OJ5ykwRwTdlL1sDhqU", "latitude": 44.46022259999999, "longitude": -73.1536246, "care_type": "Chiropractor"}, {"name": "Daniel S Weber, DC - Back North Chiropractic Care", "address": "1127 North Ave #21, Burlington, VT 05408", "city": "Burlington", "phone": "+1 802-652-0015", "website": "", "rating": 4.7, "reviews": 15, "place_id": "ChIJO82z6FRlykwRhuY6urxduxM", "latitude": 44.506841, "longitude": -73.245087, "care_type": "Chiropractor"}, {"name": "Associates In Chiropractic", "address": "366 Dorset St Suite 10, South Burlington, VT 05403", "city": "South Burlington", "phone": "+1 802-864-5150", "website": "", "rating": null, "reviews": 0, "place_id": "ChIJk0t6j7x7ykwR9XSFDdRb_hI", "latitude": 44.4585293, "longitude": -73.17936329999999, "care_type": "Chiropractor"}, {"name": "Dr. Paul Samuel", "address": "595 Dorset St #8, South Burlington, VT 05403", "city": "South Burlington", "phone": "+1 802-557-8568", "website": "https://www.elevatehealthchiropractic.com/", "rating": null, "reviews": 0, "place_id": "ChIJAQCQvtB7ykwRDxvHDtSRX2o", "latitude": 44.453123, "longitude": -73.1795692, "care_type": "Chiropractor"}, {"name": "Kathryn Mumma", "address": "54 W Twin Oaks Terrace, South Burlington, VT 05403", "city": "South Burlington", "phone": "+1 802-865-4714", "website": "", "rating": 5.0, "reviews": 1, "place_id": "ChIJ___7vNd7ykwR8PmxcG6GDXA", "latitude": 44.4527204, "longitude": -73.1741462, "care_type": "Chiropractor"}, {"name": "Spinal Care-Decompression Center", "address": "444 S Union St STE 230, Burlington, VT 05401", "city": "Burlington", "phone": "+1 802-660-3110", "website": "", "rating": null, "reviews": 0, "place_id": "ChIJ9wJpd1N6ykwRmhWf0iOB0wY", "latitude": 44.4680318, "longitude": -73.2075558, "care_type": "Chiropractor"}, {"name": "Sherman Spencer D DC", "address": "200 Main St #117, Burlington, VT 05401", "city": "Burlington", "phone": "+1 802-862-2477", "website": "", "rating": null, "reviews": 0, "place_id": "ChIJ9x3k9vd6ykwR4YD09XkwQ-M", "latitude": 44.4761892, "longitude": -73.21135579999999, "care_type": "Chiropractor"}, {"name": "Sobel Family Chiropractic", "address": "22 Patchen Rd, South Burlington, VT 05403", "city": "South Burlington", "phone": "+1 802-658-4064", "website": "", "rating": null, "reviews": 0, "place_id": "ChIJbX5OGS96ykwRs3a3u8w1esk", "latitude": 44.467821, "longitude": -73.1712792, "care_type": "Chiropractor"}, {"name": "Hilde S. Betts, DC", "address": "58 Locust St, Burlington, VT 05401", "city": "Burlington", "phone": "+1 802-864-0019", "website": "", "rating": null, "reviews": 0, "place_id": "ChIJdx6dkqt7ykwRmQZU4HDhwvM", "latitude": 44.46315269999999, "longitude": -73.2123131, "care_type": "Chiropractor"}, {"name": "Alignment Healing", "address": "77 College St, Burlington, VT 05401", "city": "Burlington", "phone": "+1 802-777-1138", "website": "http://www.alignmenthealing.net/", "rating": 5.0, "reviews": 21, "place_id": "ChIJd8w3RP96ykwRPLNoQDcvbWM", "latitude": 44.476721, "longitude": -73.216865, "care_type": "Chiropractor"}, {"name": "Lighthouse Chiropractic", "address": "8 Ferry Rd, South Hero, VT 05486", "city": "South Hero", "phone": "+1 802-893-0001", "website": "https://www.lighthouse-chiro.com/", "rating": 5.0, "reviews": 8, "place_id": "ChIJsUheEs9qykwRKkc7poivvyA", "latitude": 44.6650769, "longitude": -73.324219, "care_type": "Chiropractor"}, {"name": "Steven Sobel, DC", "address": "22 Patchen Rd, South Burlington, VT 05403", "city": "South Burlington", "phone": "+1 802-658-4064", "website": "", "rating": null, "reviews": 0, "place_id": "ChIJbX5OGS96ykwR00vYd8Q3yJw", "latitude": 44.4678254, "longitude": -73.1713146, "care_type": "Chiropractor"}, {"name": "Back & Neck Center", "address": "185 Tilley Dr #57, South Burlington, VT 05403", "city": "South Burlington", "phone": "+1 802-879-1703", "website": "", "rating": null, "reviews": 0, "place_id": "ChIJ3VhAPnJ5ykwRv8XShQzQg2Q", "latitude": 44.4492583, "longitude": -73.1528622, "care_type": "Chiropractor"}, {"name": "Joel E. Palmer, DC", "address": "56 Green St, Vergennes, VT 05491", "city": "Vergennes", "phone": "+1 802-877-3567", "website": "", "rating": 5.0, "reviews": 1, "place_id": "ChIJOf-2b4OdykwRPEITTRciBHA", "latitude": 44.1664402, "longitude": -73.2508032, "care_type": "Chiropractor"}, {"name": "Kimberly O. Palmer, DC", "address": "56 Green St, Vergennes, VT 05491", "city": "Vergennes", "phone": "+1 802-877-3567", "website": "", "rating": null, "reviews": 0, "place_id": "ChIJOf-2b4OdykwREK55iVaqGAw", "latitude": 44.1664746, "longitude": -73.2508643, "care_type": "Chiropractor"}, {"name": "Curtis A. Gross, DC", "address": "103 Court St, Middlebury, VT 05753", "city": "Middlebury", "phone": "+1 802-388-6376", "website": "http://www.primelifevt.com/", "rating": 5.0, "reviews": 3, "place_id": "ChIJn9KfNuBctUwR_6GYbKxgToE", "latitude": 44.005268, "longitude": -73.158554, "care_type": "Chiropractor"}, {"name": "Middlebury Chiropractic Office | Neuropathy | Weight Loss | Knee Pain | Nerve Pain", "address": "103 Court St, Middlebury, VT 05753", "city": "Middlebury", "phone": "+1 802-388-6376", "website": "https://primelifevt.com/", "rating": 4.1, "reviews": 13, "place_id": "ChIJn9KfNuBctUwReBWm68BGAV0", "latitude": 44.005268, "longitude": -73.158554, "care_type": "Chiropractor"}, {"name": "Integrated Medicine", "address": "152 Maple St, Middlebury, VT 05753", "city": "Middlebury", "phone": "+1 802-458-0488", "website": "http://integratedmed.net/", "rating": 4.4, "reviews": 7, "place_id": "ChIJr8_rhjNDtUwR8yU3KQhgQNs", "latitude": 44.0149665, "longitude": -73.170571, "care_type": "Chiropractor"}, {"name": "Epic Wellness", "address": "99 Maple St Suite 11A, Middlebury, VT 05753", "city": "Middlebury", "phone": "+1 802-300-3131", "website": "https://www.epicwellnessvt.com/", "rating": null, "reviews": 0, "place_id": "ChIJKekYcI1dtUwRLMI4LIfDP8s", "latitude": 44.0155803, "longitude": -73.1698076, "care_type": "Chiropractor"}, {"name": "Dr. Nicholas Cannon", "address": "152 Maple St UNIT 302, Middlebury, VT 05753", "city": "Middlebury", "phone": "+1 802-458-0488", "website": "https://integratedmed.net/", "rating": null, "reviews": 0, "place_id": "ChIJAQDEhjNDtUwRj8suDun0B6o", "latitude": 44.0150029, "longitude": -73.170503, "care_type": "Chiropractor"}, {"name": "Kelley Chiropractic", "address": "99 Maple St, Middlebury, VT 05753", "city": "Middlebury", "phone": "+1 802-453-6010", "website": "https://www.kelleychiropracticvt.com/", "rating": null, "reviews": 0, "place_id": "ChIJBRP0br1ltUwRKz5swLOFzCQ", "latitude": 44.0156585, "longitude": -73.1694433, "care_type": "Chiropractor"}, {"name": "Winters Chiropractic", "address": "49 Portland St, Morrisville, VT 05661", "city": "Morrisville", "phone": "+1 802-888-1060", "website": "", "rating": 5.0, "reviews": 5, "place_id": "ChIJ50Qi2LTqtUwRLEWJwAmI77k", "latitude": 44.5625122, "longitude": -72.5987758, "care_type": "Chiropractor"}, {"name": "Paul R. Winters, DC", "address": "65 Portland St, Morrisville, VT 05661", "city": "Morrisville", "phone": "+1 802-888-1060", "website": "", "rating": 5.0, "reviews": 1, "place_id": "ChIJ50Qi2LTqtUwRWPVwUJbb_U8", "latitude": 44.5627551, "longitude": -72.5986592, "care_type": "Chiropractor"}, {"name": "Morrisville Chiropractic", "address": "65 Portland St, Morrisville, VT 05661", "city": "Morrisville", "phone": "+1 802-888-1060", "website": "", "rating": null, "reviews": 0, "place_id": "ChIJ50Qi2LTqtUwROTg4llXL4TM", "latitude": 44.5627551, "longitude": -72.5986592, "care_type": "Chiropractor"}, {"name": "D C Provisions Inc", "address": "279 Olcott Dr, Hartford, VT 05047", "city": "Hartford", "phone": "+1 802-295-2343", "website": "", "rating": null, "reviews": 0, "place_id": "ChIJe72dIYzJtEwRiba-OMmn5sY", "latitude": 43.6937414, "longitude": -72.314253, "care_type": "Chiropractor"}, {"name": "McGlinn James R Chiropractor", "address": "826 Hartford Ave., White River Junction, VT 05001", "city": "White River Junction", "phone": "+1 802-295-7725", "website": "http://www.drmcglinns.biz/", "rating": 5.0, "reviews": 3, "place_id": "ChIJGdziVRDKtEwRzNaiJU1JiKo", "latitude": 43.6602755, "longitude": -72.3146876, "care_type": "Chiropractor"}, {"name": "Toda Robert DC", "address": "85 N Main St, Hartford, VT 05047", "city": "Hartford", "phone": "+1 802-295-9583", "website": "", "rating": null, "reviews": 0, "place_id": "ChIJMSEbrYfKtEwR6wSNf0irA00", "latitude": 43.6495618, "longitude": -72.3202668, "care_type": "Chiropractor"}]