[{"name": "Hill Chiropractic", "address": "101 Lb&t Wy, Logan, WV 25601", "city": "Logan", "phone": "+1 304-752-2212", "website": "https://www.hillchiropracticwv.com/contact-hill-chiropractic-today-logan", "rating": 4.5, "reviews": 8, "place_id": "ChIJdaKpeOtlT4gRaKDyPDAvAfs", "latitude": 37.8615549, "longitude": -82.0473602, "care_type": "Chiropractor"}, {"name": "Goodwin Chiropractic Center", "address": "1018 Broad St, Summersville, WV 26651", "city": "Summersville", "phone": "+1 304-872-1006", "website": "", "rating": 4.4, "reviews": 13, "place_id": "ChIJ8awnoueqTogR8pBE0mgNcuE", "latitude": 38.272921, "longitude": -80.845726, "care_type": "Chiropractor"}, {"name": "Miller Chiropractic", "address": "500 Main St #102, Summersville, WV 26651", "city": "Summersville", "phone": "+1 304-872-2736", "website": "", "rating": 4.3, "reviews": 6, "place_id": "ChIJE0nMpdiqTogRJpvH7Oh_NMU", "latitude": 38.281021, "longitude": -80.853983, "care_type": "Chiropractor"}, {"name": "Marion Chiropractic Center", "address": "220 Virginia Ave, Fairmont, WV 26554", "city": "Fairmont", "phone": "+1 304-363-4134", "website": "https://www.marionchirocenter.com/", "rating": 5.0, "reviews": 14, "place_id": "ChIJd8cgKYB-SogRhEHMzaZpR0E", "latitude": 39.480269, "longitude": -80.145438, "care_type": "Chiropractor"}, {"name": "Burdette Family Chiropractic and Wellness Center", "address": "618 Fairmont Ave, Fairmont, WV 26554", "city": "Fairmont", "phone": "+1 304-363-4006", "website": "http://www.burdettechiro.com/", "rating": 4.8, "reviews": 22, "place_id": "ChIJd9zi5X18SogRtdqzz9LIQ0A", "latitude": 39.4771907, "longitude": -80.1503324, "care_type": "Chiropractor"}, {"name": "Appalachian Family Chiro", "address": "1565 Fairmont Ave, Fairmont, WV 26554", "city": "Fairmont", "phone": "+1 304-363-8890", "website": "", "rating": 5.0, "reviews": 4, "place_id": "ChIJpdqoZ0B8SogRrKbG8ooDHq0", "latitude": 39.4605858, "longitude": -80.163349, "care_type": "Chiropractor"}, {"name": "Almost Heaven Family Chiropractic", "address": "5 Ruby Dr, Fairmont, WV 26554", "city": "Fairmont", "phone": "+1 304-367-1131", "website": "", "rating": 5.0, "reviews": 5, "place_id": "ChIJy1RBoeB9SogRcc9Bf0r50f0", "latitude": 39.4221842, "longitude": -80.1845395, "care_type": "Chiropractor"}, {"name": "Mason Family Chiropractic", "address": "1414 Country Club Rd Ste 2, Fairmont, WV 26554", "city": "Fairmont", "phone": "+1 304-534-8493", "website": "https://www.drmariemason.com/%3Futm_source%3DGBL", "rating": 5.0, "reviews": 1, "place_id": "ChIJ9ZgX9AJnSogR5HPCYLwgsds", "latitude": 39.4732418, "longitude": -80.1763031, "care_type": "Chiropractor"}, {"name": "Sandra Cunningham DC", "address": "158 Middletown Rd, White Hall, WV 26554", "city": "White Hall", "phone": "+1 304-363-4343", "website": "https://www.sandracunninghamdc.com/", "rating": 4.7, "reviews": 13, "place_id": "ChIJ8eTH6GZ7SogRdJD8fZBAEas", "latitude": 39.426448, "longitude": -80.194784, "care_type": "Chiropractor"}, {"name": "John R. Jezioro, DC", "address": "1565 Fairmont Ave, Fairmont, WV 26554", "city": "Fairmont", "phone": "+1 304-363-8890", "website": "", "rating": 5.0, "reviews": 4, "place_id": "ChIJpdqoZ0B8SogRWm8KbFISvEg", "latitude": 39.4605858, "longitude": -80.163349, "care_type": "Chiropractor"}, {"name": "David Bannister", "address": "220 Virginia Ave, Fairmont, WV 265540175", "city": "Fairmont", "phone": "+1 304-363-4134", "website": "https://www.marionchirocenter.com/", "rating": 5.0, "reviews": 4, "place_id": "ChIJVVURgSp8SogRhfjrLnengis", "latitude": 39.4802849, "longitude": -80.1454097, "care_type": "Chiropractor"}, {"name": "Paul F. Rundle, DC", "address": "2703 Fairmont Ave, Fairmont, WV 26554", "city": "Fairmont", "phone": "+1 304-367-1131", "website": "", "rating": 5.0, "reviews": 1, "place_id": "ChIJjQB2VJ18SogRPciJGA82bpw", "latitude": 39.4223655, "longitude": -80.1841747, "care_type": "Chiropractor"}, {"name": "Dr. Roger Kritzer", "address": "220 Virginia Ave, Fairmont, WV 26554", "city": "Fairmont", "phone": "+1 304-816-4614", "website": "", "rating": 5.0, "reviews": 3, "place_id": "ChIJd8cgKYB-SogRDDhZI9VVwDs", "latitude": 39.4802643, "longitude": -80.14539599999999, "care_type": "Chiropractor"}, {"name": "Hamrick Specific Chiropractic", "address": "5 Ruby Dr, White Hall, WV 26554", "city": "White Hall", "phone": "+1 304-363-2211", "website": "", "rating": 5.0, "reviews": 1, "place_id": "ChIJU1ZEXKF7NYgRpJsP2nnjzHE", "latitude": 39.4221841, "longitude": -80.1845396, "care_type": "Chiropractor"}, {"name": "Dr. Lawrence Burdette", "address": "618 Fairmont Ave, Fairmont, WV 26554", "city": "Fairmont", "phone": "+1 304-363-4006", "website": "", "rating": null, "reviews": 0, "place_id": "ChIJAQAUFil8SogRHkLeO9c9-ZM", "latitude": 39.4771331, "longitude": -80.1502505, "care_type": "Chiropractor"}, {"name": "Vincent David DC", "address": "RR 3 Box 89A, Fairmont, WV 26554", "city": "Fairmont", "phone": "+1 304-366-3991", "website": "", "rating": null, "reviews": 0, "place_id": "ChIJ46d2CdZ9SogR0JjZhJLlr4c", "latitude": 39.4392856, "longitude": -80.1427731, "care_type": "Chiropractor"}, {"name": "Burdette Family Chiro", "address": "307 Cleveland Ave, Fairmont, WV 26554", "city": "Fairmont", "phone": "+1 304-363-1172", "website": "", "rating": null, "reviews": 0, "place_id": "ChIJw78E5IB-SogRhAOl36TD8Ao", "latitude": 39.484119, "longitude": -80.14542709999999, "care_type": "Chiropractor"}, {"name": "Chambers Chiropractic & Acupuncture", "address": "319 Lutz Ave B, Martinsburg, WV 25404", "city": "Martinsburg", "phone": "+1 304-263-4927", "website": "http://www.chamberschiroandacupuncture.com/", "rating": 4.7, "reviews": 59, "place_id": "ChIJj5lzUpQDyokRgGuSbxuffE4", "latitude": 39.4863791, "longitude": -77.960096, "care_type": "Chiropractor"}, {"name": "Terry W. Chambers, DC", "address": "319 Lutz Ave B, Martinsburg, WV 25404", "city": "Martinsburg", "phone": "+1 304-263-4927", "website": "https://chamberschiroandacupuncture.com/", "rating": 5.0, "reviews": 9, "place_id": "ChIJj5lzUpQDyokRBmTfg0nhLWo", "latitude": 39.4862912, "longitude": -77.96008479999999, "care_type": "Chiropractor"}, {"name": "McCray Chiropractic & Health Restoration Clinic", "address": "214 Viking Way, Martinsburg, WV 25401", "city": "Martinsburg", "phone": "+1 304-262-0700", "website": "http://www.mccraychiropractic.com/", "rating": 4.9, "reviews": 34, "place_id": "ChIJNwb24lMCyokRP9GfTY4Z0Pc", "latitude": 39.4621474, "longitude": -77.987679, "care_type": "Chiropractor"}, {"name": "The Arbour Family Chiropractic Center", "address": "25 Crimson Cir, Martinsburg, WV 25403", "city": "Martinsburg", "phone": "+1 304-262-9920", "website": "http://www.martinsburgspinecenter.com/", "rating": 4.6, "reviews": 20, "place_id": "ChIJEzFBUfECyokRT4stDWd3bpI", "latitude": 39.5018035, "longitude": -77.9686734, "care_type": "Chiropractor"}, {"name": "ALIGN Spine and Rehab - Dr. Ali Rezaian, D.C.", "address": "176 Health Care Ln, Martinsburg, WV 25401", "city": "Martinsburg", "phone": "+1 681-389-2059", "website": "http://www.alignspineandrehab.org/", "rating": 4.9, "reviews": 105, "place_id": "ChIJC8FgLFkDyokRr-hHiMpW0Pw", "latitude": 39.4755909, "longitude": -77.9670641, "care_type": "Chiropractor"}, {"name": "McElaney Chiropractic", "address": "305 Medical Ct, Martinsburg, WV 25401", "city": "Martinsburg", "phone": "+1 304-267-4041", "website": "https://mcelaneychiropractic.com/", "rating": 4.8, "reviews": 29, "place_id": "ChIJc7MFclMCyokRPpytAiHpTko", "latitude": 39.4727587, "longitude": -77.9717246, "care_type": "Chiropractor"}, {"name": "Bertschinger Clinic Of Chiropractic", "address": "9763 Tuscarora Pike, Martinsburg, WV 25403", "city": "Martinsburg", "phone": "+1 304-263-6953", "website": "", "rating": 5.0, "reviews": 22, "place_id": "ChIJG_Cjor4DyokR5WFq_9xE4n4", "latitude": 39.4650591, "longitude": -77.9924, "care_type": "Chiropractor"}, {"name": "Dr. Brent Bertschinger DC", "address": "9763 Tuscarora Pike, Martinsburg, WV 25403", "city": "Martinsburg", "phone": "+1 304-263-6953", "website": "", "rating": 5.0, "reviews": 17, "place_id": "ChIJG_Cjor4DyokRo77eLRu5fqM", "latitude": 39.4650621, "longitude": -77.99238249999999, "care_type": "Chiropractor"}, {"name": "Creek Donald L DC", "address": "3825 Williamsport Pike, Martinsburg, WV 25404", "city": "Martinsburg", "phone": "+1 304-274-0980", "website": "", "rating": 4.7, "reviews": 26, "place_id": "ChIJdz03vfz3yYkRFzzMrui66EQ", "latitude": 39.5235491, "longitude": -77.92324909999999, "care_type": "Chiropractor"}, {"name": "Bombino James G DC", "address": "25 Crimson Cir, Martinsburg, WV 25403", "city": "Martinsburg", "phone": "+1 304-262-9920", "website": "https://martinsburgspinecenter.com/", "rating": 3.7, "reviews": 18, "place_id": "ChIJEzFBUfECyokR4_-_eZuLDDw", "latitude": 39.501907, "longitude": -77.9687347, "care_type": "Chiropractor"}, {"name": "Bertschinger Kerry V", "address": "9763 Tuscarora Pike, Martinsburg, WV 25403", "city": "Martinsburg", "phone": "+1 304-263-6953", "website": "", "rating": null, "reviews": 0, "place_id": "ChIJsfi52a4DyokRUQrj5IhPUZM", "latitude": 39.4650591, "longitude": -77.9924, "care_type": "Chiropractor"}, {"name": "McCray Dan DC", "address": "214 Viking Way, Martinsburg, WV 25401", "city": "Martinsburg", "phone": "+1 304-262-0700", "website": "http://www.mccraychiropractic.com/", "rating": null, "reviews": 0, "place_id": "ChIJa3wCw9H3yYkRnHeHvcQpS1I", "latitude": 39.462188, "longitude": -77.98760999999999, "care_type": "Chiropractor"}, {"name": "Staddon Chiropractic Spine and Joint Center", "address": "181 Roaring Lion Dr, Hedgesville, WV 25427", "city": "Hedgesville", "phone": "+1 304-620-7645", "website": "http://staddonchiropractic.com/", "rating": 5.0, "reviews": 26, "place_id": "ChIJQT5Rsav5tYkRgc7nufcdOKc", "latitude": 39.5427439, "longitude": -77.98599279999999, "care_type": "Chiropractor"}, {"name": "Charles Mcelaney", "address": "305 Medical Ct, Martinsburg, WV 25401", "city": "Martinsburg", "phone": "+1 304-267-4041", "website": "", "rating": null, "reviews": 0, "place_id": "ChIJq6oGclMCyokRt8XQ1OQPJ9Y", "latitude": 39.4727442, "longitude": -77.97170129999999, "care_type": "Chiropractor"}, {"name": "McCay Will DC", "address": "105 Tavern Rd Apartment 1, Martinsburg, WV 25401", "city": "Martinsburg", "phone": "+1 304-262-0700", "website": "", "rating": null, "reviews": 0, "place_id": "ChIJm_-UWFECyokR-jq1Ngaa33M", "latitude": 39.4727978, "longitude": -77.96800069999999, "care_type": "Chiropractor"}, {"name": "New Era Health Co.", "address": "1500 Grand Central Ave Ste 108, Vienna, WV 26105", "city": "Vienna", "phone": "+1 681-541-5000", "website": "http://www.mynewerahealth.com/", "rating": 5.0, "reviews": 211, "place_id": "ChIJfZKYb6pLSIgRNYKLhOKddD0", "latitude": 39.3140225, "longitude": -81.5518439, "care_type": "Chiropractor"}, {"name": "Riverview Health Clinic, PLLC | Carl \"Rocky\" McCale D.C.", "address": "2200 Grand Central Ave #111, Vienna, WV 26105", "city": "Vienna", "phone": "+1 304-295-5505", "website": "", "rating": 5.0, "reviews": 22, "place_id": "ChIJx9snzvBKSIgRscU1xyxCsS4", "latitude": 39.3212187, "longitude": -81.55171539999999, "care_type": "Chiropractor"}, {"name": "David Hall Chiropractic", "address": "1505 Grand Central Ave Ste 7, Vienna, WV 26105", "city": "Vienna", "phone": "+1 681-588-0396", "website": "", "rating": 5.0, "reviews": 12, "place_id": "ChIJQ8GbtmtLSIgRuwQMrehB6KY", "latitude": 39.3146987, "longitude": -81.55394369999999, "care_type": "Chiropractor"}, {"name": "Grand Central Chiropractic Center", "address": "1100 9th St Suite G, Vienna, WV 26105", "city": "Vienna", "phone": "+1 304-295-4589", "website": "", "rating": 5.0, "reviews": 1, "place_id": "ChIJQ3Me8fxKSIgR9PAsJStyZjw", "latitude": 39.30676, "longitude": -81.550573, "care_type": "Chiropractor"}, {"name": "Alliant Wellness & Chiropractic", "address": "210 Locust St, Princeton, WV 24740", "city": "Princeton", "phone": "+1 304-487-8985", "website": "http://alliantwellness.com/", "rating": 5.0, "reviews": 143, "place_id": "ChIJJ-Jyn5RrTogRF55VD_ZJ7Vo", "latitude": 37.3627319, "longitude": -81.0792312, "care_type": "Chiropractor"}, {"name": "Alliant Wellness & Chiropractic", "address": "902 Stafford Dr, Elgood, WV 24740", "city": "Elgood", "phone": "+1 304-521-4449", "website": "http://www.princetonchiropracticcare.com/contact", "rating": 5.0, "reviews": 6, "place_id": "ChIJVVVxn5RrTogRTJtbVyZyHpw", "latitude": 37.3652184, "longitude": -81.0922171, "care_type": "Chiropractor"}, {"name": "Kelli Mann, DC", "address": "902 Stafford Dr, Princeton, WV 24740", "city": "Princeton", "phone": "+1 304-487-8985", "website": "http://www.princetonchiropracticcare.com/", "rating": null, "reviews": 0, "place_id": "ChIJNZ7xkBlrTogRO8O4RQj5SaU", "latitude": 37.3652184, "longitude": -81.0922171, "care_type": "Chiropractor"}, {"name": "Dr. J Chiropractic & Wellness Center", "address": "642 Cross Lanes Dr, Nitro, WV 25143", "city": "Nitro", "phone": "+1 304-776-1520", "website": "https://www.drjbackdocwv.com/", "rating": 3.9, "reviews": 27, "place_id": "ChIJk1txfb7LSIgRir7mWUS2qVA", "latitude": 38.4243084, "longitude": -81.80365599999999, "care_type": "Chiropractor"}, {"name": "River City Chiropractic", "address": "803 8th St, Nitro, WV 25143", "city": "Nitro", "phone": "+1 304-755-4111", "website": "http://rcchiropractic.com/", "rating": 4.8, "reviews": 13, "place_id": "ChIJCVsMGl7KSIgRcWG3--jkHRA", "latitude": 38.4157257, "longitude": -81.84375709999999, "care_type": "Chiropractor"}, {"name": "Roland W. Meffert, DC", "address": "803 8th St, Nitro, WV 25143", "city": "Nitro", "phone": "+1 304-755-4111", "website": "http://www.rcchiropractic.com/meet-the-chiropractor.html", "rating": 5.0, "reviews": 6, "place_id": "ChIJCVsMGl7KSIgRd3ryRBgsixI", "latitude": 38.4157327, "longitude": -81.8437873, "care_type": "Chiropractor"}, {"name": "Teays Valley Chiropractic", "address": "3 Station Pl Way, Hurricane, WV 25526", "city": "Hurricane", "phone": "+1 304-757-7266", "website": "https://www.teaysvalleychiropractic.com/", "rating": 4.9, "reviews": 42, "place_id": "ChIJc2u3Mgi0SIgRNfD6sEQNmu8", "latitude": 38.4483159, "longitude": -81.9534424, "care_type": "Chiropractor"}, {"name": "WV Chiropractic and Wellness", "address": "2729 Main St, Hurricane, WV 25526", "city": "Hurricane", "phone": "+1 304-200-2147", "website": "https://www.drdanboggs.com/", "rating": 5.0, "reviews": 45, "place_id": "ChIJa3HZQ8fLSIgR9vfAwLoYyRU", "latitude": 38.431476, "longitude": -82.024507, "care_type": "Chiropractor"}, {"name": "Putnam Chiropractic", "address": "3520 Teays Valley Road, Hurricane, WV 25526", "city": "Hurricane", "phone": "+1 304-757-7668", "website": "http://www.putnamchiropractic.com/", "rating": 4.9, "reviews": 57, "place_id": "ChIJ1zYkc8ezSIgRMKanyEVDPPI", "latitude": 38.4418625, "longitude": -81.9867044, "care_type": "Chiropractor"}, {"name": "CORE Health Centers - Chiropractic and Wellness", "address": "3857 Teays Valley Road, Hurricane, WV 25526", "city": "Hurricane", "phone": "+1 304-519-9270", "website": "https://gotcore.net/locations/west-virginia/chiropractor-teays-valley/", "rating": 5.0, "reviews": 202, "place_id": "ChIJ5yGYkn21SIgRcMEkRvYVEhs", "latitude": 38.4470932, "longitude": -81.9532325, "care_type": "Chiropractor"}, {"name": "Walton Chiropractic", "address": "3475 Teays Valley Road D, Hurricane, WV 25526", "city": "Hurricane", "phone": "+1 681-235-7250", "website": "", "rating": 4.4, "reviews": 7, "place_id": "ChIJPQSngO6zSIgRs7PkkMHlgt4", "latitude": 38.4401276, "longitude": -81.9906365, "care_type": "Chiropractor"}, {"name": "Joseph B. Marinacci, DC", "address": "3 Station Pl Way, Hurricane, WV 25526", "city": "Hurricane", "phone": "+1 304-757-7266", "website": "http://teaysvalleychiropractic.com/", "rating": 4.3, "reviews": 8, "place_id": "ChIJc2u3Mgi0SIgRfuBs2hG5ARA", "latitude": 38.4483529, "longitude": -81.953375, "care_type": "Chiropractor"}, {"name": "Anthony Erwin", "address": "3551 Teays Valley Road, Hurricane, WV 25526", "city": "Hurricane", "phone": "+1 304-757-7668", "website": "", "rating": 5.0, "reviews": 1, "place_id": "ChIJ__-PbcezSIgR0CIwX6ax9rE", "latitude": 38.4426347, "longitude": -81.9827553, "care_type": "Chiropractor"}, {"name": "ABC Chiropractic", "address": "3470 Teays Valley Road A, Hurricane, WV 25526", "city": "Hurricane", "phone": "+1 304-747-0669", "website": "", "rating": null, "reviews": 0, "place_id": "ChIJj9rybrazSIgRedMiBCQCdx4", "latitude": 38.4415343, "longitude": -81.9909413, "care_type": "Chiropractor"}, {"name": "Jan A. Harbour, DC", "address": "3551 Teays Valley Road, Hurricane, WV 25526", "city": "Hurricane", "phone": "+1 304-757-7668", "website": "", "rating": null, "reviews": 0, "place_id": "ChIJ1zYkc8ezSIgRpCXXJ6OVbVo", "latitude": 38.442595, "longitude": -81.98272589999999, "care_type": "Chiropractor"}, {"name": "Ross Chiropractic & Wellness", "address": "400 Prestige Park Dr A, Hurricane, WV 25526", "city": "Hurricane", "phone": "+1 304-757-7505", "website": "", "rating": null, "reviews": 0, "place_id": "ChIJ67CTXp-2SIgR_ElZINDR7d0", "latitude": 38.4630425, "longitude": -81.9313799, "care_type": "Chiropractor"}, {"name": "Greenbrier Chiropractic Center", "address": "3696 Jefferson St N, Lewisburg, WV 24901", "city": "Lewisburg", "phone": "+1 304-645-6080", "website": "", "rating": 4.7, "reviews": 83, "place_id": "ChIJEcI4dnhHTIgR9UeoB_djhEc", "latitude": 37.8339876, "longitude": -80.4169737, "care_type": "Chiropractor"}, {"name": "Clifford E. Bickerton, DC", "address": "333 Lincoln St, Grafton, WV 26354", "city": "Grafton", "phone": "+1 304-265-4200", "website": "", "rating": 4.0, "reviews": 2, "place_id": "ChIJHWQSyCuPSogRtkPfhO6xASk", "latitude": 39.34800329999999, "longitude": -80.0046691, "care_type": "Chiropractor"}, {"name": "George Chiropractic Clinic", "address": "368 Main St, Ripley, WV 25271", "city": "Ripley", "phone": "+1 304-372-1010", "website": "", "rating": 4.7, "reviews": 30, "place_id": "ChIJoes6fwrvSIgRqaCrp0SqBnY", "latitude": 38.8187854, "longitude": -81.7160857, "care_type": "Chiropractor"}, {"name": "Henry Christie Chiropractic Clinic", "address": "116 W Washington St #2D, Charles Town, WV 25414", "city": "Charles Town", "phone": "+1 304-279-6024", "website": "https://www.drhenrychristie.com/", "rating": 5.0, "reviews": 19, "place_id": "ChIJUWoZRRMBtokR1tAQEzekhx0", "latitude": 39.2888828, "longitude": -77.8606794, "care_type": "Chiropractor"}, {"name": "Wood Chiropractic", "address": "43 Ruland Rd # H, Kearneysville, WV 25430", "city": "Kearneysville", "phone": "+1 304-930-1133", "website": "https://www.woodchirowv.com/", "rating": 5.0, "reviews": 98, "place_id": "ChIJCXKo17z_yYkRVV3Xo2fnNyY", "latitude": 39.3613885, "longitude": -77.8627671, "care_type": "Chiropractor"}, {"name": "Capitol Rehab", "address": "66 Somerset Blvd, Charles Town, WV 25414", "city": "Charles Town", "phone": "+1 304-728-5066", "website": "http://www.capitolrehabwv.com/", "rating": 5.0, "reviews": 121, "place_id": "ChIJZciaANQDtokRmgIFVWEsWu0", "latitude": 39.295635, "longitude": -77.8310755, "care_type": "Chiropractor"}, {"name": "Jefferson Chiropractic Center Inc", "address": "7486 Martinsburg Pike, Shepherdstown, WV 25443", "city": "Shepherdstown", "phone": "+1 304-876-8200", "website": "http://jeffersonchirocenter.com/", "rating": 4.7, "reviews": 31, "place_id": "ChIJLbUP7-T7yYkRzW9lG2SA6Rw", "latitude": 39.4349087, "longitude": -77.8290002, "care_type": "Chiropractor"}, {"name": "Roush Kelly DC", "address": "2605 Jackson Ave Bldg, Point Pleasant, WV 25550", "city": "Point Pleasant", "phone": "+1 304-675-4498", "website": "http://www.holzer.org/", "rating": null, "reviews": 0, "place_id": "ChIJy3Vur1-bSIgRLLSp9jmVVcY", "latitude": 38.8702397, "longitude": -82.1258223, "care_type": "Chiropractor"}, {"name": "Jones Chiropractic Clinic", "address": "15 Randolph Ave, Elkins, WV 26241", "city": "Elkins", "phone": "+1 304-636-3570", "website": "", "rating": 5.0, "reviews": 12, "place_id": "ChIJ7Z3its3jSogRYOre4YA4DSs", "latitude": 38.9227672, "longitude": -79.84357709999999, "care_type": "Chiropractor"}, {"name": "Harris Family Chiropractic", "address": "630 Robert E Lee Ave, Elkins, WV 26241", "city": "Elkins", "phone": "+1 304-637-2326", "website": "https://harrisfamilychiro.com/", "rating": 4.5, "reviews": 10, "place_id": "ChIJA7b7ZDbjSogRZpHHii1ld4w", "latitude": 38.9300231, "longitude": -79.86160269999999, "care_type": "Chiropractor"}, {"name": "Collett Family Chiropractic", "address": "124 Chenoweth Creek Rd, Elkins, WV 26241", "city": "Elkins", "phone": "+1 304-636-9610", "website": "https://www.collettfamilychiropractic.com/", "rating": 5.0, "reviews": 2, "place_id": "ChIJ7cz4hhHiSogRWORxfyrlW3E", "latitude": 38.8893814, "longitude": -79.8455963, "care_type": "Chiropractor"}, {"name": "Gardner Chiropractic", "address": "301 Orchard St, Elkins, WV 26241", "city": "Elkins", "phone": "+1 304-636-2411", "website": "", "rating": 5.0, "reviews": 2, "place_id": "ChIJ8Vc417rjSogRkFEovwqxmrQ", "latitude": 38.9333378, "longitude": -79.8629959, "care_type": "Chiropractor"}, {"name": "Sherri R. Collett, DC", "address": "124 Chenoweth Creek Rd, Elkins, WV 26241", "city": "Elkins", "phone": "+1 304-636-9610", "website": "https://www.collettfamilychiropractic.com/", "rating": null, "reviews": 0, "place_id": "ChIJ7Z3its3jSogRMwdBUeQ603E", "latitude": 38.88929, "longitude": -79.8456362, "care_type": "Chiropractor"}, {"name": "Jones Edward M DC", "address": "15 Randolph Ave, Elkins, WV 26241", "city": "Elkins", "phone": "+1 304-636-3570", "website": "", "rating": null, "reviews": 0, "place_id": "ChIJ7Z3its3jSogRkTXMGpn0fIk", "latitude": 38.9227672, "longitude": -79.84357709999999, "care_type": "Chiropractor"}, {"name": "Scott W. Harris, DC", "address": "630 Robert E Lee Ave, Elkins, WV 26241", "city": "Elkins", "phone": "+1 304-637-2326", "website": "", "rating": null, "reviews": 0, "place_id": "ChIJcQA6gqXjSogRnhEzM7zhac4", "latitude": 38.9321954, "longitude": -79.8664774, "care_type": "Chiropractor"}, {"name": "Dr. Brad Bushong DC", "address": "1001 Harrison Ave, Elkins, WV 26241", "city": "Elkins", "phone": "", "website": "http://www.elkinchiro.com/", "rating": null, "reviews": 0, "place_id": "ChIJI7qwhbDjSogRz3UKFM0_gHs", "latitude": 38.9291842, "longitude": -79.85921789999999, "care_type": "Chiropractor"}, {"name": "CORE Health Centers - Chiropractic and Wellness", "address": "4400 MacCorkle Ave SE, Charleston, WV 25304", "city": "Charleston", "phone": "+1 304-314-7030", "website": "https://gotcore.net/locations/west-virginia/charleston/chiropractor-kanawha-city/", "rating": 4.9, "reviews": 117, "place_id": "ChIJHeubsq0rT4gR9c0MECGROZA", "latitude": 38.3238983, "longitude": -81.5851761, "care_type": "Chiropractor"}, {"name": "CHARLESTON CHIROPRACTIC COMPANY PLLC", "address": "713 Bigley Ave, Charleston, WV 25302", "city": "Charleston", "phone": "+1 304-344-2225", "website": "http://www.charlestonchiropracticcompany.com/", "rating": 4.6, "reviews": 10, "place_id": "ChIJ1XBQkC7TSIgR5J8nhIBqYoI", "latitude": 38.3606259, "longitude": -81.6401046, "care_type": "Chiropractor"}, {"name": "Advantage Chiropractic", "address": "1003 Oakhurst Dr, Charleston, WV 25314", "city": "Charleston", "phone": "+1 304-720-7777", "website": "http://advantagechiropracticwv.com/", "rating": 4.9, "reviews": 88, "place_id": "ChIJU6DonTgtT4gRBE0nXsNNSdY", "latitude": 38.3431827, "longitude": -81.6689614, "care_type": "Chiropractor"}, {"name": "Kanawha Valley Family Chiropractic", "address": "4216 MacCorkle Ave SE #6, Charleston, WV 25304", "city": "Charleston", "phone": "+1 304-925-1697", "website": "", "rating": 4.8, "reviews": 20, "place_id": "ChIJ6xVaVWkrT4gRbgRvoNxeDqY", "latitude": 38.3249549, "longitude": -81.5870803, "care_type": "Chiropractor"}, {"name": "Charleston Family Chiropractic, PLLC", "address": "1418 MacCorkle Ave SW Suite A-1, Charleston, WV 25303", "city": "Charleston", "phone": "+1 304-344-9077", "website": "http://www.charlestonfamilychiro.com/", "rating": 5.0, "reviews": 17, "place_id": "ChIJCfmhD-LTSIgRsqyAPAjW69U", "latitude": 38.36293819999999, "longitude": -81.6675937, "care_type": "Chiropractor"}, {"name": "Tupta Chiropractic, PLLC", "address": "135 7th Ave, South Charleston, WV 25303", "city": "South Charleston", "phone": "+1 304-768-6106", "website": "http://tuptachiro.com/", "rating": 5.0, "reviews": 32, "place_id": "ChIJlVGPa1Bx9owR7UqtoC3g-cA", "latitude": 38.3673079, "longitude": -81.699867, "care_type": "Chiropractor"}, {"name": "South Hills Chiropractic Inc", "address": "1105 Bridge Rd, Charleston, WV 25314", "city": "Charleston", "phone": "+1 304-342-8800", "website": "http://www.southhillschiropractic.com/", "rating": 5.0, "reviews": 9, "place_id": "ChIJo9eXztgsT4gR3a8quM8n6HM", "latitude": 38.3398221, "longitude": -81.6455502, "care_type": "Chiropractor"}, {"name": "Elk River Chiropractic", "address": "4710 Chimney Dr Suite D, Charleston, WV 25302", "city": "Charleston", "phone": "+1 304-965-2458", "website": "https://elkriverchirowv.com/", "rating": 5.0, "reviews": 7, "place_id": "ChIJ_buAJZTVSIgRvM09uLInhms", "latitude": 38.404915, "longitude": -81.53335229999999, "care_type": "Chiropractor"}, {"name": "Simmons Family Chiropractic, PLLC", "address": "4715 MacCorkle Ave SE Suite B, Charleston, WV 25304", "city": "Charleston", "phone": "+1 304-925-5003", "website": "http://www.simmonsfamilychiro.com/", "rating": 5.0, "reviews": 12, "place_id": "ChIJTTJ1cw8rT4gRSOXSHXhVJ6Q", "latitude": 38.3206101, "longitude": -81.5807176, "care_type": "Chiropractor"}, {"name": "Health Quest Therapy and Wellness", "address": "4317 MacCorkle Ave SE, Charleston, WV 25304", "city": "Charleston", "phone": "+1 304-925-0377", "website": "http://www.wvhealthquest.com/", "rating": 5.0, "reviews": 1, "place_id": "ChIJDcKyEWwrT4gRWk9r-Pr3zIY", "latitude": 38.3236818, "longitude": -81.5858277, "care_type": "Chiropractor"}, {"name": "Dr. Jarred Newhouse", "address": "1418 MacCorkle Ave SW Suite A-1, Charleston, WV 25303", "city": "Charleston", "phone": "+1 304-344-9077", "website": "https://charlestonfamilychiro.com/", "rating": 5.0, "reviews": 4, "place_id": "ChIJX2oR48fSSIgRtwtL-RZ-QYQ", "latitude": 38.3630651, "longitude": -81.6674747, "care_type": "Chiropractor"}, {"name": "Mark E. Hughes, DC", "address": "1105 Bridge Rd, Charleston, WV 25314", "city": "Charleston", "phone": "+1 304-342-8800", "website": "http://www.southhillschiropractic.com/", "rating": 5.0, "reviews": 3, "place_id": "ChIJo9eXztgsT4gR1-u4hf0Dq-s", "latitude": 38.3398223, "longitude": -81.64555, "care_type": "Chiropractor"}, {"name": "Mishoe Chiropractic", "address": "3102 Chesterfield Ave, Charleston, WV 25304", "city": "Charleston", "phone": "+1 304-346-6688", "website": "", "rating": 5.0, "reviews": 9, "place_id": "ChIJe3RM8p4sT4gRjwsiCW0nVXg", "latitude": 38.3275242, "longitude": -81.6049412, "care_type": "Chiropractor"}, {"name": "Valley Spine & Injury Center", "address": "411 D St, South Charleston, WV 25303", "city": "South Charleston", "phone": "+1 304-768-7671", "website": "https://www.valleyspineandinjurycenter.com/", "rating": 5.0, "reviews": 5, "place_id": "ChIJ-xOV31bNSIgRt_csnuh9vbU", "latitude": 38.366501, "longitude": -81.6953478, "care_type": "Chiropractor"}, {"name": "Jennifer R. Runyan, DC", "address": "1003 Oakhurst Dr, Charleston, WV 25314", "city": "Charleston", "phone": "+1 304-720-7777", "website": "http://advantagechiropracticwv.com/", "rating": 3.7, "reviews": 6, "place_id": "ChIJU6DonTgtT4gRvnGkbat7aL8", "latitude": 38.3432309, "longitude": -81.6691037, "care_type": "Chiropractor"}, {"name": "Smith & Jones Chiropractic", "address": "100 Westmoreland Office Park, Dunbar, WV 25064", "city": "Dunbar", "phone": "+1 304-768-5068", "website": "https://www.smithandjoneschiro.net/", "rating": 4.9, "reviews": 31, "place_id": "ChIJr4nCECvNSIgRfC7rpvTNXKE", "latitude": 38.3629972, "longitude": -81.7313965, "care_type": "Chiropractor"}, {"name": "World Wide Chiropractic and Sports Medicine", "address": "37 Nellie Ln, Sissonville, WV 25320", "city": "Sissonville", "phone": "+1 304-988-1922", "website": "http://wwcandsm.com/", "rating": 4.5, "reviews": 11, "place_id": "ChIJ9675jY_QSIgRJ1irP_u8Ac8", "latitude": 38.5109362, "longitude": -81.6399807, "care_type": "Chiropractor"}, {"name": "Dr. Jennifer Bulger", "address": "713 Bigley Ave, Charleston, WV 25302", "city": "Charleston", "phone": "+1 304-344-2225", "website": "", "rating": 5.0, "reviews": 1, "place_id": "ChIJ__-_kC7TSIgRVXreQlgQJUw", "latitude": 38.3607514, "longitude": -81.640068, "care_type": "Chiropractor"}, {"name": "Cottrell Family Chiropractic", "address": "127 Goff Mountain Rd, Cross Lanes, WV 25313", "city": "Cross Lanes", "phone": "+1 304-776-7290", "website": "http://cottrellchiropractic.com/", "rating": 5.0, "reviews": 9, "place_id": "ChIJS0lf2JvLSIgRcckthSvlug4", "latitude": 38.4178325, "longitude": -81.7927776, "care_type": "Chiropractor"}, {"name": "Myers Mark S DC", "address": "RR 1 Box 170, Mt Zion, WV 26151", "city": "Mt Zion", "phone": "+1 304-354-6141", "website": "", "rating": 5.0, "reviews": 2, "place_id": "ChIJ16H6ND90SYgR6qaqFOXpg1Y", "latitude": 38.8876761, "longitude": -81.1692374, "care_type": "Chiropractor"}, {"name": "Blanton Chiropractic & Neuropathy", "address": "3244 US-60 Suite #30, Huntington, WV 25705", "city": "Huntington", "phone": "+1 304-523-3333", "website": "https://www.c1doc.com/", "rating": 4.9, "reviews": 366, "place_id": "ChIJd1YmANIJRogRJv2_n0Cz8SU", "latitude": 38.411354, "longitude": -82.3425159, "care_type": "Chiropractor"}, {"name": "Love Chiropractic & Holistic Living PLLC", "address": "Mall Rd, Oak Hill, WV 25901", "city": "Oak Hill", "phone": "+1 304-969-5683", "website": "https://www.lovechirowv.com/", "rating": 5.0, "reviews": 19, "place_id": "ChIJc-OxKq6_TogRFflctUV9kbY", "latitude": 38.0143534, "longitude": -81.12567109999999, "care_type": "Chiropractor"}, {"name": "Jeffrey L. Summers, DC", "address": "4317 MacCorkle Ave SE, Charleston, WV 25304", "city": "Charleston", "phone": "+1 304-925-0377", "website": "http://www.wvhealthquest.com/", "rating": 4.7, "reviews": 3, "place_id": "ChIJDcKyEWwrT4gRmLN3-G2zoaw", "latitude": 38.3236295, "longitude": -81.5859218, "care_type": "Chiropractor"}, {"name": "CORE Health Centers - Chiropractic and Wellness", "address": "2240 5th Ave Suite-201, Huntington, WV 25703", "city": "Huntington", "phone": "+1 304-309-3080", "website": "https://gotcore.net/locations/west-virginia/chiropractor-huntington/", "rating": 4.9, "reviews": 49, "place_id": "ChIJg7tgRbIJRogRZ-Vg_qkG-xk", "latitude": 38.4245716, "longitude": -82.4179276, "care_type": "Chiropractor"}, {"name": "Perry Chiropractic", "address": "651 Washington Ave, Huntington, WV 25701", "city": "Huntington", "phone": "+1 304-522-7323", "website": "https://www.ldperrydc.com/%3Futm_source%3DGBP%26utm_medium%3Dorganic", "rating": 4.8, "reviews": 21, "place_id": "ChIJpbWagfwJRogR3uE-b40qy9A", "latitude": 38.4160652, "longitude": -82.4668423, "care_type": "Chiropractor"}, {"name": "Cooper Family Chiropractic", "address": "1040 20th St, Huntington, WV 25703", "city": "Huntington", "phone": "+1 304-394-3407", "website": "https://www.cooperfamilychirowv.com/", "rating": 5.0, "reviews": 23, "place_id": "ChIJ66iWLl4JRogRynvsW4bQsDA", "latitude": 38.4149149, "longitude": -82.4200808, "care_type": "Chiropractor"}, {"name": "Moore Chiropractic Accident & Injury Clinic - Dr. Jason Moore", "address": "2511 3rd Ave, Huntington, WV 25703", "city": "Huntington", "phone": "+1 304-523-7891", "website": "http://www.hcaic.com/", "rating": 4.9, "reviews": 112, "place_id": "ChIJrYOVzdAJRogRN7NHbl1EVM0", "latitude": 38.4273578, "longitude": -82.4123336, "care_type": "Chiropractor"}, {"name": "Pappas Chiropractic Health and Wellness Center", "address": "510 20th St, Huntington, WV 25703", "city": "Huntington", "phone": "+1 304-529-7772", "website": "http://pappaschiropractichwc.com/", "rating": 5.0, "reviews": 9, "place_id": "ChIJd_8gNa0JRogRd7uB-BPtZ-E", "latitude": 38.4226958, "longitude": -82.4222515, "care_type": "Chiropractor"}, {"name": "Westmoreland Chiropractic Center", "address": "1166 Adams Ave, Huntington, WV 25704", "city": "Huntington", "phone": "+1 304-522-1787", "website": "https://www.westmorelandchiropracticcenter.com/", "rating": 4.3, "reviews": 12, "place_id": "ChIJZ6oEQAAKRogRQ8_QVfXil3E", "latitude": 38.4129107, "longitude": -82.476657, "care_type": "Chiropractor"}, {"name": "Lavalette Chiropractic", "address": "2631 5th Street Rd, Huntington, WV 25701", "city": "Huntington", "phone": "+1 304-522-7246", "website": "", "rating": 5.0, "reviews": 7, "place_id": "ChIJq5Mx04zjRYgRiUIb3XOOcYk", "latitude": 38.3773939, "longitude": -82.45532159999999, "care_type": "Chiropractor"}, {"name": "Huntington Chiropractic Clinic", "address": "6007 US-60 #226, Barboursville, WV 25504", "city": "Barboursville", "phone": "+1 304-302-6060", "website": "", "rating": 5.0, "reviews": 4, "place_id": "ChIJEVdIy08HRogRHoh2wpPLnxQ", "latitude": 38.4122217, "longitude": -82.3105065, "care_type": "Chiropractor"}, {"name": "Ross Chiropractic", "address": "5505 US-60, Huntington, WV 25705", "city": "Huntington", "phone": "+1 304-525-1901", "website": "http://www.rosschiropractic.net/", "rating": 3.5, "reviews": 6, "place_id": "ChIJ66iGDM4JRogRO4ELU7QSLX0", "latitude": 38.4098897, "longitude": -82.333956, "care_type": "Chiropractor"}, {"name": "Dr. Jimmy Blanton", "address": "1216 6th Ave, Huntington, WV 25701", "city": "Huntington", "phone": "+1 304-523-3333", "website": "https://www.c1doc.com/", "rating": 5.0, "reviews": 1, "place_id": "ChIJq6r6_9EJRogREVzIePVZFvY", "latitude": 38.4194835, "longitude": -82.4374012, "care_type": "Chiropractor"}, {"name": "Davis Chiropractic", "address": "3246 US-60 suite 9, Huntington, WV 25705", "city": "Huntington", "phone": "+1 304-736-4111", "website": "http://www.davischirowv.com/", "rating": 4.7, "reviews": 35, "place_id": "ChIJq0MFhbMARogRyDxgfLuLcww", "latitude": 38.4109816, "longitude": -82.342139, "care_type": "Chiropractor"}, {"name": "304 Chiropractic", "address": "6468 Farmdale Rd, Barboursville, WV 25504", "city": "Barboursville", "phone": "+1 304-733-4038", "website": "http://www.304chiropractic.com/", "rating": 5.0, "reviews": 157, "place_id": "ChIJ4wN46GsBRogRbytaZ99GxWc", "latitude": 38.4130859, "longitude": -82.2982864, "care_type": "Chiropractor"}, {"name": "Elizabeth H. Martin, DC", "address": "1166 Adams Ave, Huntington, WV 25704", "city": "Huntington", "phone": "+1 304-522-1787", "website": "", "rating": 5.0, "reviews": 2, "place_id": "ChIJZ6oEQAAKRogR6x5pm3GQu2o", "latitude": 38.4129107, "longitude": -82.476657, "care_type": "Chiropractor"}, {"name": "John S. Fry, DC", "address": "2631 5th Street Rd, Huntington, WV 25701", "city": "Huntington", "phone": "+1 304-522-7246", "website": "", "rating": 5.0, "reviews": 2, "place_id": "ChIJZyeBAQbjRYgRhC1vLQCNCzI", "latitude": 38.3773939, "longitude": -82.45532159999999, "care_type": "Chiropractor"}, {"name": "Deborah A. Ross, DC", "address": "1218 5th Ave, Huntington, WV 25701", "city": "Huntington", "phone": "+1 304-525-1901", "website": "http://www.rosschiropractic.net/", "rating": null, "reviews": 0, "place_id": "ChIJ66iGDM4JRogR7FyloSfFDSw", "latitude": 38.4207329, "longitude": -82.437707, "care_type": "Chiropractor"}, {"name": "Haught J William DC", "address": "Rt 60E, Huntington, WV 25701", "city": "Huntington", "phone": "+1 304-523-4400", "website": "", "rating": null, "reviews": 0, "place_id": "ChIJbXuY4vsHRogRmeqzFuvKvbI", "latitude": 38.4107558, "longitude": -82.3823914, "care_type": "Chiropractor"}, {"name": "Mohn Geoffery E DC", "address": "5187 Co Rd 60/26, Huntington, WV 25705", "city": "Huntington", "phone": "+1 304-733-4820", "website": "", "rating": null, "reviews": 0, "place_id": "ChIJL3RRTXgHRogRZr1o4XlFmaA", "latitude": 38.4114194, "longitude": -82.34250159999999, "care_type": "Chiropractor"}, {"name": "William E. Nichols, Jr., DC", "address": "2211 3rd Ave, Huntington, WV 25705", "city": "Huntington", "phone": "+1 304-691-1880", "website": "https://www.marshallhealth.org/find-a-provider/provider-details/%3FID%3D609", "rating": null, "reviews": 0, "place_id": "ChIJ0ZEpeiQJRogROswzoQ34Y9g", "latitude": 38.4256842, "longitude": -82.41921839999999, "care_type": "Chiropractor"}, {"name": "ChiroPractical PLLC", "address": "35 Edwards Dr, Huntington, WV 25705", "city": "Huntington", "phone": "+1 304-638-9464", "website": "", "rating": null, "reviews": 0, "place_id": "ChIJLxyC_w79RYgRrBgAeOlkSnA", "latitude": 38.3965834, "longitude": -82.388612, "care_type": "Chiropractor"}, {"name": "Dr. Caleb Perry", "address": "651 Washington Ave, Huntington, WV 25701", "city": "Huntington", "phone": "+1 304-522-7323", "website": "", "rating": null, "reviews": 0, "place_id": "ChIJ__-PgfwJRogR1vDL8nnY4nw", "latitude": 38.4160699, "longitude": -82.4668415, "care_type": "Chiropractor"}, {"name": "Nick W. Robinson, DC", "address": "Huntington, WV 25701", "city": "Huntington", "phone": "+1 304-523-0266", "website": "", "rating": null, "reviews": 0, "place_id": "ChIJf2m4NdAJRogR06So8gYJkcA", "latitude": 38.4182767, "longitude": -82.4402874, "care_type": "Chiropractor"}, {"name": "Mountaineer Chiropractic", "address": "2108 Camden Ave D, Parkersburg, WV 26101", "city": "Parkersburg", "phone": "+1 304-422-9600", "website": "http://mountaineerchiro.com/", "rating": 5.0, "reviews": 96, "place_id": "ChIJxWgh04VMSIgRPKNyshpYGx4", "latitude": 39.2546296, "longitude": -81.5518167, "care_type": "Chiropractor"}, {"name": "Akers Chiropractic Clinic, PLLC", "address": "1706 Blizzard Dr #1, Parkersburg, WV 26101", "city": "Parkersburg", "phone": "+1 304-865-1295", "website": "http://akerschiropracticclinic.net/", "rating": 5.0, "reviews": 30, "place_id": "ChIJH0p_He1MSIgRjyRdarDekws", "latitude": 39.2395497, "longitude": -81.54585639999999, "care_type": "Chiropractor"}, {"name": "Dawn Injury & Wellness Center, PLLC", "address": "923 Emerson Ave, Parkersburg, WV 26104", "city": "Parkersburg", "phone": "+1 304-428-9355", "website": "http://www.dawnwellness.com/", "rating": 4.9, "reviews": 322, "place_id": "ChIJRbOtXXJLSIgRVdZCY6kwcgI", "latitude": 39.2824585, "longitude": -81.545538, "care_type": "Chiropractor"}, {"name": "McCarter Health Center", "address": "4315 Emerson Ave, Parkersburg, WV 26104", "city": "Parkersburg", "phone": "+1 304-428-8300", "website": "http://mccarterhealthcenter.com/", "rating": 4.9, "reviews": 85, "place_id": "ChIJASEcxDpLSIgRveI4bR_lanI", "latitude": 39.2908699, "longitude": -81.52848499999999, "care_type": "Chiropractor"}, {"name": "Hughes Family Chiropractic", "address": "214 11th St, Parkersburg, WV 26101", "city": "Parkersburg", "phone": "+1 304-428-6900", "website": "https://www.hughesfamilychiro.com/", "rating": 4.8, "reviews": 20, "place_id": "ChIJY2L81HtLSIgRTEOxoXMguUw", "latitude": 39.2706331, "longitude": -81.55442939999999, "care_type": "Chiropractor"}, {"name": "Johnson Chiropractic Clinic PLLC", "address": "706 Division St, Parkersburg, WV 26101", "city": "Parkersburg", "phone": "+1 304-422-1191", "website": "https://www.greatbacks.net/", "rating": 5.0, "reviews": 60, "place_id": "ChIJifSNtYhMSIgRhsbNJDs2jXc", "latitude": 39.2521042, "longitude": -81.55446859999999, "care_type": "Chiropractor"}, {"name": "Johnson Chiropractic Clinic: Johnson II Bill DC", "address": "706 Division St, Parkersburg, WV 26101", "city": "Parkersburg", "phone": "+1 304-422-1191", "website": "http://www.greatbacks.net/", "rating": 5.0, "reviews": 49, "place_id": "ChIJifSNtYhMSIgRk2GHx8CZ0Ks", "latitude": 39.2521042, "longitude": -81.55446859999999, "care_type": "Chiropractor"}, {"name": "Fox Family Chiropractic", "address": "1800 Camden Ave, Parkersburg, WV 26101", "city": "Parkersburg", "phone": "+1 304-834-3919", "website": "", "rating": 4.6, "reviews": 10, "place_id": "ChIJsSXe84ZMSIgRBPg-_Jm7SGA", "latitude": 39.2550396, "longitude": -81.5561847, "care_type": "Chiropractor"}, {"name": "Wright Family Chiropractic", "address": "2301 Camden Ave, Parkersburg, WV 26101", "city": "Parkersburg", "phone": "+1 304-422-2301", "website": "http://wrightfamilychiro.com/", "rating": 4.4, "reviews": 15, "place_id": "ChIJ3QXM3IRMSIgRuT6CgHjlbaw", "latitude": 39.2551574, "longitude": -81.5497477, "care_type": "Chiropractor"}, {"name": "Anna E. Hughes, D.C", "address": "214 11th St, Parkersburg, WV 26101", "city": "Parkersburg", "phone": "+1 304-428-6900", "website": "https://hughesfamilychiro.com/", "rating": 5.0, "reviews": 1, "place_id": "ChIJq6qegXlLSIgRmRGRxC_TtEc", "latitude": 39.27062069999999, "longitude": -81.55443609999999, "care_type": "Chiropractor"}, {"name": "Adam W. Green, DC", "address": "2710 Broadway Ext, Parkersburg, WV 26101", "city": "Parkersburg", "phone": "+1 304-485-0106", "website": "", "rating": 5.0, "reviews": 8, "place_id": "ChIJr-Fzwe1MSIgRoUf7l8o7omo", "latitude": 39.236972, "longitude": -81.5431061, "care_type": "Chiropractor"}, {"name": "Dye Bruce a DC", "address": "800 Division St, Parkersburg, WV 26101", "city": "Parkersburg", "phone": "+1 304-485-3865", "website": "", "rating": 5.0, "reviews": 13, "place_id": "ChIJXWJzyohMSIgRL20P7bfqzUk", "latitude": 39.2509449, "longitude": -81.55472619999999, "care_type": "Chiropractor"}, {"name": "Robert R. Akers, DC", "address": "1706 Blizzard Dr #1, Parkersburg, WV 26101", "city": "Parkersburg", "phone": "+1 304-865-1295", "website": "https://akerschiropracticclinic.net/about/", "rating": 5.0, "reviews": 6, "place_id": "ChIJH0p_He1MSIgRUKlQ08liWX4", "latitude": 39.2395089, "longitude": -81.5458816, "care_type": "Chiropractor"}, {"name": "Green Chiropractic Clinic", "address": "614 Green St, Parkersburg, WV 26101", "city": "Parkersburg", "phone": "+1 304-485-0106", "website": "", "rating": 5.0, "reviews": 9, "place_id": "ChIJAQAAAOtMSIgRHlY_eqnuQ5w", "latitude": 39.264622, "longitude": -81.5569411, "care_type": "Chiropractor"}, {"name": "Hale Chiropractic Center", "address": "2623 Dudley Ave, Parkersburg, WV 26101", "city": "Parkersburg", "phone": "+1 304-485-0201", "website": "", "rating": 5.0, "reviews": 6, "place_id": "ChIJX85mmGtLSIgRc8dUP6H33cE", "latitude": 39.2821852, "longitude": -81.5392454, "care_type": "Chiropractor"}, {"name": "Folwell Chiropractic Clinic, Inc.", "address": "3211 Emerson Ave, Parkersburg, WV 26104", "city": "Parkersburg", "phone": "+1 304-485-9124", "website": "http://wvbackdoc.com/", "rating": 5.0, "reviews": 6, "place_id": "ChIJh1edDz5LSIgR894AUELVRKE", "latitude": 39.2867712, "longitude": -81.53697369999999, "care_type": "Chiropractor"}, {"name": "Habeb Family Chiropractic", "address": "891 Harris Hwy, Parkersburg, WV 26101", "city": "Parkersburg", "phone": "+1 304-863-0320", "website": "", "rating": 5.0, "reviews": 5, "place_id": "ChIJAeFXC35LSIgR4qCv3yhFg1Q", "latitude": 39.2443235, "longitude": -81.62247649999999, "care_type": "Chiropractor"}, {"name": "Fox Chiropractic Wellness Center", "address": "2134 Dupont Rd, Parkersburg, WV 26101", "city": "Parkersburg", "phone": "+1 304-863-8138", "website": "", "rating": null, "reviews": 0, "place_id": "ChIJvVQIbcnGSYgRqpvsneJMF-8", "latitude": 39.2494014, "longitude": -81.59376519999999, "care_type": "Chiropractor"}, {"name": "Hall of Fame Chiropractic", "address": "416 37th St, Parkersburg, WV 26101", "city": "Parkersburg", "phone": "", "website": "", "rating": 5.0, "reviews": 1, "place_id": "ChIJj5GZShtLSIgRXpnZZ6S1nsQ", "latitude": 39.2970092, "longitude": -81.5485382, "care_type": "Chiropractor"}, {"name": "Back & Neck Pain Center", "address": "293 College Pkwy, Parkersburg, WV 26104", "city": "Parkersburg", "phone": "+1 304-485-1251", "website": "", "rating": 5.0, "reviews": 4, "place_id": "ChIJJ90briFLSIgRgIPq9EIIU8M", "latitude": 39.3029859, "longitude": -81.5302249, "care_type": "Chiropractor"}, {"name": "Jeffrey W. Garvey, DC", "address": "2013 Ohio Ave, Parkersburg, WV 26101", "city": "Parkersburg", "phone": "+1 304-422-3334", "website": "", "rating": 4.3, "reviews": 6, "place_id": "ChIJE0Tw-HJLSIgRfRVn2sfJ3BQ", "latitude": 39.2806769, "longitude": -81.5509532, "care_type": "Chiropractor"}, {"name": "Dr. Stephen Wells", "address": "2108 Camden Ave D, Parkersburg, WV 26101", "city": "Parkersburg", "phone": "+1 304-422-9600", "website": "https://mountaineerchiro.com/meet-the-chiropractor/", "rating": 5.0, "reviews": 3, "place_id": "ChIJVVVlrIVMSIgRi_CFoQY_Pwo", "latitude": 39.2546127, "longitude": -81.55180109999999, "care_type": "Chiropractor"}, {"name": "Dr. Michael D. Hale, B.S., D.C.", "address": "2623 Dudley Ave, Parkersburg, WV 26101", "city": "Parkersburg", "phone": "+1 304-485-0201", "website": "", "rating": 5.0, "reviews": 5, "place_id": "ChIJpazfomtLSIgROWPuOzGDSS4", "latitude": 39.2821678, "longitude": -81.5392651, "care_type": "Chiropractor"}, {"name": "Dr. Steven Sidebottom", "address": "293 College Pkwy, Parkersburg, WV 26104", "city": "Parkersburg", "phone": "+1 304-485-1251", "website": "", "rating": 5.0, "reviews": 1, "place_id": "ChIJAQAwkNhKSIgR1ZciawqSq9M", "latitude": 39.3029859, "longitude": -81.5302249, "care_type": "Chiropractor"}, {"name": "Dr. Christopher Fox", "address": "1800 Camden Ave, Parkersburg, WV 26101", "city": "Parkersburg", "phone": "+1 304-834-3919", "website": "", "rating": 5.0, "reviews": 1, "place_id": "ChIJ__9T8YZMSIgRv97wkZ9a-DE", "latitude": 39.25545049999999, "longitude": -81.5558978, "care_type": "Chiropractor"}, {"name": "Byron R. Folwell, DC", "address": "3211 Emerson Ave, Parkersburg, WV 26104", "city": "Parkersburg", "phone": "+1 304-485-9124", "website": "http://www.wvbackdoc.com/", "rating": 5.0, "reviews": 4, "place_id": "ChIJh1edDz5LSIgRj8kWuX9PkN0", "latitude": 39.2867857, "longitude": -81.5370173, "care_type": "Chiropractor"}, {"name": "Rooted & Co. aka Rooted Wellness MOV - Parkersburg", "address": "617 Market St, Parkersburg, WV 26101", "city": "Parkersburg", "phone": "+1 740-629-8577", "website": "https://tinyurl.com/Rooted-wellness-mov", "rating": 5.0, "reviews": 28, "place_id": "ChIJB_tTTLpLSIgRQWpiY8JBBZE", "latitude": 39.2668934, "longitude": -81.5588265, "care_type": "Chiropractor"}, {"name": "Justin J. Mccarter, DC", "address": "4315 Emerson Ave, Parkersburg, WV 26104", "city": "Parkersburg", "phone": "+1 304-428-8300", "website": "", "rating": 5.0, "reviews": 6, "place_id": "ChIJAbqCwTpLSIgRhXcBqUKOk_I", "latitude": 39.2909113, "longitude": -81.5284911, "care_type": "Chiropractor"}, {"name": "Eagle's Way Chiropractic Care", "address": "1900 Garfield Ave # 1, Parkersburg, WV 26101", "city": "Parkersburg", "phone": "+1 304-295-9811", "website": "", "rating": null, "reviews": 0, "place_id": "ChIJ4U84i3NLSIgRtkyX7FPakBM", "latitude": 39.2797237, "longitude": -81.5536968, "care_type": "Chiropractor"}, {"name": "Ermel F. Harris Jr, DC", "address": "1100 9th St Suite G, Vienna, WV 26105", "city": "Vienna", "phone": "+1 304-295-4589", "website": "", "rating": 5.0, "reviews": 2, "place_id": "ChIJQ3Me8fxKSIgRrA0Hv6ZFF0o", "latitude": 39.3067628, "longitude": -81.55055829999999, "care_type": "Chiropractor"}, {"name": "Dr. Tyler Kaye D.C. (Chiropractor)", "address": "1500 Grand Central Ave Ste 108, Vienna, WV 26105", "city": "Vienna", "phone": "", "website": "https://www.facebook.com/TKayeDC", "rating": null, "reviews": 0, "place_id": "ChIJ0ziyc5FLSIgR40FvQo-SHSs", "latitude": 39.3140225, "longitude": -81.5518439, "care_type": "Chiropractor"}, {"name": "Jennifer L. Dennis, DC", "address": "2 Murray Dr, Parkersburg, WV 26101", "city": "Parkersburg", "phone": "+1 740-568-9000", "website": "", "rating": null, "reviews": 0, "place_id": "ChIJg3hlRjKzSYgRhisxtfujQAU", "latitude": 39.2303328, "longitude": -81.51176339999999, "care_type": "Chiropractor"}, {"name": "Dr. Matthew Spaur", "address": "1500 Grand Central Ave Ste 108, Vienna, WV 26105", "city": "Vienna", "phone": "+1 681-541-5000", "website": "http://mynewerahealth.com/", "rating": 5.0, "reviews": 25, "place_id": "ChIJZZ2qLTFME4cRrrUe1BvwHYM", "latitude": 39.3140225, "longitude": -81.5518439, "care_type": "Chiropractor"}, {"name": "Eddy Chiropractic Clinic", "address": "443 Highland Ave #1247, Williamstown, WV 26187", "city": "Williamstown", "phone": "+1 304-375-6000", "website": "", "rating": 4.7, "reviews": 27, "place_id": "ChIJEfQd5-rLSYgR-poL-uT0tno", "latitude": 39.4012031, "longitude": -81.44808189999999, "care_type": "Chiropractor"}, {"name": "Dr. Kyle Moore", "address": "923 Emerson Ave, Parkersburg, WV 26104", "city": "Parkersburg", "phone": "+1 304-428-9355", "website": "https://www.dawnwellness.com/meet-dr-kyle-moore", "rating": null, "reviews": 0, "place_id": "ChIJ___v02xLSIgRjyI929-PAUM", "latitude": 39.2824585, "longitude": -81.545538, "care_type": "Chiropractor"}, {"name": "Dr. Jessica Gissy", "address": "923 Emerson Ave, Parkersburg, WV 26104", "city": "Parkersburg", "phone": "+1 304-428-9355", "website": "", "rating": null, "reviews": 0, "place_id": "ChIJ___v02xLSIgR9xow22nXlA4", "latitude": 39.2824585, "longitude": -81.545538, "care_type": "Chiropractor"}, {"name": "Habeb Robert T DC", "address": "891 Harris Hwy, Parkersburg, WV 26101", "city": "Parkersburg", "phone": "+1 304-863-0320", "website": "", "rating": 5.0, "reviews": 2, "place_id": "ChIJN2sN-JROSIgR-JvfZ82IZsY", "latitude": 39.2443418, "longitude": -81.622446, "care_type": "Chiropractor"}, {"name": "Dr. Alan Hatmaker", "address": "3601 Emerson Ave, Parkersburg, WV 26104", "city": "Parkersburg", "phone": "+1 304-422-3731", "website": "", "rating": null, "reviews": 0, "place_id": "ChIJq6r6iTtLSIgRcICfoIsz2Cc", "latitude": 39.288551, "longitude": -81.5321721, "care_type": "Chiropractor"}, {"name": "The Joint Chiropractic", "address": "358 Suncrest Towne Centre Drive, Morgantown, WV 26505", "city": "Morgantown", "phone": "+1 304-850-8587", "website": "https://www.thejoint.com/west-virginia/morgantown/morgantown-35001", "rating": 4.8, "reviews": 157, "place_id": "ChIJxfYeCHN7NYgR3tPo22wiXrM", "latitude": 39.6534757, "longitude": -79.942286, "care_type": "Chiropractor"}, {"name": "Coliseum Chiropractic", "address": "138 Jim St, Morgantown, WV 26501", "city": "Morgantown", "phone": "+1 304-244-5575", "website": "https://www.coliseumchiro.com/%3Futm_source%3Dgmb%26utm_medium%3Dorganic", "rating": 4.9, "reviews": 37, "place_id": "ChIJR2OKiFZ7NYgR0nG1eIs8zck", "latitude": 39.6474913, "longitude": -80.00261309999999, "care_type": "Chiropractor"}, {"name": "Atlas Chiropractic", "address": "179 Hanalei Drive Suite 3, Morgantown, WV 26508", "city": "Morgantown", "phone": "+1 304-598-3000", "website": "http://www.atlaschirowv.com/", "rating": 5.0, "reviews": 102, "place_id": "ChIJTz5w0gl7NYgRjmj_1IP8Aik", "latitude": 39.6495357, "longitude": -79.8879339, "care_type": "Chiropractor"}, {"name": "Mountain State Wellness, PLLC | Dr. Lucas and Amy Watterson", "address": "965 Hartman Run Rd # 1101, Morgantown, WV 26505", "city": "Morgantown", "phone": "+1 304-244-1817", "website": "http://www.mtnstatewellness.com/", "rating": 4.9, "reviews": 212, "place_id": "ChIJ-4Rz5zR7NYgRd-9b7ZO5P2g", "latitude": 39.6453768, "longitude": -79.92135809999999, "care_type": "Chiropractor"}, {"name": "Spineworks", "address": "6000 Coombs Farm Dr #102, Morgantown, WV 26508", "city": "Morgantown", "phone": "+1 304-381-4144", "website": "http://www.wvspineworks.com/", "rating": 4.9, "reviews": 145, "place_id": "ChIJDafHIeRkNYgRaDVjsCLxJ2g", "latitude": 39.6573846, "longitude": -79.8921664, "care_type": "Chiropractor"}, {"name": "Toth Chiropractic and Wellness", "address": "3461 University Ave, Morgantown, WV 26505", "city": "Morgantown", "phone": "+1 304-599-8228", "website": "https://www.tothchiropractic.com/%3Futm_source%3DGBP%26utm_medium%3Dorganic", "rating": 4.7, "reviews": 88, "place_id": "ChIJAWcrY2d7NYgRK3Nd619d5VQ", "latitude": 39.6582272, "longitude": -79.9861811, "care_type": "Chiropractor"}, {"name": "Coombs Family Chiropractic", "address": "55 Don Knotts Blvd, Morgantown, WV 26508", "city": "Morgantown", "phone": "+1 304-943-0124", "website": "http://www.coombschiro.com/", "rating": 4.9, "reviews": 61, "place_id": "ChIJMVRssop8NYgRjKrHbfSB6Ac", "latitude": 39.6052939, "longitude": -79.9679452, "care_type": "Chiropractor"}, {"name": "Advantage Health & Wellness", "address": "699 Burroughs Street, Morgantown, WV 26505", "city": "Morgantown", "phone": "+1 304-225-9355", "website": "https://www.morgantownchiropractor.com/%3Futm_source%3DNEXT_AHW%26utm_medium%3DGoogle_Website", "rating": 4.7, "reviews": 245, "place_id": "ChIJy8kuIwh7NYgRyJnyyUj25bg", "latitude": 39.6581178, "longitude": -79.9639028, "care_type": "Chiropractor"}, {"name": "Amy J. Watterson, DC", "address": "965 Hartman Run Rd, Morgantown, WV 26505", "city": "Morgantown", "phone": "+1 304-292-7740", "website": "http://mtnstatewellness.com/", "rating": 5.0, "reviews": 4, "place_id": "ChIJ-4Rz5zR7NYgRWmD5xo9IYEU", "latitude": 39.6453131, "longitude": -79.92141269999999, "care_type": "Chiropractor"}, {"name": "Hornsby Chiropractic Clinic, LLC", "address": "623 Cheat Rd, Morgantown, WV 26508", "city": "Morgantown", "phone": "+1 304-594-3699", "website": "", "rating": 5.0, "reviews": 1, "place_id": "ChIJxzI9T8RlNYgRdTwjasVoZm0", "latitude": 39.6489613, "longitude": -79.8898316, "care_type": "Chiropractor"}, {"name": "Body Workz Wellness", "address": "827 Fairmont Rd, Morgantown, WV 26501", "city": "Morgantown", "phone": "+1 304-292-6465", "website": "http://drjohnbennett.com/", "rating": 5.0, "reviews": 14, "place_id": "ChIJGXGjR4p7NYgRdA3Qx0na7ug", "latitude": 39.6320915, "longitude": -79.98233979999999, "care_type": "Chiropractor"}, {"name": "John W. Bennett, DC", "address": "827 Fairmont Rd #101, Morgantown, WV 26501", "city": "Morgantown", "phone": "+1 304-292-6465", "website": "http://drjohnbennett.com/", "rating": 5.0, "reviews": 3, "place_id": "ChIJjSkBR4p7NYgRUuKsaXFevk8", "latitude": 39.6321532, "longitude": -79.9822511, "care_type": "Chiropractor"}, {"name": "Dr. Chad Porter", "address": "138 Jim St, Morgantown, WV 26501", "city": "Morgantown", "phone": "+1 304-244-5575", "website": "http://www.coliseumchiro.com/", "rating": null, "reviews": 0, "place_id": "ChIJKd86ePZ7NYgRg3pPRQXpwqs", "latitude": 39.6475735, "longitude": -80.00247929999999, "care_type": "Chiropractor"}, {"name": "Dr. Bryan Coombs", "address": "55 Don Knotts Blvd, Morgantown, WV 26508", "city": "Morgantown", "phone": "+1 304-943-0124", "website": "", "rating": 5.0, "reviews": 2, "place_id": "ChIJFf6P7l58NYgRtnplqktZZxU", "latitude": 39.6051847, "longitude": -79.9678349, "care_type": "Chiropractor"}, {"name": "Clare Mcdaniel", "address": "179 Hanalei Drive Suite 3, Morgantown, WV 26508", "city": "Morgantown", "phone": "+1 304-598-3000", "website": "", "rating": 5.0, "reviews": 1, "place_id": "ChIJqXHcRO5kNYgR8iQLmg1Jzxc", "latitude": 39.649489, "longitude": -79.8878575, "care_type": "Chiropractor"}, {"name": "Dylan Drinkard", "address": "179 Hanalei Drive Suite 3, Morgantown, WV 26508", "city": "Morgantown", "phone": "+1 304-598-3000", "website": "", "rating": null, "reviews": 0, "place_id": "ChIJqXHcRO5kNYgRKBEUo4bNMu8", "latitude": 39.649489, "longitude": -79.8878575, "care_type": "Chiropractor"}, {"name": "Kevin D Trembush", "address": "699 Burroughs Street, Morgantown, WV 26505", "city": "Morgantown", "phone": "+1 304-225-9355", "website": "", "rating": null, "reviews": 0, "place_id": "ChIJy8kuIwh7NYgRYF9YKzglZFA", "latitude": 39.6581178, "longitude": -79.9639028, "care_type": "Chiropractor"}, {"name": "Hornsby Christine M DC", "address": "623 Cheat Rd, Morgantown, WV 26508", "city": "Morgantown", "phone": "+1 304-594-3699", "website": "", "rating": 5.0, "reviews": 1, "place_id": "ChIJjxhple5kNYgRCFsw-UM6Szw", "latitude": 39.6489565, "longitude": -79.8898327, "care_type": "Chiropractor"}, {"name": "Dr. Timothy Dorey", "address": "6000 Coombs Farm Dr #102, Morgantown, WV 26508", "city": "Morgantown", "phone": "+1 304-381-4144", "website": "https://www.wvspineworks.com/who", "rating": null, "reviews": 0, "place_id": "ChIJm4Gpu-ZkNYgRbXW8p3mLx5I", "latitude": 39.6573846, "longitude": -79.8921664, "care_type": "Chiropractor"}, {"name": "Dr. Bradley Friend", "address": "179 Hanalei Drive Suite 3, Morgantown, WV 26508", "city": "Morgantown", "phone": "+1 304-598-3000", "website": "http://www.atlaschirowv.com/meet_our_doctors/dr_brad_friend", "rating": null, "reviews": 0, "place_id": "ChIJqXHcRO5kNYgRstcAs59EDzM", "latitude": 39.649489, "longitude": -79.8878575, "care_type": "Chiropractor"}, {"name": "Bennett Clinic-Specific Chiro", "address": "827 Fairmont Rd #101, Morgantown, WV 26501", "city": "Morgantown", "phone": "+1 304-292-6465", "website": "", "rating": null, "reviews": 0, "place_id": "ChIJjSkBR4p7NYgRvwfYEbppBT4", "latitude": 39.6320428, "longitude": -79.9823779, "care_type": "Chiropractor"}, {"name": "Donald K. Hamrick III, DC", "address": "3081 University Ave, Morgantown, WV 26505", "city": "Morgantown", "phone": "+1 304-598-3334", "website": "", "rating": 5.0, "reviews": 1, "place_id": "ChIJU1ZEXKF7NYgRYtYny1NakTg", "latitude": 39.6534145, "longitude": -79.9694655, "care_type": "Chiropractor"}, {"name": "Bridgeport Family Chiropractic: Dr. Jason LaBenne DC and Dr. Michael Ielapi DC", "address": "150 E Philadelphia Ave, Bridgeport, WV 26330", "city": "Bridgeport", "phone": "+1 304-842-7678", "website": "http://www.chiropractorbridgeport.com/", "rating": 4.9, "reviews": 36, "place_id": "ChIJSxMmiJ1oSogRLPlHupFjK0w", "latitude": 39.28721609999999, "longitude": -80.2489013, "care_type": "Chiropractor"}, {"name": "Crossroads Chiropractic", "address": "219 N Robert Stone Way, Reedsville, WV 26547", "city": "Reedsville", "phone": "+1 304-864-6400", "website": "", "rating": 5.0, "reviews": 23, "place_id": "ChIJm_DaVzieSogRbVxCJHsTQgg", "latitude": 39.5139492, "longitude": -79.7988984, "care_type": "Chiropractor"}, {"name": "Bruceton Wellness Center", "address": "15630 N Preston Hwy, Bruceton Mills, WV 26525", "city": "Bruceton Mills", "phone": "+1 304-379-7000", "website": "http://www.brucetonwellness.com/", "rating": 5.0, "reviews": 481, "place_id": "ChIJfQ1rUmZbNYgRJqefcJEoq1Y", "latitude": 39.6653358, "longitude": -79.6324121, "care_type": "Chiropractor"}, {"name": "Dr. Deana Morrison Fernandez", "address": "Chestnut Ridge Professional Bldg, 918 Chestnut Ridge Rd # 5, Morgantown, WV 26505", "city": "Morgantown", "phone": "+1 304-598-2632", "website": "", "rating": null, "reviews": 0, "place_id": "ChIJ__8PwA97NYgR7YlcBzmpAR4", "latitude": 39.6571938, "longitude": -79.9542001, "care_type": "Chiropractor"}, {"name": "Miller Chiropractic & Wellness Center", "address": "1003 4th St, Moundsville, WV 26041", "city": "Moundsville", "phone": "+1 304-843-1192", "website": "https://m.facebook.com/pages/category/Chiropractor/Miller-Chiropractic-Wellness-Center-131833080333997/", "rating": 4.4, "reviews": 14, "place_id": "ChIJV5dhTb7gNYgRP_BPaklmT2Y", "latitude": 39.920845, "longitude": -80.74171439999999, "care_type": "Chiropractor"}, {"name": "Miller Chiropractic & Wellness Center", "address": "144 Lafayette Ave, Moundsville, WV 26041", "city": "Moundsville", "phone": "+1 304-843-1192", "website": "", "rating": null, "reviews": 0, "place_id": "ChIJsWrpWJrgNYgRAkgoM1DWHY8", "latitude": 39.9283784, "longitude": -80.7503315, "care_type": "Chiropractor"}, {"name": "deGarmeaux Chiropractic", "address": "605 Lafayette Ave, Moundsville, WV 26041", "city": "Moundsville", "phone": "+1 304-845-8828", "website": "", "rating": 5.0, "reviews": 1, "place_id": "ChIJqaXky5TgNYgRc4aO43l8Hww", "latitude": 39.9189991, "longitude": -80.7475759, "care_type": "Chiropractor"}, {"name": "Chiropractic Care Center", "address": "529 E Main St, Bridgeport, WV 26330", "city": "Bridgeport", "phone": "+1 304-842-4202", "website": "https://www.docmasonwv.com/", "rating": 4.9, "reviews": 107, "place_id": "ChIJ4c8AfFFmSogR2RuvD1uHk8k", "latitude": 39.2885437, "longitude": -80.2400507, "care_type": "Chiropractor"}, {"name": "Enliven Chiropractic & Wellness", "address": "130 Professional Pl, Bridgeport, WV 26330", "city": "Bridgeport", "phone": "+1 304-933-9355", "website": "http://www.enlivenwv.com/", "rating": 4.9, "reviews": 326, "place_id": "ChIJsULvH0tmSogRILSysq4prr4", "latitude": 39.3354985, "longitude": -80.2346146, "care_type": "Chiropractor"}, {"name": "The Chiropractic Care Center", "address": "200 WV-98 Suite 105, Nutter Fort, WV 26301", "city": "Nutter Fort", "phone": "+1 304-969-9508", "website": "http://docmasonwv.com/", "rating": 5.0, "reviews": 5, "place_id": "ChIJgW45zs5pSogRwYms7gY97TU", "latitude": 39.265169, "longitude": -80.3305705, "care_type": "Chiropractor"}, {"name": "Michael W. Mason, DC", "address": "529 E Main St, Bridgeport, WV 26330", "city": "Bridgeport", "phone": "+1 304-842-4202", "website": "https://www.docmasonwv.com/", "rating": 5.0, "reviews": 5, "place_id": "ChIJ4c8AfFFmSogRLnnG0T4CFiI", "latitude": 39.2884962, "longitude": -80.2401909, "care_type": "Chiropractor"}, {"name": "Trinity Chiropractic", "address": "139 Conference Center Way Suite 101A, Bridgeport, WV 26330", "city": "Bridgeport", "phone": "+1 681-896-9444", "website": "", "rating": 5.0, "reviews": 3, "place_id": "ChIJByazoFxlSogRfB6y3b7Ekho", "latitude": 39.3236629, "longitude": -80.23139069999999, "care_type": "Chiropractor"}, {"name": "DiPetta Chiropractic Clinic", "address": "2 Chenoweth Dr Suite D, Bridgeport, WV 26330", "city": "Bridgeport", "phone": "+1 304-848-8130", "website": "http://dipettachiro.com/", "rating": 5.0, "reviews": 7, "place_id": "ChIJQ1bJbP1nSogRFqehfD4_2OU", "latitude": 39.2827993, "longitude": -80.2689379, "care_type": "Chiropractor"}, {"name": "Susan Dipetta", "address": "2 Chenoweth Dr Suite D, Bridgeport, WV 26330", "city": "Bridgeport", "phone": "+1 304-848-8130", "website": "https://www.dipettachiro.com/", "rating": 5.0, "reviews": 2, "place_id": "ChIJVVWFflFmSogR3xuG57Eeujs", "latitude": 39.2827993, "longitude": -80.2689379, "care_type": "Chiropractor"}, {"name": "Jelapi Michael DC", "address": "101 Diamond St, Bridgeport, WV 26330", "city": "Bridgeport", "phone": "+1 304-842-7678", "website": "http://www.chiropractorbridgeport.com/", "rating": null, "reviews": 0, "place_id": "ChIJM2smiJ1oSogROy8OSUD-iXg", "latitude": 39.3008831, "longitude": -80.2771502, "care_type": "Chiropractor"}, {"name": "Dr. James Leonette", "address": "130 Professional Pl, Bridgeport, WV 26330", "city": "Bridgeport", "phone": "+1 304-933-9355", "website": "https://www.enlivenwv.com/about-us", "rating": null, "reviews": 0, "place_id": "ChIJVVVlC81lSogRPB-L8Rgkc-w", "latitude": 39.3354985, "longitude": -80.2346146, "care_type": "Chiropractor"}, {"name": "Pinti Family Chiropractic", "address": "135 Cimarron Rd, Clarksburg, WV 26301", "city": "Clarksburg", "phone": "+1 304-623-5551", "website": "", "rating": 3.9, "reviews": 18, "place_id": "ChIJp5ueS8xpSogR8dUjWmAYky4", "latitude": 39.262376, "longitude": -80.3253414, "care_type": "Chiropractor"}, {"name": "Pinti Cara J DC", "address": "102 Hill St, Bridgeport, WV 26330", "city": "Bridgeport", "phone": "+1 304-848-2378", "website": "", "rating": null, "reviews": 0, "place_id": "ChIJsQqL_rRnSogRU1iwD3R5W2w", "latitude": 39.2831814, "longitude": -80.25316959999999, "care_type": "Chiropractor"}, {"name": "Michael A. Ielapi Jr, DC", "address": "351 E Main St, Bridgeport, WV 26330", "city": "Bridgeport", "phone": "+1 304-842-6993", "website": "", "rating": null, "reviews": 0, "place_id": "ChIJ2TXXSExmSogRzYIGeOY1Fpo", "latitude": 39.2875781, "longitude": -80.2455055, "care_type": "Chiropractor"}, {"name": "Marie Mason", "address": "154 W Main St Ste 1, Bridgeport, WV 26330", "city": "Bridgeport", "phone": "+1 304-842-0601", "website": "", "rating": null, "reviews": 0, "place_id": "ChIJVVWRtUpmSogR8mmJ5xgvp-o", "latitude": 39.2844613, "longitude": -80.2531065, "care_type": "Chiropractor"}, {"name": "William V. Jordan, DC", "address": "411 D St, South Charleston, WV 25303", "city": "South Charleston", "phone": "+1 304-768-7671", "website": "https://www.valleyspineandinjurycenter.com/", "rating": 5.0, "reviews": 1, "place_id": "ChIJWRBpyDPNSIgRBPm1wP_a51Q", "latitude": 38.3665381, "longitude": -81.6953838, "care_type": "Chiropractor"}, {"name": "Back 2 Life Chiropractic", "address": "4008 MacCorkle Ave SW, South Charleston, WV 25309", "city": "South Charleston", "phone": "+1 304-400-4056", "website": "", "rating": 5.0, "reviews": 3, "place_id": "ChIJ48xTfaYzT4gR0lWucdYfIR0", "latitude": 38.3596919, "longitude": -81.7178732, "care_type": "Chiropractor"}, {"name": "McKinney Family Chiropractic", "address": "700 6th Ave, St Albans, WV 25177", "city": "St Albans", "phone": "+1 304-722-2225", "website": "http://mckinneyfamilychiro.com/", "rating": 4.9, "reviews": 29, "place_id": "ChIJnb0ErN7KSIgRf50XnV5JvRc", "latitude": 38.3853284, "longitude": -81.8301072, "care_type": "Chiropractor"}, {"name": "Fisher Chiropractic", "address": "142 MacCorkle Ave, St Albans, WV 25177", "city": "St Albans", "phone": "+1 304-722-3011", "website": "", "rating": 5.0, "reviews": 1, "place_id": "ChIJWUImI-jKSIgRX5DfXRrjWKA", "latitude": 38.3900767, "longitude": -81.8349003, "care_type": "Chiropractor"}, {"name": "Oak Hill Family Chiropractic Clinic - Dr. Barry Stowers, DC-FIAMA", "address": "111 Lewis St, Oak Hill, WV 25901", "city": "Oak Hill", "phone": "+1 304-465-0561", "website": "", "rating": 5.0, "reviews": 4, "place_id": "ChIJVXSIMFuVTogRUPbbFxJHE2I", "latitude": 37.9744442, "longitude": -81.1476612, "care_type": "Chiropractor"}, {"name": "Pinnacle Chiropractic", "address": "325 Jones Ave, Oak Hill, WV 25901", "city": "Oak Hill", "phone": "+1 304-465-4325", "website": "https://rymaps.xyz/business/pinnacle-chiropractic-6s85ax", "rating": 4.8, "reviews": 24, "place_id": "ChIJp_s5olqVTogRueJoL7_Iy-s", "latitude": 37.97370129999999, "longitude": -81.1522576, "care_type": "Chiropractor"}, {"name": "Christopher B. Flint, DC", "address": "325 Jones Ave, Oak Hill, WV 25901", "city": "Oak Hill", "phone": "+1 304-465-4325", "website": "", "rating": 4.4, "reviews": 11, "place_id": "ChIJyQ_VplqVTogRijidr5nesBg", "latitude": 37.9736836, "longitude": -81.1522324, "care_type": "Chiropractor"}, {"name": "New River Chiropractic", "address": "1438 Main St E, Oak Hill, WV 25901", "city": "Oak Hill", "phone": "+1 304-469-3615", "website": "", "rating": 5.0, "reviews": 4, "place_id": "ChIJy_z65E-VTogRWD0NiheHMOk", "latitude": 37.9871447, "longitude": -81.13535019999999, "care_type": "Chiropractor"}, {"name": "Integrity Chiropractic Inc", "address": "300 Rural Acres Dr, Beckley, WV 25801", "city": "Beckley", "phone": "+1 304-252-3333", "website": "https://www.integritychirowv.com/", "rating": 4.9, "reviews": 370, "place_id": "ChIJ9W962JbzTogRz6Vl5CfCRfc", "latitude": 37.7923279, "longitude": -81.1775905, "care_type": "Chiropractor"}, {"name": "Chipley Chiropractic", "address": "409 N Kanawha St, Beckley, WV 25801", "city": "Beckley", "phone": "+1 304-252-0200", "website": "https://www.beckleychiropractor.com/%3FUTM_source%3DGBL", "rating": 4.9, "reviews": 330, "place_id": "ChIJ32w9F-fyTogRHCjLpbJPjGM", "latitude": 37.7823845, "longitude": -81.18761719999999, "care_type": "Chiropractor"}, {"name": "Kominsky Chiropractic", "address": "3157 Robert C Byrd Dr, Beckley, WV 25801", "city": "Beckley", "phone": "+1 304-253-3489", "website": "https://www.no-paintoday.com/", "rating": 5.0, "reviews": 130, "place_id": "ChIJuWXs7AXzTogR4-w_GqctepM", "latitude": 37.7828048, "longitude": -81.1906391, "care_type": "Chiropractor"}, {"name": "Chris Grose Spine & Wellness", "address": "1804 Harper Rd, Beckley, WV 25801", "city": "Beckley", "phone": "+1 304-250-6047", "website": "http://askdrgrose.com/", "rating": 3.8, "reviews": 16, "place_id": "ChIJ24PTj5vyTogRpVTJTjTWHck", "latitude": 37.7911008, "longitude": -81.2052949, "care_type": "Chiropractor"}, {"name": "Back to Health Chiropractic", "address": "385 Airport Rd, Beaver, WV 25813", "city": "Beaver", "phone": "+1 304-256-1110", "website": "http://backtohealthwv.com/", "rating": 5.0, "reviews": 331, "place_id": "ChIJ2f9yiODyTogRh17K-mYw5nY", "latitude": 37.75487409999999, "longitude": -81.130194, "care_type": "Chiropractor"}, {"name": "Chipley Chiropractic: Melissa Mc Millen DC", "address": "409 N Kanawha St, Beckley, WV 25801", "city": "Beckley", "phone": "+1 304-252-5999", "website": "http://beckleychiropractor.com/", "rating": null, "reviews": 0, "place_id": "ChIJDT8-_vrzTogRx9mAgHc0OdQ", "latitude": 37.7823853, "longitude": -81.18762389999999, "care_type": "Chiropractor"}, {"name": "Julian A. Chipley, DC", "address": "409 N Kanawha St, Beckley, WV 25801", "city": "Beckley", "phone": "+1 304-252-0200", "website": "http://beckleychiropractor.com/", "rating": null, "reviews": 0, "place_id": "ChIJ32w9F-fyTogRw00ncT4eDCM", "latitude": 37.7824312, "longitude": -81.1876503, "care_type": "Chiropractor"}, {"name": "Chipley Chiropractic", "address": "321 S Eisenhower Dr, Beckley, WV 25801", "city": "Beckley", "phone": "+1 304-252-0200", "website": "http://www.beckleychiropractor.com/", "rating": 5.0, "reviews": 1, "place_id": "ChIJHXjXZtPyTogRQ7uAiHjCi4w", "latitude": 37.7794782, "longitude": -81.1652811, "care_type": "Chiropractor"}, {"name": "Dr. Rocky Sexton", "address": "300 Rural Acres Dr, Beckley, WV 25801", "city": "Beckley", "phone": "+1 304-252-3333", "website": "https://www.integritychirowv.com/about-us", "rating": 5.0, "reviews": 1, "place_id": "ChIJC-0NX8byTogRLW2kyf09bqo", "latitude": 37.7921087, "longitude": -81.1774118, "care_type": "Chiropractor"}, {"name": "Robert M. Evans, DC", "address": "403 3rd Ave, Beckley, WV 25801", "city": "Beckley", "phone": "+1 304-253-0713", "website": "", "rating": 5.0, "reviews": 2, "place_id": "ChIJw0X1-RzzTogRzWT8P2PUokk", "latitude": 37.7728584, "longitude": -81.19435349999999, "care_type": "Chiropractor"}, {"name": "Evans Chiropractic", "address": "403 3rd Ave, Beckley, WV 25801", "city": "Beckley", "phone": "+1 304-253-0713", "website": "", "rating": 5.0, "reviews": 1, "place_id": "ChIJw0X1-RzzTogRTHYPT9poaRU", "latitude": 37.772906, "longitude": -81.19437889999999, "care_type": "Chiropractor"}, {"name": "Gambino Family Chiropractic", "address": "217 N 27th St, Clarksburg, WV 26301", "city": "Clarksburg", "phone": "+1 304-623-7800", "website": "", "rating": 5.0, "reviews": 4, "place_id": "ChIJD4CtF4JpSogRNswmm-lo2Mk", "latitude": 39.291977, "longitude": -80.359438, "care_type": "Chiropractor"}, {"name": "Robert J. Helfer, DC", "address": "965 National Rd, Wheeling, WV 26003", "city": "Wheeling", "phone": "+1 304-232-2050", "website": "", "rating": 4.1, "reviews": 10, "place_id": "ChIJJzs3N2jaNYgRobQakWT1wOM", "latitude": 40.0781792, "longitude": -80.69010759999999, "care_type": "Chiropractor"}, {"name": "Goldbaugh Chiropractic & Sports Rehabilitation", "address": "2227 Chapline St, Wheeling, WV 26003", "city": "Wheeling", "phone": "+1 304-905-9701", "website": "", "rating": 4.9, "reviews": 47, "place_id": "ChIJmeTnvRLbNYgRTdfCeyCfm-A", "latitude": 40.0588878, "longitude": -80.7236506, "care_type": "Chiropractor"}, {"name": "Huls Chiropractic PLLC", "address": "242 Kruger St, Wheeling, WV 26003", "city": "Wheeling", "phone": "+1 304-242-0199", "website": "http://www.hulschiropractic.com/", "rating": 4.6, "reviews": 33, "place_id": "ChIJo8l_jRbbNYgRlCCwQkJuILU", "latitude": 40.0368478, "longitude": -80.6583856, "care_type": "Chiropractor"}, {"name": "Connection Chiropractic PLLC", "address": "242 Kruger St, Wheeling, WV 26003", "city": "Wheeling", "phone": "+1 304-242-0199", "website": "https://www.hulschiropractic.janeapp.com/", "rating": 4.7, "reviews": 25, "place_id": "ChIJYc7pxiPbNYgRQXxn6t7u7Q0", "latitude": 40.0368397, "longitude": -80.6584209, "care_type": "Chiropractor"}, {"name": "Dr. Terrie Huls", "address": "242 Kruger St, Wheeling, WV 26003", "city": "Wheeling", "phone": "+1 304-242-0199", "website": "http://hulschiropractic.com/", "rating": 5.0, "reviews": 5, "place_id": "ChIJo8l_jRbbNYgR0bJms_y86pc", "latitude": 40.0368303, "longitude": -80.658388, "care_type": "Chiropractor"}, {"name": "Nardone Chiropractic", "address": "117 Three Springs Dr, Weirton, WV 26062", "city": "Weirton", "phone": "+1 304-723-2494", "website": "https://www.nardonechiropractic.com/", "rating": 4.8, "reviews": 59, "place_id": "ChIJ-SGG_rEwNIgRhs7feZhWtyo", "latitude": 40.4043733, "longitude": -80.5484294, "care_type": "Chiropractor"}, {"name": "Korzi Chiropractic Center", "address": "3681 Pennsylvania Ave, Weirton, WV 26062", "city": "Weirton", "phone": "+1 304-723-3330", "website": "https://www.drkorzi.com/", "rating": 4.6, "reviews": 10, "place_id": "ChIJx-dsGOA5NIgR8RQ7TDpipN4", "latitude": 40.40840499999999, "longitude": -80.52295099999999, "care_type": "Chiropractor"}, {"name": "Carol A. Korzi, DC", "address": "3681 Pennsylvania Ave, Weirton, WV 26062", "city": "Weirton", "phone": "+1 304-723-3330", "website": "", "rating": 5.0, "reviews": 2, "place_id": "ChIJx-dsGOA5NIgRRDvdGWPLcEc", "latitude": 40.4083899, "longitude": -80.5229426, "care_type": "Chiropractor"}]